[{"statNm": "\uc138\uc885\ub85c \uacf5\uc601\uc8fc\ucc28\uc7a5", "statId": "ME000002", "addr": "\uc11c\uc6b8\ud2b9\ubcc4\uc2dc \uc885\ub85c\uad6c \uc138\uc885\ub300\ub85c 189", "lat": "37.573611", "lng": "126.976011"}, {"statNm": "\uadf8\ub79c\ub4dc\uc570\ubc30\uc11c\ub354 \uc11c\uc6b8", "statId": "ME000003", "addr": "\uc11c\uc6b8\ud2b9\ubcc4\uc2dc \uc911\uad6c \ub3d9\ud638\ub85c 287", "lat": "37.559352", "lng": "127.002350"}, {"statNm": "\ud55c\uac15\uc9c4\uc5ed \uacf5\uc601\uc8fc\ucc28\uc7a5", "statId": "ME000004", "addr": "\uc11c\uc6b8\ud2b9\ubcc4\uc2dc \uc6a9\uc0b0\uad6c \ud55c\ub0a8\ub3d9 \uc0b010-84", "lat": "37.540085", "lng": "127.002804"}, {"statNm": "\ub9c8\uc7a5\ub3d9\uc0ac\ubb34\uc18c \uc55e(\uacf5\uc911\uc804\ud654\ubd80\uc2a4)", "statId": "ME000006", "addr": "\uc11c\uc6b8\ud2b9\ubcc4\uc2dc \uc131\ub3d9\uad6c \ub9c8\uc7a5\ub3d9 808", "lat": "37.5660935", "lng": "127.0455256"}, {"statNm": "\uccad\ub7c9\ub9ac\ub86f\ub370\ubc31\ud654\uc810", "statId": "ME000007", "addr": "\uc11c\uc6b8\ud2b9\ubcc4\uc2dc \ub3d9\ub300\ubb38\uad6c \uc655\uc0b0\ub85c 214", "lat": "37.580650", "lng": "127.047938"}, {"statNm": "\uc774\ub9c8\ud2b8 \uc774\ubb38\uc810", "statId": "ME000008", "addr": "\uc11c\uc6b8\ud2b9\ubcc4\uc2dc \ub3d9\ub300\ubb38\uad6c \uc774\ubb38\ub85c 136", "lat": "37.598454", "lng": "127.061848"}, {"statNm": "\ud648\ud50c\ub7ec\uc2a4 \uc6d4\uace1\uc810", "statId": "ME000011", "addr": "\uc11c\uc6b8\ud2b9\ubcc4\uc2dc \uc131\ubd81\uad6c \ud654\ub791\ub85c 76", "lat": "37.60208293", "lng": "127.04002398"}, {"statNm": "\uc131\ubd81\ubca4\ucc98\ube4c\ub529 \uacf5\uc601\uc8fc\ucc28\uc7a5", "statId": "ME000012", "addr": "\uc11c\uc6b8\ud2b9\ubcc4\uc2dc \uc131\ubd81\uad6c \uc7a5\uc7042\ub3d9 65-154", "lat": "37.60936", "lng": "127.053263"}, {"statNm": "\ub86f\ub370\ub9c8\ud2b8 \uc0bc\uc591\uc810", "statId": "ME000013", "addr": "\uc11c\uc6b8\ud2b9\ubcc4\uc2dc \uac15\ubd81\uad6c \uc0bc\uc591\ub85c 247", "lat": "37.625405", "lng": "127.017897"}, {"statNm": "\uc774\ub9c8\ud2b8 \uc740\ud3c9\uc810", "statId": "ME000016", "addr": "\uc11c\uc6b8\ud2b9\ubcc4\uc2dc \uc740\ud3c9\uad6c \uc740\ud3c9\ub85c 111", "lat": "37.60047527", "lng": "126.92047408"}, {"statNm": "\uad6c\ud30c\ubc1c\uc5ed \ud658\uc2b9\uc8fc\ucc28\uc7a5", "statId": "ME000017", "addr": "\uc11c\uc6b8\ud2b9\ubcc4\uc2dc \uc740\ud3c9\uad6c \uc9c4\uad00\ub3d9 66-30", "lat": "37.637910", "lng": "126.91910"}, {"statNm": "\ud648\ud50c\ub7ec\uc2a4 \uc6d4\ub4dc\ucef5\uc810", "statId": "ME000018", "addr": "\uc11c\uc6b8\ud2b9\ubcc4\uc2dc \ub9c8\ud3ec\uad6c \uc6d4\ub4dc\ucef5\ub85c 240", "lat": "37.566685", "lng": "126.898753"}, {"statNm": "\uc2dc\uc124\uad00\ub9ac\uacf5\ub2e8 \ub9c8\ud3ec\uc720\uc218\uc9c0\uc8fc\ucc28\uc7a5", "statId": "ME000019", "addr": "\uc11c\uc6b8\ud2b9\ubcc4\uc2dc \ub9c8\ud3ec\uad6c \ub9c8\ud3ec\ub300\ub85c1\uae38 19", "lat": "37.539442", "lng": "126.943054"}, {"statNm": "\ud648\ud50c\ub7ec\uc2a4 \ubaa9\ub3d9\uc810", "statId": "ME000021", "addr": "\uc11c\uc6b8\ud2b9\ubcc4\uc2dc \uc591\ucc9c\uad6c \ubaa9\ub3d9\uc11c\ub85c 170", "lat": "37.52992611", "lng": "126.87364033"}, {"statNm": "\ud574\ub9de\uc774\uacf5\uc601\uc8fc\ucc28\uc7a5", "statId": "ME000022", "addr": "\uc11c\uc6b8\ud2b9\ubcc4\uc2dc \uc591\ucc9c\uad6c \uc9c0\uc591\ub85c 47", "lat": "37.520062", "lng": "126.834854"}, {"statNm": "\ud648\ud50c\ub7ec\uc2a4 \uac00\uc591\uc810", "statId": "ME000023", "addr": "\uc11c\uc6b8\ud2b9\ubcc4\uc2dc \uac15\uc11c\uad6c \uc591\ucc9c\ub85c 431", "lat": "37.56401856", "lng": "126.85059572"}, {"statNm": "\ub86f\ub370\ub9c8\ud2b8 \uae40\ud3ec\uacf5\ud56d\uc810", "statId": "ME000024", "addr": "\uc11c\uc6b8\ud2b9\ubcc4\uc2dc \uac15\uc11c\uad6c \ud558\ub298\uae38 77", "lat": "37.563453", "lng": "126.803539"}, {"statNm": "\uba54\uc774\ud544\ub4dc\ud638\ud154", "statId": "ME000025", "addr": "\uc11c\uc6b8\ud2b9\ubcc4\uc2dc \uac15\uc11c\uad6c \ubc29\ud654\ub300\ub85c 94", "lat": "37.546851", "lng": "126.818613"}, {"statNm": "\ucc9c\uc655\uc5ed \ud658\uc2b9\uc8fc\ucc28\uc7a5", "statId": "ME000027", "addr": "\uc11c\uc6b8\ud2b9\ubcc4\uc2dc \uad6c\ub85c\uad6c \uc624\ub958\ub3d9 174-10", "lat": "37.487234", "lng": "126.839153"}, {"statNm": "\uad6c\ub85c\ub9ac\uacf5\uc6d0 \uc55e(\uacf5\uc911\uc804\ud654\ubd80\uc2a4)", "statId": "ME000028", "addr": "\uc11c\uc6b8\ud2b9\ubcc4\uc2dc \uad6c\ub85c\uad6c \uad6c\ub85c\ub3d9 136-14", "lat": "37.4912466", "lng": "126.8919514"}, {"statNm": "\ud648\ud50c\ub7ec\uc2a4 \uc2dc\ud765\uc810", "statId": "ME000029", "addr": "\uc11c\uc6b8\ud2b9\ubcc4\uc2dc \uae08\ucc9c\uad6c \uc2dc\ud765\ub300\ub85c 201", "lat": "37.45222814", "lng": "126.90093936"}, {"statNm": "\uc81c\uc77c\ubaa8\uc9c1\uc544\uc6b8\ub81b \uac74\ub108\ud3b8(\uacf5\uc911\uc804\ud654\ubd80\uc2a4)", "statId": "ME000031", "addr": "\uc11c\uc6b8\ud2b9\ubcc4\uc2dc \uae08\ucc9c\uad6c \uac00\uc0b0\ub3d9 239-27", "lat": "37.4744454", "lng": "126.8867302"}, {"statNm": "\uc601\ub4f1\ud3ec\uad6c \ub300\uc2e0\uc2dc\uc7a5(\uacf5\uc911\uc804\ud654\ubd80\uc2a4)", "statId": "ME000032", "addr": "\uc11c\uc6b8\ud2b9\ubcc4\uc2dc \uc601\ub4f1\ud3ec\uad6c \uc2e0\uae381\ub3d9 116-15", "lat": "37.5113404", "lng": "126.9176919"}, {"statNm": "\ub3d9\uc791\uc8fc\ucc28\uacf5\uc6d0 \uacf5\uc601\uc8fc\ucc28\uc7a5", "statId": "ME000035", "addr": "\uc11c\uc6b8\ud2b9\ubcc4\uc2dc \ub3d9\uc791\uad6c \ud604\ucda9\ub85c 213", "lat": "37.503803", "lng": "126.976775"}, {"statNm": "\uc870\uc6d0\ub3d9 \uc81c1\uacf5\uc601\uc8fc\ucc28\uc7a5", "statId": "ME000036", "addr": "\uc11c\uc6b8\ud2b9\ubcc4\uc2dc \uad00\uc545\uad6c \uc2e0\ub9bc\ub3d9 571-6", "lat": "37.481069", "lng": "126.905703"}, {"statNm": "\uc0ac\ub2f9\uc5ed \uacf5\uc601\uc8fc\ucc28\uc7a5", "statId": "ME000037", "addr": "\uc11c\uc6b8\ud2b9\ubcc4\uc2dc \uc11c\ucd08\uad6c \uacfc\ucc9c\ub300\ub85c 950-18", "lat": "37.475256", "lng": "126.982638"}, {"statNm": "\uc774\ub9c8\ud2b8 \uc591\uc7ac\uc810", "statId": "ME000038", "addr": "\uc11c\uc6b8\ud2b9\ubcc4\uc2dc \uc11c\ucd08\uad6c \ub9e4\ud5cc\ub85c 16", "lat": "37.463293", "lng": "127.036812"}, {"statNm": "\uc218\uc11c\uc5ed \uacf5\uc601\uc8fc\ucc28\uc7a5", "statId": "ME000039", "addr": "\uc11c\uc6b8\ud2b9\ubcc4\uc2dc \uac15\ub0a8\uad6c \uc218\uc11c\ub3d9 735", "lat": "37.487569", "lng": "127.101016"}, {"statNm": "\ud559\uc5ec\uc6b8\uc5ed \uacf5\uc601\uc8fc\ucc28\uc7a5", "statId": "ME000040", "addr": "\uc11c\uc6b8\ud2b9\ubcc4\uc2dc \uac15\ub0a8\uad6c \ub0a8\ubd80\uc21c\ud658\ub85c 3104", "lat": "37.496722", "lng": "127.070444"}, {"statNm": "\ub86f\ub370\ub9c8\ud2b8 \uc7a0\uc2e4\uc810", "statId": "ME000044", "addr": "\uc11c\uc6b8\ud2b9\ubcc4\uc2dc \uc1a1\ud30c\uad6c \uc62c\ub9bc\ud53d\ub85c 240", "lat": "37.511818", "lng": "127.096321"}, {"statNm": "\uc774\ub9c8\ud2b8 \uba85\uc77c\uc810", "statId": "ME000045", "addr": "\uc11c\uc6b8\ud2b9\ubcc4\uc2dc \uac15\ub3d9\uad6c \uace0\ub355\ub85c 276", "lat": "37.554606", "lng": "127.155966"}, {"statNm": "\ub178\ubcf4\ud154", "statId": "ME174001", "addr": "\uc11c\uc6b8\ud2b9\ubcc4\uc2dc \uac15\ub0a8\uad6c \ubd09\uc740\uc0ac\ub85c 130", "lat": "37.5052721", "lng": "127.0289991"}, {"statNm": "\uc554\uc0ac1\ub3d9 \uacf5\uc601\uc8fc\ucc28\uc7a5", "statId": "ME174003", "addr": "\uc11c\uc6b8\ud2b9\ubcc4\uc2dc \uac15\ub3d9\uad6c \uace0\ub355\ub85c28\uae38 36", "lat": "37.5529087", "lng": "127.1372547"}, {"statNm": "\ucc9c\ud638\uc720\uc218\uc9c0 \uacf5\uc601\uc8fc\ucc28\uc7a5", "statId": "ME174004", "addr": "\uc11c\uc6b8\ud2b9\ubcc4\uc2dc \uac15\ub3d9\uad6c \uc120\uc0ac\ub85c 70", "lat": "37.5448122", "lng": "127.1218396"}, {"statNm": "\ucc9c\ud6383\ub3d9 \uc81c1\uacf5\uc601\uc8fc\ucc28\uc7a5", "statId": "ME174005", "addr": "\uc11c\uc6b8\ud2b9\ubcc4\uc2dc \uac15\ub3d9\uad6c \uc9c4\ud669\ub3c4\ub85c29\uae38 34", "lat": "37.5387951", "lng": "127.1333987"}, {"statNm": "\uac00\ub85c\uacf5\uc6d0\ub85c \uc9c0\ud558\uacf5\uc601\uc8fc\ucc28\uc7a5", "statId": "ME174006", "addr": "\uc11c\uc6b8\ud2b9\ubcc4\uc2dc \uac15\uc11c\uad6c \uac00\ub85c\uacf5\uc6d0\ub85c 189", "lat": "37.5372628", "lng": "126.8383789"}, {"statNm": "\uacf0\ub2ec\ub798\ubb38\ud654\ubcf5\uc9c0\uc13c\ud130 \uacf5\uc601\uc8fc\ucc28\uc7a5", "statId": "ME174007", "addr": "\uc11c\uc6b8\ud2b9\ubcc4\uc2dc \uac15\uc11c\uad6c \uac15\uc11c\ub85c5\uae38 50", "lat": "37.5289561", "lng": "126.8490887"}, {"statNm": "\ubccf\uace8\uacf5\uc6d0 \uc9c0\ud558\uacf5\uc601\uc8fc\ucc28\uc7a5", "statId": "ME174008", "addr": "\uc11c\uc6b8\ud2b9\ubcc4\uc2dc \uac15\uc11c\uad6c \uae4c\uce58\uc0b0\ub85c4\uae38 22", "lat": "37.5419747", "lng": "126.8444499"}, {"statNm": "\ud654\uace16-1 \uacf5\uc601\uc8fc\ucc28\uc7a5", "statId": "ME174009", "addr": "\uc11c\uc6b8\ud2b9\ubcc4\uc2dc \uac15\uc11c\uad6c \uc6b0\uc7a5\uc0b0\ub85c 114", "lat": "37.5530457", "lng": "126.8488169"}, {"statNm": "\ud648\ud50c\ub7ec\uc2a4 \uac15\uc11c\uc810", "statId": "ME174010", "addr": "\uc11c\uc6b8\ud2b9\ubcc4\uc2dc \uac15\uc11c\uad6c \ud654\uace1\ub85c 398", "lat": "37.5591218", "lng": "126.8549199"}, {"statNm": "\uc2e0\ub9bc\ub3d9 \uc81c1\uacf5\uc601\uc8fc\ucc28\uc7a5", "statId": "ME174011", "addr": "\uc11c\uc6b8\ud2b9\ubcc4\uc2dc \uad00\uc545\uad6c \uad00\ucc9c\ub85c 98", "lat": "37.4874046", "lng": "126.9235075"}, {"statNm": "\ub09c\uace1\ub3d9 \uc81c1\uacf5\uc601\uc8fc\ucc28\uc7a5", "statId": "ME174012", "addr": "\uc11c\uc6b8\ud2b9\ubcc4\uc2dc \uad00\uc545\uad6c \ub09c\uace1\ub85c34\ub098\uae38 14", "lat": "37.4722977", "lng": "126.9231169"}, {"statNm": "\ub099\uc131\ub300\ub3d9\uc8fc\ubbfc\uc13c\ud130", "statId": "ME174013", "addr": "\uc11c\uc6b8\ud2b9\ubcc4\uc2dc \uad00\uc545\uad6c \ub099\uc131\ub300\ub85c4\uac00\uae38 5", "lat": "37.476296", "lng": "126.9583876"}, {"statNm": "\ubcf4\ub77c\ub9e4 \uc81c1\uacf5\uc601\uc8fc\ucc28\uc7a5", "statId": "ME174014", "addr": "\uc11c\uc6b8\ud2b9\ubcc4\uc2dc \uad00\uc545\uad6c \ubd09\ucc9c\ub85c21\uae38 38", "lat": "37.488301", "lng": "126.9346119"}, {"statNm": "\ubcf4\ub77c\ub9e4 \uc81c1\uacf5\uc601\uc8fc\ucc28\uc7a5", "statId": "ME174014", "addr": "\uc785\uad6c\uc88c\uce21, \uc9c0\ud558 \uac01 1\uae30", "lat": "37.488301", "lng": "126.9346119"}, {"statNm": "\uc6d0\uc2e0 \uacf5\uc601\uc8fc\ucc28\uc7a5", "statId": "ME174015", "addr": "\uc11c\uc6b8\ud2b9\ubcc4\uc2dc \uad00\uc545\uad6c \uc591\uc9c0\uae38 63", "lat": "37.470038", "lng": "126.9292421"}, {"statNm": "\uc5b4\ub9b0\uc774\ub300\uacf5\uc6d0 \ud6c4\ubb38\uc8fc\ucc28\uc7a5", "statId": "ME174016", "addr": "\uc11c\uc6b8\ud2b9\ubcc4\uc2dc \uad11\uc9c4\uad6c \ub2a5\ub3d9\ub85c 216", "lat": "37.5515067", "lng": "127.0869275"}, {"statNm": "\ud648\ud50c\ub7ec\uc2a4 \uc2e0\ub3c4\ub9bc\uc810", "statId": "ME174017", "addr": "\uc11c\uc6b8\ud2b9\ubcc4\uc2dc \uad6c\ub85c\uad6c \uacbd\uc778\ub85c 661", "lat": "37.5099693", "lng": "126.888413"}, {"statNm": "\ub86f\ub370\ub9c8\ud2b8 \uc911\uacc4\uc810", "statId": "ME174018", "addr": "\uc11c\uc6b8\ud2b9\ubcc4\uc2dc \ub178\uc6d0\uad6c \ub178\uc6d0\ub85c 330", "lat": "37.6466673", "lng": "127.0715514"}, {"statNm": "\ud648\ud50c\ub7ec\uc2a4 \uc911\uacc4\uc810", "statId": "ME174019", "addr": "\uc11c\uc6b8\ud2b9\ubcc4\uc2dc \ub178\uc6d0\uad6c \ub3d9\uc77c\ub85c204\uac00\uae38 12", "lat": "37.6400856", "lng": "127.0685413"}, {"statNm": "\uc2e4\uc99d\uc6a9 Mock-up \uc8fc\ud0dd \ud64d\ubcf4\uad00", "statId": "ME174020", "addr": "\uc11c\uc6b8\ud2b9\ubcc4\uc2dc \ub178\uc6d0\uad6c \ud558\uacc4\ub3d9 251-8", "lat": "37.6381803", "lng": "127.0737876"}, {"statNm": "\ub3d9\ub300\ubb38\uad6c\uccad", "statId": "ME174021", "addr": "\uc11c\uc6b8\ud2b9\ubcc4\uc2dc \ub3d9\ub300\ubb38\uad6c \ucc9c\ud638\ub300\ub85c 145", "lat": "37.5746807", "lng": "127.0401814"}, {"statNm": "\uc911\uc559\ub300\ud559\uad50\ubcd1\uc6d0 \ub2e4\uc815\uad00 \uc8fc\ucc28\uc7a5", "statId": "ME174022", "addr": "\uc11c\uc6b8\ud2b9\ubcc4\uc2dc \ub3d9\uc791\uad6c \ud751\uc11d\ub85c 102", "lat": "37.5055471", "lng": "126.9607195"}, {"statNm": "\uc591\ud654\uc9c4\uacf5\uc601\uc8fc\ucc28\uc7a5", "statId": "ME174023", "addr": "\uc11c\uc6b8\ud2b9\ubcc4\uc2dc \ub9c8\ud3ec\uad6c \ud1a0\uc815\ub85c 2", "lat": "37.5457992", "lng": "126.9117265"}, {"statNm": "\uacf5\ub3551-1\uacf5\uc601\uc8fc\ucc28\uc7a5", "statId": "ME174024", "addr": "\uc625\uc0c1", "lat": "37.5471234", "lng": "126.9612454"}, {"statNm": "\ud64d\uc81c\uacac\uc778\ucc28\ub7c9\ubcf4\uad00\uc18c \uc8fc\ucc28\uc7a5", "statId": "ME174025", "addr": "\uc11c\uc6b8\ud2b9\ubcc4\uc2dc \uc11c\ub300\ubb38\uad6c \ud64d\uc81c\ub0b4\uae38 227", "lat": "37.5905929", "lng": "126.9407564"}, {"statNm": "\uc11c\uc6b8\uc2dc\uc778\uc7ac\uac1c\ubc1c\uc6d0", "statId": "ME174026", "addr": "\uc11c\uc6b8\ud2b9\ubcc4\uc2dc \uc11c\ucd08\uad6c \ub0a8\ubd80\uc21c\ud658\ub85c 340\uae38 58", "lat": "37.481369", "lng": "127.0238502"}, {"statNm": "\uc11c\uc6b8\ucd94\ubaa8\uacf5\uc6d0", "statId": "ME174027", "addr": "\uc11c\uc6b8\ud2b9\ubcc4\uc2dc \uc11c\ucd08\uad6c \uc591\uc7ac\ub300\ub85c12\uae38 74", "lat": "37.4536062", "lng": "127.0428005"}, {"statNm": "\uc544\uc2dc\uc544\uacf5\uc6d0 \uacf5\uc601\uc8fc\ucc28\uc7a5", "statId": "ME174028", "addr": "\uc11c\uc6b8\ud2b9\ubcc4\uc2dc \uc1a1\ud30c\uad6c \uc7a0\uc2e4\ub3d9 84", "lat": "37.5102969", "lng": "127.0788121"}, {"statNm": "\ub86f\ub370\ub9c8\ud2b8 \uc1a1\ud30c\uc810", "statId": "ME174029", "addr": "\uc11c\uc6b8\ud2b9\ubcc4\uc2dc \uc1a1\ud30c\uad6c \uc911\ub300\ub85c 80", "lat": "37.4918392", "lng": "127.1178931"}, {"statNm": "\ud648\ud50c\ub7ec\uc2a4 \uc601\ub4f1\ud3ec\uc810", "statId": "ME174030", "addr": "\uc11c\uc6b8\ud2b9\ubcc4\uc2dc \uc601\ub4f1\ud3ec\uad6c \ub2f9\uc0b0\ub85c 42", "lat": "37.5190208", "lng": "126.8957999"}, {"statNm": "\uc2e0\uae386\ub3d9 \uacf5\uc601\ub178\uc678\uc8fc\ucc28\uc7a5(\uad6c \uc2e0\uae38 \uc81c5\ub3d9 \uc8fc\ubbfc\uc13c\ud130)", "statId": "ME174031", "addr": "\uc11c\uc6b8\ud2b9\ubcc4\uc2dc \uc601\ub4f1\ud3ec\uad6c \uc2e0\uae38\ub3d9 3203", "lat": "37.502512989", "lng": "126.9110497"}, {"statNm": "\uc2e0\uae384\ub3d91\ub9c8\uc744\uacf5\uc6d0 \uacf5\uc601\uc8fc\ucc28\uc7a5", "statId": "ME174032", "addr": "\uc11c\uc6b8\ud2b9\ubcc4\uc2dc \uc601\ub4f1\ud3ec\uad6c \uc2e0\uae38\ub85c40\uae38 5", "lat": "37.507122", "lng": "126.9116817"}, {"statNm": "\ub2f9\uc0b0\uc5d0\uc2a4\uc5d0\uc774\uce58\ube4c \uc544\ud30c\ud2b8 \uc55e", "statId": "ME174033", "addr": "\uc11c\uc6b8\ud2b9\ubcc4\uc2dc \uc601\ub4f1\ud3ec\uad6c \uc601\uc2e0\ub85c 183", "lat": "37.524217", "lng": "126.9019801"}, {"statNm": "\uc601\ub4f1\ud3ec \uc81c3\uacf5\uc601", "statId": "ME174034", "addr": "\uc11c\uc6b8\ud2b9\ubcc4\uc2dc \uc601\ub4f1\ud3ec\uad6c \uc601\uc911\ub85c3\uae38 7", "lat": "37.5180087", "lng": "126.9030865"}, {"statNm": "\uc2e0\ucc3d\ub3d9 \uacf5\uc601\uc8fc\ucc28\uc7a5", "statId": "ME174035", "addr": "\uc11c\uc6b8\ud2b9\ubcc4\uc2dc \uc6a9\uc0b0\uad6c \uc6d0\ud6a8\ub85c35\uae38 53", "lat": "37.5353568", "lng": "126.9552587"}, {"statNm": "\ud55c\ub0a8\ub3d9 \uacf5\uc601\uc8fc\ucc28\uc7a5", "statId": "ME174036", "addr": "\uc11c\uc6b8\ud2b9\ubcc4\uc2dc \uc6a9\uc0b0\uad6c \uc774\ud0dc\uc6d0\ub85c 224-19", "lat": "37.5349284", "lng": "127.0002489"}, {"statNm": "\ud604\ub300\uc790\ub3d9\ucc28 \uc218\uc0c9\ub300\ub9ac\uc810", "statId": "ME174037", "addr": "\uc11c\uc6b8\ud2b9\ubcc4\uc2dc \uc740\ud3c9\uad6c \uc218\uc0c9\ub85c 342-1", "lat": "37.5867665", "lng": "126.8880299"}, {"statNm": "\uc740\ud3c9\uad6c\ubbfc\uccb4\uc721\uc13c\ud130", "statId": "ME174038", "addr": "\uc11c\uc6b8\ud2b9\ubcc4\uc2dc \uc740\ud3c9\uad6c \uc9c4\uad001\ub85c 40", "lat": "37.6310603", "lng": "126.9246413"}, {"statNm": "\ud0dc\ud654\ube4c\ub529", "statId": "ME174039", "addr": "\uc11c\uc6b8\ud2b9\ubcc4\uc2dc \uc885\ub85c\uad6c \uc778\uc0ac\ub3d95\uae38 29", "lat": "37.5718148", "lng": "126.9850443"}, {"statNm": "\ud55c\uad6d\uc608\uc220\uc885\ud569\ud559\uad50(\uc885\ub85c)", "statId": "ME174040", "addr": "\uc11c\uc6b8\ud2b9\ubcc4\uc2dc \uc885\ub85c\uad6c \ucc3d\uacbd\uad81\ub85c 215", "lat": "37.5824318", "lng": "126.9974047"}, {"statNm": "\uad6d\ub9bd\uadf9\uc7a5", "statId": "ME174041", "addr": "\uad6d\ub9bd\uadf9\uc7a5 \uc88c\uce21 \ucd9c\uad6c \uc8fc\ucc28\uc7a5", "lat": "37.5517908", "lng": "127.0002167"}, {"statNm": "\ud648\ud50c\ub7ec\uc2a4 \uc0c1\ubd09\uc810", "statId": "ME174042", "addr": "\uc11c\uc6b8\ud2b9\ubcc4\uc2dc \uc911\ub791\uad6c \ub9dd\uc6b0\ub85c 353", "lat": "37.5983156", "lng": "127.0905669"}, {"statNm": "\ud648\ud50c\ub7ec\uc2a4 \uc2e0\ub0b4\uc810", "statId": "ME174043", "addr": "\uc11c\uc6b8\ud2b9\ubcc4\uc2dc \uc911\ub791\uad6c \uc2e0\ub0b4\ub85c 201", "lat": "37.6159847", "lng": "127.0939656"}, {"statNm": "\uc6a9\ub9c8\ud3ed\ud3ec\uacf5\uc6d0 \uacf5\uc601\uc8fc\ucc28\uc7a5", "statId": "ME174044", "addr": "\uc11c\uc6b8\ud2b9\ubcc4\uc2dc \uc911\ub791\uad6c \uc6a9\ub9c8\uc0b0\ub85c 250-12", "lat": "37.5745068", "lng": "127.089592"}, {"statNm": "\uc11c\uc6b8\ub9cc\ub0a8\ud734\uac8c\uc18c(\ubd80\uc0b0\ubc29\ud5a5)", "statId": "ME178009", "addr": "\uc11c\uc6b8\ud2b9\ubcc4\uc2dc \uc11c\ucd08\uad6c \uc591\uc7ac\ub300\ub85c12\uae38 73-71 (\uc6d0\uc9c0\ub3d9)", "lat": "37.4600218", "lng": "127.0420378"}, {"statNm": "\ud30c\ud06c\ud558\uc58f\ud2b8\uc11c\uc6b8\ud638\ud154", "statId": "ME181101", "addr": "\uc11c\uc6b8\ud2b9\ubcc4\uc2dc \uac15\ub0a8\uad6c \ud14c\ud5e4\ub780\ub85c606", "lat": "37.508834", "lng": "127.064114"}, {"statNm": "\uc2a4\uc704\uc2a4\uadf8\ub79c\ub4dc\ud638\ud154(\uad6c \uadf8\ub79c\ub4dc\ud790\ud2bc\ud638\ud154)", "statId": "ME181102", "addr": "\uc11c\uc6b8\ud2b9\ubcc4\uc2dc \uc11c\ub300\ubb38\uad6c \uc5f0\ud76c\ub85c 353", "lat": "37.590003", "lng": "126.934744"}, {"statNm": "\uc6b0\ub9ac\uc740\ud589\ubcf8\uc810", "statId": "ME181150", "addr": "\uc11c\uc6b8\ud2b9\ubcc4\uc2dc \uc911\uad6c \uc18c\uacf5\ub85c 51\ubc88\uc9c0", "lat": "37.559534", "lng": "126.981817"}, {"statNm": "\ub9c8\uace1\ub808\ud3ec\uce20\uc13c\ud130", "statId": "ME183001", "addr": "\uc11c\uc6b8\ud2b9\ubcc4\uc2dc \uac15\uc11c\uad6c \uc591\ucc9c\ub85c 251, \uc785\uad6c \uc6b0\uce21", "lat": "37.5728411", "lng": "126.8323738"}, {"statNm": "\ucc3d2\ub3d9 \uc81c4\uacf5\uc601\uc8fc\ucc28\uc7a5", "statId": "ME183002", "addr": "\uc11c\uc6b8\ud2b9\ubcc4\uc2dc \ub3c4\ubd09\uad6c \ucc3d2\ub3d9 582-22", "lat": "37.6413031", "lng": "127.0364035"}, {"statNm": "\ucc3d3\ub3d9 \uc81c1\uacf5\uc601\uc8fc\ucc28\uc7a5", "statId": "ME183003", "addr": "\uc11c\uc6b8\ud2b9\ubcc4\uc2dc \ub3c4\ubd09\uad6c \ucc3d3\ub3d9 504-21, \uc88c\uce21 \uc548\ucabd", "lat": "37.6332558", "lng": "127.0412125"}, {"statNm": "\ucc3d\ucc9c\uacf5\uc601\uc8fc\ucc28\uc7a5", "statId": "ME183004", "addr": "\uc11c\uc6b8\ud2b9\ubcc4\uc2dc \ub9c8\ud3ec\uad6c \ub178\uace0\uc0b0\ub3d9 33-1, B3 28", "lat": "37.55493", "lng": "126.9389738"}, {"statNm": "\ubc88\ub3d9\ud587\uc0b4 \uacf5\uc601\uc8fc\ucc28\uc7a5", "statId": "ME183005", "addr": "\uc11c\uc6b8\ud2b9\ubcc4\uc2dc \uac15\ubd81\uad6c \uc624\ud604\ub85c 21\uae38 84, \uc625\uc0c1 \uc8fc\ucc28\uc7a5", "lat": "37.6249449", "lng": "127.0334805"}, {"statNm": "\ub09c\ud5a5\ub3d9 \uc8fc\ubbfc\uc13c\ud130", "statId": "ME183006", "addr": "\uc11c\uc6b8\ud2b9\ubcc4\uc2dc \uad00\uc545\uad6c \ub09c\uace1\ub85c 67", "lat": "37.4616153", "lng": "126.9189711"}, {"statNm": "\uc2dc\ud765\uc81c4\ub3d9\uacf5\uc601\uc8fc\ucc28\uc7a5", "statId": "ME183007", "addr": "\uc11c\uc6b8\ud2b9\ubcc4\uc2dc \uae08\ucc9c\uad6c \ub3c5\uc0b0\ub85c 36\ub098\uae38 21, B1 18", "lat": "37.4589664", "lng": "126.9084827"}, {"statNm": "\uc30d\ubb383\ub3d9 \uc81c2\uacf5\uc601\uc8fc\ucc28\uc7a5", "statId": "ME183008", "addr": "\uc11c\uc6b8\ud2b9\ubcc4\uc2dc \ub3c4\ubd09\uad6c \uc30d\ubb383\ub3d9 315-62, \uc9c0\ud558 1\uce35 \uc548\ucabd", "lat": "37.6493531", "lng": "127.0293841"}, {"statNm": "\uc2a4\ud0e0\ud3ec\ub4dc\ud638\ud154\ucf54\ub9ac\uc544", "statId": "ME183009", "addr": "\uc11c\uc6b8\ud2b9\ubcc4\uc2dc \ub9c8\ud3ec\uad6c \uc0c1\uc554\ub3d9 \uc6d4\ub4dc\ucef5\ubd81\ub85c 58\uae38 15, \uc9c0\ud5584\uce35 18", "lat": "37.5823581", "lng": "126.886648"}, {"statNm": "\uad6d\ud68c\ub3c4\uc11c\uad00", "statId": "ME183103", "addr": "\uc11c\uc6b8\ud2b9\ubcc4\uc2dc \uc601\ub4f1\ud3ec\uad6c \uc758\uc0ac\ub2f9\ub300\ub85c1, \uad6d\ud68c\ub3c4\uc11c\uad00 \uc55e", "lat": "37.5300002", "lng": "126.9169991"}, {"statNm": "\uad6d\ud68c\uc758\uc6d0\ud68c\uad00", "statId": "ME183219", "addr": "\uc11c\uc6b8\ud2b9\ubcc4\uc2dc \uc601\ub4f1\ud3ec\uad6c \uc758\uc0ac\ub2f9\ub300\ub85c1, \uad6d\ud68c\uc758\uc6d0\ud68c\uad00 \uc8fc\ucc28\uc7a5 \uc6b0\uce21", "lat": "37.5284644", "lng": "126.9149198"}, {"statNm": "\ub178\uc6d0\uc5d0\ucf54\uc13c\ud130", "statId": "ME184075", "addr": "\uc11c\uc6b8\ud2b9\ubcc4\uc2dc \ub178\uc6d0\uad6c \ub355\ub989\ub85c 450", "lat": "37.644779", "lng": "127.059382"}, {"statNm": "\uc601\ub4f1\ud3ec\uad6c\uccad \ud658\uc2b9\uacf5\uc601\uc8fc\ucc28\uc7a5", "statId": "ME184076", "addr": "\uc11c\uc6b8\ud2b9\ubcc4\uc2dc \uc601\ub4f1\ud3ec\uad6c \uc591\uc0b0\ub85c111", "lat": "37.524521", "lng": "126.895436"}, {"statNm": "\uc11c\uc6b8\uc758\ub8cc\uc6d0", "statId": "ME184077", "addr": "\uc11c\uc6b8\ud2b9\ubcc4\uc2dc \uc911\ub791\uad6c \uc2e0\ub0b4\ub85c 156", "lat": "37.6128457", "lng": "127.0993409"}, {"statNm": "\ub86f\ub370 \ube45\ub9c8\ucf13", "statId": "ME18A002", "addr": "\uc11c\uc6b8\ud2b9\ubcc4\uc2dc \uc601\ub4f1\ud3ec\uad6c \uc601\uc911\ub85c 125, \uc9c0\uc0c1\uc8fc\ucc28\uc7a5(\uc678\ubd80 1F)", "lat": "37.528123", "lng": "126.904080"}, {"statNm": "\uc131\uc560\ubcd1\uc6d0", "statId": "ME18B159", "addr": "\uc11c\uc6b8\ud2b9\ubcc4\uc2dc \uc601\ub4f1\ud3ec\uad6c \uc5ec\uc758\ub300\ubc29\ub85c 53\uae38 22", "lat": "37.51202", "lng": "126.92238"}, {"statNm": "\ub0c9\ucc9c\uae38 \uacf5\uc601\uc8fc\ucc28\uc7a5", "statId": "ME18B160", "addr": "\uc11c\uc6b8\ud2b9\ubcc4\uc2dc \uac15\ubd81\uad6c \uc0bc\uc591\ub85c 230-12", "lat": "37.62393", "lng": "127.01953"}, {"statNm": "\ubbf8\uc544\ub3d9 \uacf5\uc601\uc8fc\ucc28\uc7a5", "statId": "ME18B161", "addr": "\uc11c\uc6b8\ud2b9\ubcc4\uc2dc \uac15\ubd81\uad6c \ub3c4\ubd09\ub85c 61\uae38 46", "lat": "37.62851", "lng": "127.02233"}, {"statNm": "\uc218\uc720\ub9c8\uc744\uc2dc\uc7a5 \uacf5\uc601\uc8fc\ucc28\uc7a5", "statId": "ME18B162", "addr": "\uc11c\uc6b8\ud2b9\ubcc4\uc2dc \uac15\ubd81\uad6c \ub3c4\ubd09\ub85c 69\uae38 29", "lat": "37.62047", "lng": "127.02679"}, {"statNm": "\uac1c\ubd091\ub3d9 \uc8fc\ubbfc\uc13c\ud130 \uc606 \uacf5\uc601\uc8fc\ucc28\uc7a5", "statId": "ME18B163", "addr": "\uc11c\uc6b8\ud2b9\ubcc4\uc2dc \uad6c\ub85c\uad6c \uac1c\ubd09\ub3d9 134-8", "lat": "37.50016", "lng": "126.85106"}, {"statNm": "\ud558\ub298\uacf5\uc6d0\uc8fc\ucc28\uc7a5", "statId": "ME18B164", "addr": "\uc11c\uc6b8\ud2b9\ubcc4\uc2dc \uad6c\ub85c\uad6c \ubc9a\uaf43\ub85c 370", "lat": "37.48739", "lng": "126.88051"}, {"statNm": "\uc30d\ubb382\ub3d9 \uc81c3\uacf5\uc601\uc8fc\ucc28\uc7a5", "statId": "ME18B165", "addr": "\uc11c\uc6b8\ud2b9\ubcc4\uc2dc \ub3c4\ubd09\uad6c \uc30d\ubb382\ub3d9 710-4", "lat": "37.66116", "lng": "127.03864"}, {"statNm": "\uc11c\ucd08\uad6c\uccad", "statId": "ME18B166", "addr": "\uc11c\uc6b8\ud2b9\ubcc4\uc2dc \uc11c\ucd08\uad6c \ub0a8\ubd80\uc21c\ud658\ub85c 2584", "lat": "37.48358", "lng": "127.03269"}, {"statNm": "\ubd81\ud55c\uc0b0\uad6d\ub9bd\uacf5\uc6d0 \uc815\ub989\ud0d0\ubc29\uc9c0\uc6d0\uc13c\ud130", "statId": "ME18B167", "addr": "\uc11c\uc6b8\ud2b9\ubcc4\uc2dc \uc131\ubd81\uad6c \uc815\ub989\ub3d9 829-1", "lat": "37.61846", "lng": "126.99690"}, {"statNm": "\ubd81\ud55c\uc0b0\uad6d\ub9bd\uacf5\uc6d0\uc8fc\ucc28\uc7a5", "statId": "ME18B168", "addr": "\uc11c\uc6b8\ud2b9\ubcc4\uc2dc \uc740\ud3c9\uad6c \uc9c4\uad00\ub3d9 278", "lat": "37.65584", "lng": "126.94885"}, {"statNm": "\ubd80\uc554\ub3d9 \uc8fc\ubbfc\uc13c\ud130", "statId": "ME18B169", "addr": "\uc11c\uc6b8\ud2b9\ubcc4\uc2dc \uc885\ub85c\uad6c \ucc3d\uc758\ubb38\ub85c 145", "lat": "37.59246", "lng": "126.96412"}, {"statNm": "SETEC", "statId": "ME18B170", "addr": "\uc11c\uc6b8\ud2b9\ubcc4\uc2dc \uac15\ub0a8\uad6c \ub0a8\ubd80\uc21c\ud658\ub85c3104", "lat": "37.49584", "lng": "127.07223"}, {"statNm": "\ub17c\ud604\ub85c22\uae38 \uacf5\uc601\uc8fc\ucc28\uc7a5", "statId": "ME18B171", "addr": "\uc11c\uc6b8\ud2b9\ubcc4\uc2dc \uac15\ub0a8\uad6c \uac1c\ud3ec\ub85c 25\uae38 32", "lat": "37.48151", "lng": "127.04851"}, {"statNm": "\ub300\uccad\uc5ed \uacf5\uc601\uc8fc\ucc28\uc7a5", "statId": "ME18B172", "addr": "\uc11c\uc6b8\ud2b9\ubcc4\uc2dc \uac15\ub0a8\uad6c \uac1c\ud3ec\ub3d9 13-2", "lat": "37.49491", "lng": "127.07928"}, {"statNm": "\uc555\uad6c\uc815\ub85c29\uae38 \uacf5\uc601\ub178\uc0c1\uc8fc\ucc28\uc7a5", "statId": "ME18B173", "addr": "\uc11c\uc6b8\ud2b9\ubcc4\uc2dc \uac15\ub0a8\uad6c \uc555\uad6c\uc815\ub3d9 453", "lat": "37.52968", "lng": "127.02782"}, {"statNm": "\uac00\uc624\ub9ac \uacf5\uc601\uc8fc\ucc28\uc7a5", "statId": "ME18B174", "addr": "\uc11c\uc6b8\ud2b9\ubcc4\uc2dc \uac15\ubd81\uad6c \uc0bc\uc591\ub85c107\uae38 30", "lat": "37.64152", "lng": "127.01495"}, {"statNm": "\uac00\uc591\ub808\ud3ec\uce20\uc13c\ud130", "statId": "ME18B175", "addr": "\uc11c\uc6b8\ud2b9\ubcc4\uc2dc \uac15\uc11c\uad6c \uc591\ucc9c\ub85c61\uae38 101", "lat": "37.56198", "lng": "126.86373"}, {"statNm": "\uc0c1\uacc42\ub3d9 \uacf5\uc601\uc8fc\ucc28\uc7a5", "statId": "ME18B177", "addr": "\uc11c\uc6b8\ud2b9\ubcc4\uc2dc \ub178\uc6d0\uad6c \uc0c1\uacc42\ub3d9 373-13", "lat": "37.65668", "lng": "127.06751"}, {"statNm": "DMC \uc0b0\ud559\ud611\ub825\uc5f0\uad6c\uc13c\ud130", "statId": "ME18B178", "addr": "\uc11c\uc6b8\ud2b9\ubcc4\uc2dc \ub9c8\ud3ec\uad6c \ub9e4\ubd09\uc0b0\ub85c 37", "lat": "37.57600", "lng": "126.89053"}, {"statNm": "\ub9c8\ucc9c\ub3d92\uacf5\uc601\uc8fc\ucc28\uc7a5", "statId": "ME18B179", "addr": "\uc11c\uc6b8\ud2b9\ubcc4\uc2dc \uc1a1\ud30c\uad6c \uc131\ub0b4\ucc9c\ub85c299-7", "lat": "37.49427", "lng": "127.15624"}, {"statNm": "\uac70\uc5ec\ub3d9\uacf5\uc601\uc8fc\ucc28\uc7a5", "statId": "ME18B180", "addr": "\uc11c\uc6b8\ud2b9\ubcc4\uc2dc \uc1a1\ud30c\uad6c \uc624\uae08\ub85c68\uae388", "lat": "37.49223", "lng": "127.15033"}, {"statNm": "\ucc9c\ub9c8\uacf5\uc601\uc8fc\ucc28\uc7a5", "statId": "ME18B181", "addr": "\uc11c\uc6b8\ud2b9\ubcc4\uc2dc \uc1a1\ud30c\uad6c \uc131\ub0b4\ucc9c\ub85c33\uac00\uae3820", "lat": "37.50028", "lng": "127.15482"}, {"statNm": "\uc774\ud0dc\uc6d02\ub3d9\uacf5\uc601\uc8fc\ucc28\uc7a5", "statId": "ME18B182", "addr": "\uc11c\uc6b8\ud2b9\ubcc4\uc2dc \uc6a9\uc0b0\uad6c \ud68c\ub098\ubb34\ub85c 55\uff1f", "lat": "37.54034", "lng": "126.99267"}, {"statNm": "\uc2e0\uc6d45\ub3d9 \uc8fc\ubbfc\uc13c\ud130", "statId": "ME18B184", "addr": "\uc11c\uc6b8\ud2b9\ubcc4\uc2dc \uc591\ucc9c\uad6c \ud654\uace1\ub85c4\uae38 10", "lat": "37.53852", "lng": "126.82716"}, {"statNm": "\uc2e0\uc8151\ub3d9 \uc8fc\ubbfc\uc13c\ud130", "statId": "ME18B185", "addr": "\uc11c\uc6b8\ud2b9\ubcc4\uc2dc \uc591\ucc9c\uad6c \uc911\uc559\ub85c 32\uae38 1", "lat": "37.51855", "lng": "126.85429"}, {"statNm": "\ubaa92\ub3d9 \uc8fc\ubbfc\uc13c\ud130", "statId": "ME18B186", "addr": "\uc11c\uc6b8\ud2b9\ubcc4\uc2dc \uc591\ucc9c\uad6c \ubaa9\ub3d9 \uc911\uc559\ubcf8\ub85c 120", "lat": "37.54610", "lng": "126.87168"}, {"statNm": "\uc1a1\uc815\ub3d9 \uacf5\uc601\uc8fc\ucc28\uc7a5", "statId": "ME18B187", "addr": "\uc11c\uc6b8\ud2b9\ubcc4\uc2dc \uc131\ub3d9\uad6c \ub3d9\uc77c\ub85c 199", "lat": "37.54988", "lng": "127.06804"}, {"statNm": "sh\uc11c\uc6b8\uc8fc\ud0dd\ub3c4\uc2dc\uacf5\uc0ac", "statId": "ME18B278", "addr": "\uc11c\uc6b8\ud2b9\ubcc4\uc2dc \uac15\ub0a8\uad6c \uac1c\ud3ec\ub85c 621", "lat": "37.49414", "lng": "127.07879"}, {"statNm": "\uac15\ub3d9\uad6c\uccad", "statId": "ME18B279", "addr": "\uc11c\uc6b8\ud2b9\ubcc4\uc2dc \uac15\ub3d9\uad6c \uc131\ub0b4\ub85c 25", "lat": "37.53025", "lng": "127.12379"}, {"statNm": "\ud648\ud50c\ub7ec\uc2a4 \uae08\ucc9c\uc810", "statId": "ME18B280", "addr": "\uc11c\uc6b8\ud2b9\ubcc4\uc2dc \uae08\ucc9c\uad6c \uc2dc\ud765\ub300\ub85c 391", "lat": "37.46864", "lng": "126.89681"}, {"statNm": "\ub3c4\ubd09\uc0b0\ud658\uc2b9\uc8fc\ucc28\uc7a5", "statId": "ME18B281", "addr": "\uc11c\uc6b8\ud2b9\ubcc4\uc2dc \ub3c4\ubd09\uad6c \ub3c4\ubd09\ub3d9 341-1", "lat": "37.69000", "lng": "127.04325"}, {"statNm": "\ub3c4\ubd09\uad6c\uccad", "statId": "ME18B282", "addr": "\uc11c\uc6b8\ud2b9\ubcc4\uc2dc \ub3c4\ubd09\uad6c \ub9c8\ub4e4\ub85c 656", "lat": "37.66862", "lng": "127.04704"}, {"statNm": "\ub9c8\uc7a5\ucd95\uc0b0\ubb3c\uc2dc\uc7a5 \uc11c\ubb38 \uacf5\uc601\uc8fc\ucc28\uc7a5", "statId": "ME18B283", "addr": "\uc11c\uc6b8\ud2b9\ubcc4\uc2dc \uc131\ub3d9\uad6c \uace0\uc0b0\uc790\ub85c 26\uae38 6", "lat": "37.57041", "lng": "127.03833"}, {"statNm": "\uc11c\uc6b8\uc57d\ub839\uc2dc \uacf5\uc601\uc8fc\ucc28\uc7a5", "statId": "ME18B284", "addr": "\uc11c\uc6b8\ud2b9\ubcc4\uc2dc \ub3d9\ub300\ubb38\uad6c \uc57d\ub839\uc911\uc559\ub85c 26", "lat": "37.58051", "lng": "127.03715"}, {"statNm": "\ub86f\ub370\ub9c8\ud2b8 \uc11c\uc6b8\uc591\ud3c9\uc810", "statId": "ME18B285", "addr": "\uc11c\uc6b8\ud2b9\ubcc4\uc2dc \uc601\ub4f1\ud3ec\uad6c \uc120\uc720\ub85c 138", "lat": "37.52604", "lng": "126.89173"}, {"statNm": "\ub3c4\ubd09\uae30\uc801\uc758\ub3c4\uc11c\uad00", "statId": "ME18B286", "addr": "\uc11c\uc6b8\ud2b9\ubcc4\uc2dc \ub3c4\ubd09\uad6c \ub9c8\ub4e4\ub85c 797", "lat": "37.68090660", "lng": "127.05034377"}, {"statNm": "\uad6c\ud30c\ubc1c\uad11\uc5ed\ud658\uc2b9\uc13c\ud130 \uc8fc\ucc28\uc7a5", "statId": "ME18B287", "addr": "\uc9c0\uc0c1 3\uce35", "lat": "37.637968", "lng": "126.91937"}, {"statNm": "\uc11c\uc6b8\uc5ed\uc0ac\ubc15\ubb3c\uad00", "statId": "ME18B288", "addr": "\uc11c\uc6b8\ud2b9\ubcc4\uc2dc \uc885\ub85c\uad6c \uc0c8\ubb38\uc548\ub85c 55", "lat": "37.57005", "lng": "126.97053"}, {"statNm": "\uc2e0\uc8153\ub3d9 \ub113\uc740\ub4e4 \ubbfc\uc6d0\uc13c\ud130", "statId": "ME18B289", "addr": "\uc11c\uc6b8\ud2b9\ubcc4\uc2dc \uc591\ucc9c\uad6c \ub0a8\ubd80\uc21c\ud658\ub85c 88\uae38 5-7", "lat": "37.51130", "lng": "126.84145"}, {"statNm": "\uc6a9\ub2f5\ub3d9 \uacf5\uc601\uc8fc\ucc28\uc7a5", "statId": "ME18B290", "addr": "\uc11c\uc6b8\ud2b9\ubcc4\uc2dc \uc131\ub3d9\uad6c \uc6a9\ub2f5\ub3d9 4-1", "lat": "37.56452", "lng": "127.05429"}, {"statNm": "\ub9c8\ud3ec\uacf5\uc601\uc8fc\ucc28\uc7a5", "statId": "ME18B406", "addr": "\uc11c\uc6b8\ud2b9\ubcc4\uc2dc \ub9c8\ud3ec\uad6c \ub9c8\ud3ec\ub300\ub85c1\uae38 9", "lat": "37.53853862", "lng": "126.94344032"}, {"statNm": "\ub86f\ub370\ubc31\ud654\uc810 \ubcf8\uc810", "statId": "ME18B407", "addr": "\uc11c\uc6b8\ud2b9\ubcc4\uc2dc \uc911\uad6c \uc744\uc9c0\ub85c 30", "lat": "37.56499", "lng": "126.98136"}, {"statNm": "\uc131\uc2182\uac00 \uacf5\uc601\uc8fc\ucc28\uc7a5", "statId": "ME18B408", "addr": "\uc11c\uc6b8\ud2b9\ubcc4\uc2dc \uc131\ub3d9\uad6c \uad11\ub098\ub8e8\ub85c4\uac00\uae38 23", "lat": "37.54909", "lng": "127.05516"}, {"statNm": "\ucda9\ud604\ub3d9 \uc81c1\uacf5\uc601\uc8fc\ucc28\uc7a5", "statId": "ME19A149", "addr": "\uc11c\uc6b8\ud2b9\ubcc4\uc2dc \uc11c\ub300\ubb38\uad6c \ucda9\uc815\ub85c2\uac00 78-13", "lat": "37.5646084", "lng": "126.964361"}, {"statNm": "\ub0a8\uac00\uc88c2\ub3d9 \uacf5\uc601\uc8fc\ucc28\uc7a5", "statId": "ME19A150", "addr": "\uc11c\uc6b8\ud2b9\ubcc4\uc2dc \uc11c\ub300\ubb38\uad6c \ub0a8\uac00\uc88c2\ub3d9 3-75", "lat": "37.583014499999", "lng": "126.9231095"}, {"statNm": "\ubbf8\ub3c4\uc544\ud30c\ud2b8 \uc55e \uacf5\uc601\uc8fc\ucc28\uc7a5", "statId": "ME19A151", "addr": "\uc11c\uc6b8\ud2b9\ubcc4\uc2dc \uc11c\ucd08\uad6c \ubc18\ud3ec\ub3d9 49-8", "lat": "37.499812075338", "lng": "127.010502727"}, {"statNm": "\uc62c\ub9bc\ud53d\uacf5\uc6d0", "statId": "ME19A152", "addr": "\uc11c\uc6b8\ud2b9\ubcc4\uc2dc \uc1a1\ud30c\uad6c \uc62c\ub9bc\ud53d\ub85c 424", "lat": "37.5171577", "lng": "127.115847"}, {"statNm": "\uad6c\ubbfc\ud68c\uad00", "statId": "ME19A153", "addr": "\uc11c\uc6b8\ud2b9\ubcc4\uc2dc \uc1a1\ud30c\uad6c \ubc31\uc81c\uace0\ubd84\ub85c 242", "lat": "37.502451999999", "lng": "127.093104199"}, {"statNm": "\ubb38\ud654\ud68c\uad00\ub3d9\uce21 \uc8fc\ucc28\uc7a5", "statId": "ME19A154", "addr": "\uc11c\uc6b8\ud2b9\ubcc4\uc2dc \uc591\ucc9c\uad6c \uc2e0\uc8156\ub3d9 322-5", "lat": "37.516768299999", "lng": "126.863562699"}, {"statNm": "\uacf0\ub2ec\ub798\uacf5\uc601\uc8fc\ucc28\uc7a5", "statId": "ME19A155", "addr": "\uc11c\uc6b8\ud2b9\ubcc4\uc2dc \uc591\ucc9c\uad6c \uacf0\ub2ec\ub798\ub85c10\uae38 4", "lat": "37.5295552", "lng": "126.83577059999"}, {"statNm": "\ub2e4\ub77d\uace8\uacf5\uc601\uc8fc\ucc28\uc7a5", "statId": "ME19A156", "addr": "\uc11c\uc6b8\ud2b9\ubcc4\uc2dc \uc591\ucc9c\uad6c \uc911\uc559\ub85c29\uae38 41", "lat": "37.5163711", "lng": "126.8492558"}, {"statNm": "\uc77c\uc6d02\ub3d9 \uc8fc\ubbfc\uc13c\ud130", "statId": "ME19A157", "addr": "\uc11c\uc6b8\ud2b9\ubcc4\uc2dc \uac15\ub0a8\uad6c \uac1c\ud3ec\ub85c 607", "lat": "37.4919959", "lng": "127.0738859"}, {"statNm": "\ubaa94\ub3d9\uc8fc\ubbfc\uc13c\ud130", "statId": "ME19A158", "addr": "\uc11c\uc6b8\ud2b9\ubcc4\uc2dc \uc591\ucc9c\uad6c \ubaa9\ub3d9\uc911\uc559\ub85c 25", "lat": "37.5324277", "lng": "126.8686162"}, {"statNm": "\ud55c\uad6d\uc7a5\uc560\uc778\uac1c\ubc1c\uc6d0 \ubcf8\uc0ac", "statId": "ME19A159", "addr": "\uc11c\uc6b8\ud2b9\ubcc4\uc2dc \uc601\ub4f1\ud3ec\uad6c \uc758\uc0ac\ub2f9\ub300\ub85c 22", "lat": "37.5269301", "lng": "126.91793819999"}, {"statNm": "\uc601\ub4f1\ud3ec\ubcf8\ub3d9\uc81c1(\uacf5\uc601\uc8fc\ucc28\uc7a5)", "statId": "ME19A160", "addr": "\uc11c\uc6b8\ud2b9\ubcc4\uc2dc \uc601\ub4f1\ud3ec\uad6c \uc601\uc2e0\ub85c 10\uae38 15", "lat": "37.514279899999", "lng": "126.9093244"}, {"statNm": "\ub9c8\ud3ec\uc911\uc559\ub3c4\uc11c\uad00", "statId": "ME19A164", "addr": "\uc11c\uc6b8\ud2b9\ubcc4\uc2dc \ub9c8\ud3ec\uad6c \uc131\uc0b0\ub85c 128", "lat": "37.563642399999", "lng": "126.908286399"}, {"statNm": "\uac15\ub0a8\uad6c\uccad \uc0bc\uc131\ub85c \ubcc4\uad00 \ubd80\uc124 \uc8fc\ucc28\uc7a5", "statId": "ME19A166", "addr": "\uc11c\uc6b8\ud2b9\ubcc4\uc2dc \uac15\ub0a8\uad6c \uc0bc\uc131\ub85c 628", "lat": "37.516178906156", "lng": "127.052003282"}, {"statNm": "\uad6d\ubc29\ubd80 \uc11c\ubb38 \uc8fc\ucc28\uc7a5", "statId": "ME19A170", "addr": "\uc11c\uc6b8\ud2b9\ubcc4\uc2dc \uc6a9\uc0b0\uad6c \ud55c\uac15\ub300\ub85c 62\ub2e4\uae38 42", "lat": "37.5331513", "lng": "126.975461"}, {"statNm": "\uc77c\uc6d0\ubcf8\ub3d9 \uc8fc\ubbfc\uc13c\ud130", "statId": "ME19A171", "addr": "\uc11c\uc6b8\ud2b9\ubcc4\uc2dc \uac15\ub0a8\uad6c \uad11\ud3c9\ub85c 126", "lat": "37.483375399999", "lng": "127.086393199"}, {"statNm": "\ud0c4\ucc9c\ubb3c\uc7ac\uc0dd\uc13c\ud130", "statId": "ME19A243", "addr": "\uc11c\uc6b8\ud2b9\ubcc4\uc2dc \uac15\ub0a8\uad6c \uac1c\ud3ec\ub85c 625", "lat": "37.4959067", "lng": "127.0799979"}, {"statNm": "\ud55c\uad6d\uc6d0\uc790\ub825\uc758\ud559\uc6d0 \ubcf8\uc0ac", "statId": "ME19A244", "addr": "\uc11c\uc6b8\ud2b9\ubcc4\uc2dc \ub178\uc6d0\uad6c \ub178\uc6d0\ub85c75", "lat": "37.628190798088", "lng": "127.083195864"}, {"statNm": "\uc0c1\uc5541 \uacf5\uc601\uc8fc\ucc28\uc7a5", "statId": "ME19A245", "addr": "\uc11c\uc6b8\ud2b9\ubcc4\uc2dc \ub9c8\ud3ec\uad6c \uc131\uc554\ub85c 197", "lat": "37.577011200000", "lng": "126.8973596"}, {"statNm": "Park M (\uc8fc\ucc28\ubcf5\ud569\ube4c\ub529)", "statId": "ME19A246", "addr": "\uc11c\uc6b8\ud2b9\ubcc4\uc2dc \ub9c8\ud3ec\uad6c \ub9e4\ubd09\uc0b0\ub85c 80", "lat": "37.57852958", "lng": "126.89428612"}, {"statNm": "\uc2dc\ubbfc\uc758\uc232\ub3d9\uce21 \uacf5\uc601\uc8fc\ucc28\uc7a52", "statId": "ME19A247", "addr": "\uc11c\uc6b8\ud2b9\ubcc4\uc2dc \uc11c\ucd08\uad6c \uc591\uc7ac\ub3d9 237", "lat": "37.471742268", "lng": "127.0382062"}, {"statNm": "\uc131\uc218 2\uac001\ub3d9 \uacf5\uc601\uc8fc\ucc28\uc7a5", "statId": "ME19A249", "addr": "\uc11c\uc6b8\ud2b9\ubcc4\uc2dc \uc131\ub3d9\uad6c \uc131\ub355\uc815\uae38 115", "lat": "37.5370292", "lng": "127.0563866"}, {"statNm": "\ud558\uc655\uc2ed\ub9ac \uacf5\uc601\uc8fc\ucc28\uc7a5", "statId": "ME19A250", "addr": "\uc11c\uc6b8\ud2b9\ubcc4\uc2dc \uc131\ub3d9\uad6c \ubb34\ud559\ubd0915\uae38 48", "lat": "37.5602689", "lng": "127.0278376"}, {"statNm": "\uac15\ubcc0 \uacf5\uc601\uc8fc\ucc28\uc7a5", "statId": "ME19A251", "addr": "\uc11c\uc6b8\ud2b9\ubcc4\uc2dc \uc131\ub3d9\uad6c \ub458\ub808\uae38 47-5", "lat": "37.5369369", "lng": "127.0491411"}, {"statNm": "\uc751\ubd09\ub3d9 \uacf5\uc601\uc8fc\ucc28\uc7a5", "statId": "ME19A252", "addr": "\uc11c\uc6b8\ud2b9\ubcc4\uc2dc \uc131\ub3d9\uad6c \ub3c5\uc11c\ub2f9\ub85c63\uae38 40", "lat": "37.5544151", "lng": "127.03102999999"}, {"statNm": "\ud574\ub204\ub9ac\ud0c0\uc6b4", "statId": "ME19A253", "addr": "\uc11c\uc6b8\ud2b9\ubcc4\uc2dc \uc591\ucc9c\uad6c \ubaa9\ub3d9\ub3d9\ub85c81", "lat": "37.5160286", "lng": "126.8639009"}, {"statNm": "\uc608\uae08\ubcf4\ud5d8\uacf5\uc0ac", "statId": "ME19A254", "addr": "\uc11c\uc6b8\ud2b9\ubcc4\uc2dc \uc911\uad6c \uccad\uacc4\ucc9c\ub85c 30", "lat": "37.568494701606", "lng": "126.980793568"}, {"statNm": "\ub86f\ub370\ub9c8\ud2b8 \uc740\ud3c9\uc810", "statId": "ME19A274", "addr": "\uc11c\uc6b8\ud2b9\ubcc4\uc2dc \uc740\ud3c9\uad6c \ud1b5\uc77c\ub85c 1050", "lat": "37.6374578", "lng": "126.9175874"}, {"statNm": "\ub17c\ud604\ucd08\uad50 \uacf5\uc601\ub178\uc678\uc8fc\ucc28\uc7a5", "statId": "ME19A277", "addr": "\uc11c\uc6b8\ud2b9\ubcc4\uc2dc \uac15\ub0a8\uad6c \uac15\ub0a8\ub300\ub85c120\uae38 33", "lat": "37.5082482", "lng": "127.02676569999"}, {"statNm": "\uac15\ub0a8\uce58\ub9e4\uc9c0\uc6d0\uc13c\ud130 \uacf5\uc601\ub178\uc678\uc8fc\ucc28\uc7a5", "statId": "ME19A278", "addr": "\uc11c\uc6b8\ud2b9\ubcc4\uc2dc \uac15\ub0a8\uad6c \uc120\ub989\ub85c108\uae38 27", "lat": "37.5100034", "lng": "127.04605179999"}, {"statNm": "\ub9dd\uc6d0\ub3d9 \uacf5\uc601\uc8fc\ucc28\uc7a51", "statId": "ME19A601", "addr": "\uc11c\uc6b8\ud2b9\ubcc4\uc2dc \ub9c8\ud3ec\uad6c \ub3d9\uad50\ub85c1\uae38 39", "lat": "37.55503247", "lng": "126.89778505"}, {"statNm": "\uc555\uad6c\uc815 428 \uacf5\uc601\uc8fc\ucc28\uc7a51", "statId": "ME19A801", "addr": "\uc11c\uc6b8\ud2b9\ubcc4\uc2dc \uac15\ub0a8\uad6c \uc555\uad6c\uc815\ub85c 161", "lat": "37.526628658353", "lng": "127.0264263189"}, {"statNm": "\uc11c\uc6b8 \ud574\uad70\ud68c\uad00", "statId": "ME19D118", "addr": "\uc11c\uc6b8\ud2b9\ubcc4\uc2dc \uc601\ub4f1\ud3ec\uad6c \uac00\ub9c8\uc0b0\ub85c 540", "lat": "37.50421956", "lng": "126.91605451"}, {"statNm": "\uc11c\uc6b8\uc62c\ub9bc\ud53d\uacf5\uc6d0 \ub0a82\ubb38\uc8fc\ucc28\uc7a5", "statId": "ME19X403", "addr": "\uc11c\uc6b8\ud2b9\ubcc4\uc2dc \uc1a1\ud30c\uad6c \uc62c\ub9bc\ud53d\ub85c", "lat": "37.514973", "lng": "127.123837"}, {"statNm": "\ub86f\ub370\ub9c8\ud2b8 \uc911\uacc4\uc810 \uc57c\uc678\uc8fc\ucc28\uc7a5", "statId": "ME19X417", "addr": "\uc11c\uc6b8\ud2b9\ubcc4\uc2dc \ub178\uc6d0\uad6c \ub178\uc6d0\ub85c", "lat": "37.646872", "lng": "127.070993"}, {"statNm": "\uc11c\uc6b8 \ub18d\uc218\uc0b0\uc2dd\ud488\uacf5\uc0ac \uac15\uc11c\uc9c0\ubd80", "statId": "ME19Y284", "addr": "\uc11c\uc6b8\ud2b9\ubcc4\uc2dc \uac15\uc11c\uad6c \ubc1c\uc0b0\ub85c 40", "lat": "37.551206", "lng": "126.817967"}, {"statNm": "\ud3ec\uc774\ucd08\uad50 \uacf5\uc601\ub178\uc678\uc8fc\ucc28\uc7a5", "statId": "ME20A193", "addr": "\uc11c\uc6b8\ud2b9\ubcc4\uc2dc \uac15\ub0a8\uad6c \uac1c\ud3ec\ub3d9 1273", "lat": "37.475064", "lng": "127.051703"}, {"statNm": "\uc5b8\uc8fc\ucd08\uad50 \uacf5\uc601\ub178\uc678\uc8fc\ucc28\uc7a5", "statId": "ME20A194", "addr": "\uc11c\uc6b8\ud2b9\ubcc4\uc2dc \uac15\ub0a8\uad6c \ub3c4\uace1\ub3d9 922", "lat": "37.486856", "lng": "127.037584"}, {"statNm": "\uac15\ub0a8\uc2a4\ud3ec\uce20\ubb38\ud654\uc13c\ud130", "statId": "ME20A195", "addr": "\uc11c\uc6b8\ud2b9\ubcc4\uc2dc \uac15\ub0a8\uad6c \uc218\uc11c\ub3d9 718", "lat": "37.48871435", "lng": "127.10522824"}, {"statNm": "\uae38\ub3d9\ubcf5\ud569\uccad\uc0ac", "statId": "ME20A197", "addr": "\uc11c\uc6b8\ud2b9\ubcc4\uc2dc \uac15\ub3d9\uad6c \ucc9c\ud638\ub300\ub85c 1183", "lat": "37.5345623", "lng": "127.1426858"}, {"statNm": "\uc624\ub3d9\uace8\ud504\ud074\ub7fd", "statId": "ME20A198", "addr": "\uc11c\uc6b8\ud2b9\ubcc4\uc2dc \uac15\ubd81\uad6c \uc624\ud604\ub85c 117", "lat": "37.623253", "lng": "127.037312"}, {"statNm": "\ub178\uc6d0\ubb38\ud654\uc6d0", "statId": "ME20A199", "addr": "\uc11c\uc6b8\ud2b9\ubcc4\uc2dc \ub178\uc6d0\uad6c \ub3d9\uc77c\ub85c197\uae38 24", "lat": "37.628789", "lng": "127.070204"}, {"statNm": "\ubc18\ud3ec4\ub3d9\uc8fc\ubbfc\uc13c\ud130 \uacf5\uc601\uc8fc\ucc28\uc7a5", "statId": "ME20A1a0", "addr": "\uc11c\uc6b8\ud2b9\ubcc4\uc2dc \uc11c\ucd08\uad6c \uc0ac\ud3c9\ub300\ub85c28\uae38 70", "lat": "37.496299", "lng": "127.002285"}, {"statNm": "\ubc29\ubc301\ub3d9 \uacf5\uc601\uc8fc\ucc28\uc7a5", "statId": "ME20A1a1", "addr": "\uc11c\uc6b8\ud2b9\ubcc4\uc2dc \uc11c\ucd08\uad6c \ubc29\ubc30\ub85c23\uae38 31-6", "lat": "37.485166", "lng": "126.992489"}, {"statNm": "\ubb34\uad81\ud654 \uacf5\uc601\uc8fc\ucc28\uc7a5", "statId": "ME20A1a2", "addr": "\uc11c\uc6b8\ud2b9\ubcc4\uc2dc \uc11c\ucd08\uad6c \uc11c\ucd08\ub300\ub85c54\uae38 45", "lat": "37.492899", "lng": "127.01638"}, {"statNm": "\uccad\uacc4\uc0b0\uadfc\ub9b0\uad11\uc7a5 \uacf5\uc601\uc8fc\ucc28\uc7a5", "statId": "ME20A1a3", "addr": "\uc11c\uc6b8\ud2b9\ubcc4\uc2dc \uc11c\ucd08\uad6c \uc6d0\uc9c0\ub3d9 361-1", "lat": "37.446130", "lng": "127.056479"}, {"statNm": "\uc591\uc7ac\uadfc\ub9b0\uacf5\uc6d0 \uacf5\uc601\uc8fc\ucc28\uc7a5", "statId": "ME20A1a4", "addr": "\uc11c\uc6b8\ud2b9\ubcc4\uc2dc \uc11c\ucd08\uad6c \ub3d9\uc0b0\ub85c 35", "lat": "37.475064", "lng": "127.051703"}, {"statNm": "\uc601\ub4f1\ud3ec\ubcf8\ub3d9\uc81c2\uacf5\uc601\uc8fc\ucc28\uc7a5", "statId": "ME20A1a5", "addr": "\uc11c\uc6b8\ud2b9\ubcc4\uc2dc \uc601\ub4f1\ud3ec\uad6c \uc2e0\uae38\ub85c60\uae38 34", "lat": "37.513514", "lng": "126.9139"}, {"statNm": "\ud55c\uad6d\uc0c1\ud558\uc218\ub3c4\ud611\ud68c", "statId": "ME20A1a6", "addr": "\uc11c\uc6b8\ud2b9\ubcc4\uc2dc \uc601\ub4f1\ud3ec\uad6c \ub300\ub9bc\ub85c 244", "lat": "37.502455", "lng": "126.897106"}, {"statNm": "\uba74\ubaa92\ub3d9\uacf5\uc601\uc8fc\ucc28\uc7a5", "statId": "ME20A1a7", "addr": "\uc11c\uc6b8\ud2b9\ubcc4\uc2dc \uc911\ub791\uad6c \uacb8\uc7ac\ub85c23\uae38 27", "lat": "37.58793511", "lng": "127.0808933"}, {"statNm": "\uc911\ud654\uc81c1\uacf5\uc601\uc8fc\ucc28\uc7a5", "statId": "ME20A1a8", "addr": "\uc11c\uc6b8\ud2b9\ubcc4\uc2dc \uc911\ub791\uad6c \uc911\ud654\ub3d9 73-5", "lat": "37.59871", "lng": "127.072706"}, {"statNm": "\uc911\ud654\uc81c4\uacf5\uc601\uc8fc\ucc28\uc7a5", "statId": "ME20A1a9", "addr": "\uc11c\uc6b8\ud2b9\ubcc4\uc2dc \uc911\ub791\uad6c \uc911\ud654\ub3d9 73-10", "lat": "37.595670", "lng": "127.079469"}, {"statNm": "\uc911\ub791\uc5ed\uc81c1\uacf5\uc601\uc8fc\ucc28\uc7a5", "statId": "ME20A1b0", "addr": "\uc11c\uc6b8\ud2b9\ubcc4\uc2dc \uc911\ub791\uad6c \uc911\ud654\ub3d9 73-6", "lat": "37.595325", "lng": "127.077539"}, {"statNm": "\uad11\uc9c4\ubb38\ud654\uc608\uc220\ud68c\uad00", "statId": "ME20A278", "addr": "\uc11c\uc6b8\ud2b9\ubcc4\uc2dc \uad11\uc9c4\uad6c \ub2a5\ub3d9\ub85c 76", "lat": "37.5375337", "lng": "127.0705319"}, {"statNm": "\ud55c\uad6d\uacfc\ud559\uae30\uc220\uc6d0 \uc11c\uc6b8\ucea0\ud37c\uc2a4", "statId": "ME20A279", "addr": "\uc11c\uc6b8\ud2b9\ubcc4\uc2dc \ub3d9\ub300\ubb38\uad6c \ud68c\uae30\ub85c 85", "lat": "37.5921192", "lng": "127.0473764"}, {"statNm": "\uc11c\uc6b8\uc2dc\uc124\uacf5\ub2e8", "statId": "ME20A280", "addr": "\uc11c\uc6b8\ud2b9\ubcc4\uc2dc \uc131\ub3d9\uad6c \uccad\uacc4\ucc9c\ub85c 540", "lat": "37.571579", "lng": "127.036101"}, {"statNm": "\ud604\ub300\ubc31\ud654\uc810 \ubaa9\ub3d9\uc810", "statId": "ME20A301", "addr": "\uc11c\uc6b8\ud2b9\ubcc4\uc2dc \uc591\ucc9c\uad6c \ubaa9\ub3d9\ub3d9\ub85c 257", "lat": "37.526755", "lng": "126.875324"}, {"statNm": "\ub9c8\ud3ec\uad6c\uccad", "statId": "ME20A409", "addr": "\uc11c\uc6b8\ud2b9\ubcc4\uc2dc \ub9c8\ud3ec\uad6c \uc6d4\ub4dc\ucef5\ub85c 212", "lat": "37.567121", "lng": "126.9017038"}, {"statNm": "\uad6d\ud68c \uc11c\ud3b8 \uc8fc\ucc28\uc7a5", "statId": "ME20A410", "addr": "\uc11c\uc6b8\ud2b9\ubcc4\uc2dc \uc601\ub4f1\ud3ec\uad6c \uc5ec\uc758\ub3c4\ub3d9 1", "lat": "37.5318027", "lng": "126.9127433"}, {"statNm": "\uacbd\ucc30\uccad", "statId": "ME21B244", "addr": "\uc11c\uc6b8\ud2b9\ubcc4\uc2dc \uc11c\ub300\ubb38\uad6c \ud1b5\uc77c\ub85c 97", "lat": "37.5637284", "lng": "126.9676791"}, {"statNm": "\ub2f5\uc2ed\ub9ac1\ub3d9 \uc8fc\ubbfc\uc13c\ud130", "statId": "ME21C250", "addr": "\uc11c\uc6b8\ud2b9\ubcc4\uc2dc \ub3d9\ub300\ubb38\uad6c \uc0ac\uac00\uc815\ub85c 30", "lat": "37.571706", "lng": "127.051358"}, {"statNm": "\uc11c\uc6b8\uac15\uc11c\uacbd\ucc30\uc11c", "statId": "ME21C251", "addr": "\uc11c\uc6b8\ud2b9\ubcc4\uc2dc \uac15\uc11c\uad6c \ud654\uace1\ub85c 308", "lat": "37.5513434", "lng": "126.8494797"}, {"statNm": "\uc740\ud3c9\uad6c \uac08\ud604\ub178\uc778\ubcf5\uc9c0\uad00", "statId": "BNAA0101", "addr": "\uc11c\uc6b8\ud2b9\ubcc4\uc2dc \uc740\ud3c9\uad6c \ud1b5\uc77c\ub85c89\uae38 12-6", "lat": "37.6248739", "lng": "126.918642"}, {"statNm": "\uac15\uc11c\uad6c \ub4f1\ucd0c2-1\uacf5\uc601\uc8fc\ucc28\uc7a5", "statId": "BNAB0501", "addr": "\uc11c\uc6b8\ud2b9\ubcc4\uc2dc \uac15\uc11c\uad6c \ub4f1\ucd0c\ub85c55\uae38 33-16", "lat": "37.550236", "lng": "126.862016"}, {"statNm": "\ubc29\ud654\ub3d9 \uc2b9\uc724\ub178\ube14\ub9ac\uc548\uc544\ud30c\ud2b8", "statId": "BNAG3201", "addr": "\uc11c\uc6b8\ud2b9\ubcc4\uc2dc \uac15\uc11c\uad6c \ubc29\ud654\ub300\ub85c40\uae38 37", "lat": "37.5710759", "lng": "126.8187764"}, {"statNm": "\uc0dd\uac01\uacf5\uc7a5 \ub370\uc2dc\uc559\ud50c\ub809\uc2a4(\uc131\uc218\ub3d9)", "statId": "BNAH3301", "addr": "\uc11c\uc6b8\ud2b9\ubcc4\uc2dc \uc131\ub3d9\uad6c \uc544\ucc28\uc0b0\ub85c17\uae38 49", "lat": "37.539479152", "lng": "127.08428712"}, {"statNm": "\ud55c\uad6d\uacfc\ud559\uae30\uc220\uc6d0 \ub3c4\uace1\ucea0\ud37c\uc2a4", "statId": "BNAI4401", "addr": "\uc11c\uc6b8\ud2b9\ubcc4\uc2dc \uac15\ub0a8\uad6c \ub17c\ud604\ub85c28\uae38 25", "lat": "37.483542", "lng": "127.044011"}, {"statNm": "\uc11c\uc6b8\ud2b9\ubcc4\uc2dc \uad00\uc545\uad6c \ub2f9\uace1\uc911\ud559\uad50 \uacf5\uc601\uc8fc\ucc28\uc7a5", "statId": "BNAI4402", "addr": "\uc11c\uc6b8\ud2b9\ubcc4\uc2dc \uad00\uc545\uad6c \ubd09\ucc9c\ub85c13\uae38 101", "lat": "37.491605", "lng": "126.932399"}, {"statNm": "\uc11c\uc6b8\ud2b9\ubcc4\uc2dc \uad00\uc545\uad6c \ub09c\uc6b0\uc911\ud559\uad50 \uacf5\uc601\uc8fc\ucc28\uc7a5", "statId": "BNAI4403", "addr": "\uc11c\uc6b8\ud2b9\ubcc4\uc2dc \uad00\uc545\uad6c \ub09c\uace1\ub85c16\uae38 32", "lat": "37.466358", "lng": "126.922362"}, {"statNm": "KBS \ubcc4\uad00 \uc8fc\ucc28\uc7a5", "statId": "BNAJ5401", "addr": "\uc11c\uc6b8\ud2b9\ubcc4\uc2dc \uc601\ub4f1\ud3ec\uad6c \uc5ec\uc758\ub300\ubc29\ub85c 359", "lat": "37.518587", "lng": "126.929428"}, {"statNm": "\ud604\ub300\ub9ac\ubc84\ube4c", "statId": "CSHD0001", "addr": "\uc11c\uc6b8\ud2b9\ubcc4\uc2dc \uad11\uc9c4\uad6c \uc544\ucc28\uc0b0\ub85c78\uac00\uae38 17", "lat": "37.549314", "lng": "127.109640"}, {"statNm": "\ud55c\uad6d\uc218\ucd9c\uc785\uc740\ud589", "statId": "CSKS0001", "addr": "\uc11c\uc6b8\ud2b9\ubcc4\uc2dc \uc601\ub4f1\ud3ec\uad6c \uc740\ud589\ub85c 38", "lat": "37.528570", "lng": "126.923396"}, {"statNm": "\uc2a4\ub9c8\ud2b8\uc911\uc559\uac74\uc124", "statId": "CSSJ0001", "addr": "\uc11c\uc6b8\ud2b9\ubcc4\uc2dc \uc911\ub791\uad6c \ub9dd\uc6b0\ub85c 236", "lat": "37.594376", "lng": "127.078760"}, {"statNm": "\uc5ec\uc758\ub3c4\uc21c\ubcf5\uc74c\uad50\ud68c", "statId": "CSYS0001", "addr": "\uc11c\uc6b8\ud2b9\ubcc4\uc2dc \uc601\ub4f1\ud3ec\uad6c \uc740\ud589\ub85c 55", "lat": "37.530490", "lng": "126.924169"}, {"statNm": "\uc2e0\uc77c\uc544\ub974\ub514\uc138", "statId": "CU020001", "addr": "\uc11c\uc6b8\ud2b9\ubcc4\uc2dc \uc601\ub4f1\ud3ec\uad6c \uc120\uc720\ub85c17\uae38 24", "lat": "37.521086", "lng": "126.88698"}, {"statNm": "\uc5ed\uc0bcSK\ub9ac\ub354\uc2a4\ubdf0", "statId": "CU020002", "addr": "\uc11c\uc6b8\ud2b9\ubcc4\uc2dc \uac15\ub0a8\uad6c \ubd09\uc740\uc0ac\ub85c 302", "lat": "37.5086636", "lng": "127.0394281"}, {"statNm": "\ud654\uc628\uac74\uc124", "statId": "CU200008", "addr": "\uc11c\uc6b8\ud2b9\ubcc4\uc2dc \uad6c\ub85c\uad6c \uc624\ub9ac\ub85c22\ub098\uae38 30", "lat": "37.500397", "lng": "126.830558"}, {"statNm": "E\ud3b8\ud55c\uc138\uc0c1\uc11c\uc6b8\ub3001\ub2e8\uc9c0", "statId": "CU200009", "addr": "\uc11c\uc6b8\ud2b9\ubcc4\uc2dc \uad00\uc545\uad6c \uccad\ub8e110\uae38 45", "lat": "37.478396", "lng": "126.943047"}, {"statNm": "E\ud3b8\ud55c\uc138\uc0c1\uc11c\uc6b8\ub3002\ub2e8\uc9c0", "statId": "CU200010", "addr": "\uc11c\uc6b8\ud2b9\ubcc4\uc2dc \uad00\uc545\uad6c \uccad\ub8e116\uae38 43", "lat": "37.476938", "lng": "126.943054"}, {"statNm": "\ud55c\uc131\uac74\uc124", "statId": "CU200011", "addr": "\uc11c\uc6b8\ud2b9\ubcc4\uc2dc \uc591\ucc9c\uad6c \uc624\ubaa9\ub85c11\uae38 19", "lat": "37.524360", "lng": "126.844295"}, {"statNm": "\ud0dc\ud601\uc885\ud569\uac74\uc124", "statId": "CU200014", "addr": "\uc11c\uc6b8\ud2b9\ubcc4\uc2dc \uc911\ub791\uad6c \uc591\uc6d0\uc5ed\ub85c8\uae38 25", "lat": "37.605190", "lng": "127.108237"}, {"statNm": "\ubcf4\ub77c\ub9e4\ub86f\ub370\ub099\ucc9c\ub300\uc544\ud30c\ud2b8", "statId": "CU200015", "addr": "\uc11c\uc6b8\ud2b9\ubcc4\uc2dc \ub3d9\uc791\uad6c \uc5ec\uc758\ub300\ubc29\ub85c10\uae38 38", "lat": "37.4940583", "lng": "126.914141"}, {"statNm": "\uc1a1\ud30c\uc0bc\uc131\ub798\ubbf8\uc548", "statId": "CU200016", "addr": "\uc11c\uc6b8\ud2b9\ubcc4\uc2dc \uc1a1\ud30c\uad6c \uc624\uae08\ub85c32\uae38 14", "lat": "37.5046640", "lng": "127.118821"}, {"statNm": "\ub798\ubbf8\uc548\ud504\ub808\ube44\ub274", "statId": "CU200017", "addr": "\uc11c\uc6b8\ud2b9\ubcc4\uc2dc \uc601\ub4f1\ud3ec\uad6c \uac00\ub9c8\uc0b0\ub85c 442", "lat": "37.5049659", "lng": "126.909503"}, {"statNm": "\ubc29\ud654\ub3d9\uc131\uc544\ud30c\ud2b8", "statId": "CU200018", "addr": "\uc11c\uc6b8\ud2b9\ubcc4\uc2dc \uac15\uc11c\uad6c \uae08\ub0ad\ud654\ub85c23\uae38 8", "lat": "37.5795875", "lng": "126.812165"}, {"statNm": "\uac15\ubd81\uad6c\uccad", "statId": "CU200019", "addr": "\uc11c\uc6b8\ud2b9\ubcc4\uc2dc \uac15\ubd81\uad6c \ub3c4\ubd09\ub85c89\uae38 13", "lat": "37.6391656", "lng": "127.025425"}, {"statNm": "\uc591\ucc9c\ubb38\ud654\ud68c\uad00", "statId": "CU201001", "addr": "\uc11c\uc6b8\ud2b9\ubcc4\uc2dc \uc591\ucc9c\uad6c \ubaa9\ub3d9\uc11c\ub85c 367", "lat": "37.5166513", "lng": "126.8633139"}, {"statNm": "\uc591\ucc9c\uacf5\uc6d0", "statId": "CU201002", "addr": "\uc11c\uc6b8\ud2b9\ubcc4\uc2dc \uc591\ucc9c\uad6c \ubaa9\ub3d9\uc11c\ub85c 301-21", "lat": "37.5190054", "lng": "126.8685376"}, {"statNm": "\ubaa9\uc6b4\uc911\ud559\uad50", "statId": "CU201003", "addr": "\uc11c\uc6b8\ud2b9\ubcc4\uc2dc \uc591\ucc9c\uad6c \ubaa9\ub3d9\ub3d9\ub85c 235", "lat": "37.5272338", "lng": "126.8724588"}, {"statNm": "\ubaa9\ub3d9\ub85c\ub370\uc624", "statId": "CU201004", "addr": "\uc11c\uc6b8\ud2b9\ubcc4\uc2dc \uc591\ucc9c\uad6c \ubaa9\ub3d9\ub85c25\uae38 26", "lat": "37.5283292", "lng": "126.8612423"}, {"statNm": "\uc591\ucc9c\ud30c\ub9ac\uacf5\uc6d0", "statId": "CU201005", "addr": "\uc11c\uc6b8\ud2b9\ubcc4\uc2dc \uc591\ucc9c\uad6c \ubaa9\ub3d9\ub3d9\ub85c 363", "lat": "37.5338904", "lng": "126.8761365"}, {"statNm": "\uc0e4\ub974\ub9dd\uc624\ud53c\uc2a4\ud154", "statId": "CU201006", "addr": "\uc11c\uc6b8\ud2b9\ubcc4\uc2dc \uc591\ucc9c\uad6c \uc6d4\uc815\ub85c 101", "lat": "37.5284637", "lng": "126.8390009"}, {"statNm": "\uc2e0\uc6d4 \uc2a4\uc704\ud2b8\ub4dc\ub9bc", "statId": "CU201007", "addr": "\uc11c\uc6b8\ud2b9\ubcc4\uc2dc \uc591\ucc9c\uad6c \uacf0\ub2ec\ub798\ub85c11\uae38 56", "lat": "37.5346227", "lng": "126.8344875"}, {"statNm": "\uc7a0\uc2e4\uc559\uc2dc\ub808\uc774\ud06c\ud0c0\uc6cc", "statId": "CU640001", "addr": "\uc11c\uc6b8\ud2b9\ubcc4\uc2dc \uc1a1\ud30c\uad6c \ub3c4\uace1\ub85c 450", "lat": "37.5054499", "lng": "127.0782769"}, {"statNm": "\uc6a9\uc0b0\uc544\uc2a4\ud14c\ub9ac\uc6c0(1\uc8fc\ucc28\uc7a5)", "statId": "CV000109", "addr": "\uc11c\uc6b8\ud2b9\ubcc4\uc2dc \uc6a9\uc0b0\uad6c \ud55c\uac15\ub300\ub85c30\uae38 25", "lat": "37.5274013", "lng": "126.9688295"}, {"statNm": "\uc218\ud611\uc911\uc559\ud68c", "statId": "CV000111", "addr": "\uc11c\uc6b8\ud2b9\ubcc4\uc2dc \uc1a1\ud30c\uad6c \uc624\uae08\ub85c 62", "lat": "37.516223", "lng": "127.105749"}, {"statNm": "\ub86f\ub370\uce90\uc2ac\uace8\ub4dc(\ub86f\ub370\uc1fc\ud551)", "statId": "CV000114", "addr": "\uc11c\uc6b8\ud2b9\ubcc4\uc2dc \uc1a1\ud30c\uad6c \uc62c\ub9bc\ud53d\ub85c 269", "lat": "37.514515", "lng": "127.100584"}, {"statNm": "\ud06c\ub85c\ubc14\ud0c0\uc6cc", "statId": "CV000136", "addr": "\uc11c\uc6b8\ud2b9\ubcc4\uc2dc \uc11c\ucd08\uad6c \uc11c\ucd08\ub300\ub85c 347", "lat": "37.495666", "lng": "127.019258"}, {"statNm": "\uc774\uc2a4\ud0c0\ube4c", "statId": "CV000178", "addr": "\uc11c\uc6b8\ud2b9\ubcc4\uc2dc \uac15\ub0a8\uad6c \ub3c4\uace1\ub85c 225", "lat": "37.4937143", "lng": "127.0431144"}, {"statNm": "\uc11c\uc6b8\uc2dc \uc0c1\uc218\ub3c4\uc0ac\uc5c5\ubcf8\ubd80", "statId": "CV000183", "addr": "\uc11c\uc6b8\ud2b9\ubcc4\uc2dc \uc11c\ub300\ubb38\uad6c \uc11c\uc18c\ubb38\ub85c 51", "lat": "37.561949", "lng": "126.966732"}, {"statNm": "\uc11c\uc6b8\uc2dc\ub9bd\ub300\ud559\uad50(100\uc8fc\ub144 \uae30\ub150\uad00 \uc9c0\ud5581\uce35)", "statId": "CV000204", "addr": "\uc11c\uc6b8\ud2b9\ubcc4\uc2dc \ub3d9\ub300\ubb38\uad6c \uc11c\uc6b8\uc2dc\ub9bd\ub300\ub85c 163", "lat": "37.584627999999", "lng": "127.057001"}, {"statNm": "\ud55c\uad6d\uc804\uae30\uc548\uc804\uacf5\uc0ac \uc11c\uc6b8\uc11c\ubd80\uc9c0\uc0ac", "statId": "CV000239", "addr": "\uc11c\uc6b8\ud2b9\ubcc4\uc2dc \uc601\ub4f1\ud3ec\uad6c \ub2f9\uc0b0\ub85c33\uae38 7", "lat": "37.527059", "lng": "126.895874"}, {"statNm": "\ud55c\uad6d\uc804\uae30\uc548\uc804\uacf5\uc0ac \uc11c\uc6b8\ubd81\ubd80\uc9c0\uc0ac", "statId": "CV000240", "addr": "\uc11c\uc6b8\ud2b9\ubcc4\uc2dc \ub3c4\ubd09\uad6c \ub178\ud574\ub85c67\uae38 14", "lat": "37.652291", "lng": "127.049379"}, {"statNm": "\ucf54\uc704\ubc84", "statId": "CV000258", "addr": "\uc11c\uc6b8\ud2b9\ubcc4\uc2dc \uac15\uc11c\uad6c \ub9c8\uace1\uc911\uc5598\ub85c7\uae38 45", "lat": "37.5764888", "lng": "126.8307466"}, {"statNm": "\uc11c\uc6b8\ub3c4\uc2dc\uc2dc\uc124\uae30\ubc18\ubcf8\ubd80", "statId": "CV000259", "addr": "\uc11c\uc6b8\ud2b9\ubcc4\uc2dc \uc911\uad6c \uccad\uacc4\ucc9c\ub85c 8", "lat": "37.568787", "lng": "126.9782122"}, {"statNm": "\uc11c\ub9b0\ube4c\ub529(\uc0ec\ub808\ucf54\ub9ac\uc544)", "statId": "CV000262", "addr": "\uc11c\uc6b8\ud2b9\ubcc4\uc2dc \uc601\ub4f1\ud3ec\uad6c \uc5ec\uc758\ub300\ubc29\ub85c65\uae38 17", "lat": "37.5197067", "lng": "126.9292034"}, {"statNm": "\uc544\uc8fc\ube4c\ub529(\uc544\uc8fc\uc0b0\uc5c5)", "statId": "CV000289", "addr": "\uc11c\uc6b8\ud2b9\ubcc4\uc2dc \uac15\ub0a8\uad6c \ud14c\ud5e4\ub780\ub85c 201", "lat": "37.501311", "lng": "127.037178"}, {"statNm": "\ud55c\uad6d\uad6d\ud1a0\uc815\ubcf4\uacf5\uc0ac \uc11c\uc6b8\uc9c0\uc5ed\ubcf8\ubd80 \ub17c\ud604", "statId": "CV000301", "addr": "\uc11c\uc6b8\ud2b9\ubcc4\uc2dc \uac15\ub0a8\uad6c \uc5b8\uc8fc\ub85c 703", "lat": "37.516043", "lng": "127.034881"}, {"statNm": "\uc2dc\ubbfc\uc0dd\ud65c\uc0ac\ubc15\ubb3c\uad00", "statId": "CV000315", "addr": "\uc11c\uc6b8\ud2b9\ubcc4\uc2dc \ub178\uc6d0\uad6c \ub3d9\uc77c\ub85c174\uae38 27", "lat": "37.619857", "lng": "127.076517"}, {"statNm": "\uc11c\uc6b8\uae30\uc0c1\uccad", "statId": "CV000322", "addr": "\uc11c\uc6b8\ud2b9\ubcc4\uc2dc \ub3d9\uc791\uad6c \uc5ec\uc758\ub300\ubc29\ub85c16\uae38 61", "lat": "37.494192", "lng": "126.917608"}, {"statNm": "\ud604\uc6b0\ubaa8\ud130\uc2a4", "statId": "CV000405", "addr": "\uc11c\uc6b8\ud2b9\ubcc4\uc2dc \uc11c\ucd08\uad6c \uc11c\ucd08\ub300\ub85c 139", "lat": "37.489062", "lng": "126.9973639"}, {"statNm": "\ud55c\uad6d\uad6d\ud1a0\uc815\ubcf4\uacf5\uc0ac \uac15\ub0a8\uc11c\ucd08\uc9c0\uc0ac", "statId": "CV000453", "addr": "\uc11c\uc6b8\ud2b9\ubcc4\uc2dc \uac15\ub0a8\uad6c \ubd09\uc740\uc0ac\ub85c114\uae38 30", "lat": "37.513178", "lng": "127.065386"}, {"statNm": "\ud55c\uad6d\uad6d\ud1a0\uc815\ubcf4\uacf5\uc0ac \uc11c\uc6b8\uc911\ubd80\uc9c0\uc0ac", "statId": "CV000454", "addr": "\uc11c\uc6b8\ud2b9\ubcc4\uc2dc \uc131\ubd81\uad6c \uace0\ub824\ub300\ub85c7\ub2e4\uae38 8", "lat": "37.587772", "lng": "127.020761"}, {"statNm": "\ud55c\uad6d\uad6d\ud1a0\uc815\ubcf4\uacf5\uc0ac \uc6a9\uc0b0\ub9c8\ud3ec\uc9c0\uc0ac", "statId": "CV000455", "addr": "\uc11c\uc6b8\ud2b9\ubcc4\uc2dc \ub9c8\ud3ec\uad6c \ud3ec\uc740\ub85c 135", "lat": "37.558844", "lng": "126.9033439"}, {"statNm": "\ud55c\uad6d\uad6d\ud1a0\uc815\ubcf4\uacf5\uc0ac \uac15\ub3d9\uc1a1\ud30c\uc9c0\uc0ac", "statId": "CV000456", "addr": "\uc11c\uc6b8\ud2b9\ubcc4\uc2dc \uac15\ub3d9\uad6c \ud48d\uc131\ub85c 144", "lat": "37.530977", "lng": "127.127962"}, {"statNm": "\ub125\uc13c\ud0c0\uc774\uc5b4(\uc8fc)", "statId": "CV000531", "addr": "\uc11c\uc6b8\ud2b9\ubcc4\uc2dc \uac15\uc11c\uad6c \ub9c8\uace1\uc911\uc559\ub85c 177", "lat": "37.570016", "lng": "126.827498"}, {"statNm": "\ud30c\ud0b9\ud074\ub77c\uc6b0\ub4dc \uc8fc\uc2dd\ud68c\uc0ac", "statId": "CV000572", "addr": "\uc11c\uc6b8\ud2b9\ubcc4\uc2dc \uad6c\ub85c\uad6c \uad6c\uc77c\ub85c8\uae38 140", "lat": "37.49822", "lng": "126.8772219"}, {"statNm": "\ud3ec\ub974\uc250 HPC \ub370\uc2a4\ud2f0\ub124\uc774\uc158 \uc774\ub9c8\ud2b8\ud2b8\ub808\uc774\ub354\uc2a4 \uc6d4\uacc4\uc810", "statId": "CV000582", "addr": "\uc11c\uc6b8\ud2b9\ubcc4\uc2dc \ub178\uc6d0\uad6c \ub9c8\ub4e4\ub85c3\uae38 15", "lat": "37.626509", "lng": "127.0619799"}, {"statNm": "\uc9c4\uc6d0\uc885\ud569\uad00\ub9ac\uc8fc\uc2dd\ud68c\uc0ac", "statId": "CV000589", "addr": "\uc11c\uc6b8\ud2b9\ubcc4\uc2dc \ub178\uc6d0\uad6c \ub178\uc6d0\ub85c 3", "lat": "37.621993", "lng": "127.086663"}, {"statNm": "\ud654\uace1\ubcf4\ub78c5\ucc28\uc544\ud30c\ud2b8", "statId": "CV000592", "addr": "\uc11c\uc6b8\ud2b9\ubcc4\uc2dc \uac15\uc11c\uad6c \uc6d4\uc815\ub85c16\uae38 38", "lat": "37.527659", "lng": "126.842049"}, {"statNm": "\uc544\uc138\uc544(\uc8fc)", "statId": "CV000605", "addr": "\uc11c\uc6b8\ud2b9\ubcc4\uc2dc \uac15\ub0a8\uad6c \ub17c\ud604\ub85c 430", "lat": "37.499001", "lng": "127.038355"}, {"statNm": "\uac15\ub3d9\uc5ed\ub450\uc0b0\uc704\ube0c\uc13c\ud2f0\uc6c0\uc544\ud30c\ud2b8", "statId": "CV000626", "addr": "\uc11c\uc6b8\ud2b9\ubcc4\uc2dc \uac15\ub3d9\uad6c \uc131\uc548\ub85c 155", "lat": "37.537236", "lng": "127.134759"}, {"statNm": "\uc1a1\ud30c\ud638\ubc18\ubca0\ub974\ub514\uc6c0\ub354\ud37c\uc2a4\ud2b8", "statId": "CV000639", "addr": "\uc11c\uc6b8\ud2b9\ubcc4\uc2dc \uc1a1\ud30c\uad6c \ub3d9\ub0a8\ub85c 342", "lat": "37.505558", "lng": "127.139866"}, {"statNm": "\uc740\ud3c9\uad6c\uccad", "statId": "CV000643", "addr": "\uc11c\uc6b8\ud2b9\ubcc4\uc2dc \uc740\ud3c9\uad6c \uc740\ud3c9\ub85c 195", "lat": "37.602792", "lng": "126.92910299999"}, {"statNm": "\ud3ec\ub974\uc250 HPC \ub370\uc2a4\ud2f0\ub124\uc774\uc158 \uc774\ub9c8\ud2b8 \uc131\uc218\uc810", "statId": "CV000659", "addr": "\uc11c\uc6b8\ud2b9\ubcc4\uc2dc \uc131\ub3d9\uad6c \ub69d\uc12c\ub85c 379", "lat": "37.539929", "lng": "127.0534939"}, {"statNm": "\ubd81\ud55c\uc0b0\ub4dc\ub9bc\uc2dc\ud2f01\ucc28", "statId": "CV000691", "addr": "\uc11c\uc6b8\ud2b9\ubcc4\uc2dc \ub3c4\ubd09\uad6c \ub3c4\ubd09\ub85c110\ub9c8\uae38 42", "lat": "37.644465000000", "lng": "127.0361929999"}, {"statNm": "\ud3ec\ub974\uc250 \ub370\uc2a4\ud2f0\ub124\uc774\uc158 \uadf8\ub79c\ub4dc\uc6cc\ucee4\ud790 \uc11c\uc6b8", "statId": "CV000752", "addr": "\uc11c\uc6b8\ud2b9\ubcc4\uc2dc \uad11\uc9c4\uad6c \uc6cc\ucee4\ud790\ub85c 177", "lat": "37.557607", "lng": "127.110977"}, {"statNm": "\uc544\uc6b0\ub514_\uc11c\ucd08 \uc804\uc2dc\uc7a5", "statId": "CV000756", "addr": "\uc11c\uc6b8\ud2b9\ubcc4\uc2dc \uc11c\ucd08\uad6c \ubc18\ud3ec\ub300\ub85c12\uae38 3", "lat": "37.484869000000", "lng": "127.0114610000"}, {"statNm": "\uc544\uc6b0\ub514_\uc1a1\ud30c\ub300\ub85c \uc804\uc2dc\uc7a5", "statId": "CV000762", "addr": "\uc11c\uc6b8\ud2b9\ubcc4\uc2dc \uc1a1\ud30c\uad6c \ucda9\ubbfc\ub85c2\uae38 8", "lat": "37.479005000000", "lng": "127.1266380000"}, {"statNm": "\uc544\uc6b0\ub514_\uc131\uc218 \uc11c\ube44\uc2a4\uc13c\ud130", "statId": "CV000766", "addr": "\uc11c\uc6b8\ud2b9\ubcc4\uc2dc \uc131\ub3d9\uad6c \uc131\uc218\uc77c\ub85c6\uae38 10", "lat": "37.545103", "lng": "127.05091999999"}, {"statNm": "\uc544\uc6b0\ub514_\uc601\ub4f1\ud3ec \uc11c\ube44\uc2a4 \uc13c\ud130", "statId": "CV000767", "addr": "\uc11c\uc6b8\ud2b9\ubcc4\uc2dc \uc601\ub4f1\ud3ec\uad6c \uc601\uc2e0\ub85c 224", "lat": "37.527336", "lng": "126.90366100000"}, {"statNm": "\uc544\uc6b0\ub514_\ub3c4\uace1\ub85c \uc804\uc2dc\uc7a5 150KW", "statId": "CV000773", "addr": "\uc11c\uc6b8\ud2b9\ubcc4\uc2dc \uac15\ub0a8\uad6c \ub3c4\uace1\ub85c 121", "lat": "37.490391", "lng": "127.03354700000"}, {"statNm": "\uc544\uc6b0\ub514_\ub3c4\uc0b0\ub300\ub85c \uc804\uc2dc\uc7a5", "statId": "CV000775", "addr": "\uc11c\uc6b8\ud2b9\ubcc4\uc2dc \uac15\ub0a8\uad6c \ub3c4\uc0b0\ub300\ub85c 306", "lat": "37.521443999999", "lng": "127.0348710000"}, {"statNm": "\uad6c\uc7583\ub3d9 \uacf5\uc601\uc8fc\ucc28\uc7a5", "statId": "CV000781", "addr": "\uc11c\uc6b8\ud2b9\ubcc4\uc2dc \uad11\uc9c4\uad6c \uad11\ub098\ub8e8\ub85c52\uae38 83", "lat": "37.539152000000", "lng": "127.0913630000"}, {"statNm": "\uc544\uc6b0\ub514_\ub300\uce58 \uc804\uc2dc\uc7a5", "statId": "CV000784", "addr": "\uc11c\uc6b8\ud2b9\ubcc4\uc2dc \uac15\ub0a8\uad6c \uc601\ub3d9\ub300\ub85c 318", "lat": "37.503019000000", "lng": "127.06699"}, {"statNm": "\uc2e0\uc815\uc885\ud569\ubcf5\uc9c0\uad00", "statId": "CV000788", "addr": "\uc11c\uc6b8\ud2b9\ubcc4\uc2dc \uc591\ucc9c\uad6c \uc2e0\uc815\uc911\uc559\ub85c 36", "lat": "37.527434", "lng": "126.85547299999"}, {"statNm": "\uc544\uc6b0\ub514_\uac1c\ud3ec \uc11c\ube44\uc2a4 \uc13c\ud130", "statId": "CV000790", "addr": "\uc11c\uc6b8\ud2b9\ubcc4\uc2dc \uac15\ub0a8\uad6c \ub17c\ud604\ub85c18\uae38 9", "lat": "37.478001999999", "lng": "127.0455609999"}, {"statNm": "\uc544\uc6b0\ub514_\ub0a8\uc0b0 \uc804\uc2dc\uc7a5", "statId": "CV000793", "addr": "\uc11c\uc6b8\ud2b9\ubcc4\uc2dc \uc911\uad6c \ub3d9\ud638\ub85c 211", "lat": "37.55671399999", "lng": "127.00884100000"}, {"statNm": "\ubc18\uc580\ud2b8\ub9ac\ud074\ub7fd \uc2a4\ud30c\uc11c\uc6b8\ub354\ud074\ub7fd", "statId": "CV000820", "addr": "\uc11c\uc6b8\ud2b9\ubcc4\uc2dc \uc911\uad6c \uc7a5\ucda9\ub2e8\ub85c 60", "lat": "37.550071000000", "lng": "127.0004970000"}, {"statNm": "\uc591\ucc9c\uad6c\uc911\uc559\ub3c4\uc11c\uad00", "statId": "CV000823", "addr": "\uc11c\uc6b8\ud2b9\ubcc4\uc2dc \uc591\ucc9c\uad6c \uc2e0\uc815\ub85c7\uae38 81", "lat": "37.513822013387", "lng": "126.8333919590"}, {"statNm": "\ub300\ud559\ub3d9\uc8fc\ubbfc\uc13c\ud130", "statId": "CV000825", "addr": "\uc11c\uc6b8\ud2b9\ubcc4\uc2dc \uad00\uc545\uad6c \uc2e0\ub9bc\ub85c 111", "lat": "37.47058499999", "lng": "126.9369599999"}, {"statNm": "\uc11c\uc6b8 \uc911\uad6c\uccad", "statId": "CV000826", "addr": "\uc11c\uc6b8\ud2b9\ubcc4\uc2dc \uc911\uad6c \ud1f4\uacc4\ub85c10\uae38 29", "lat": "37.558435000000", "lng": "126.9811149999"}, {"statNm": "\ub3d9\ud654\ub3d9 \uacf5\uc601\uc8fc\ucc28\uc7a5", "statId": "CV000833", "addr": "\uc11c\uc6b8\ud2b9\ubcc4\uc2dc \uc911\uad6c \ub2e4\uc0b0\ub85c36\uac00\uae38 14-3", "lat": "37.561612129", "lng": "127.01890125"}, {"statNm": "\ud589\uc6b4\ub3d9 \uacf5\uc601\uc8fc\ucc28\uc7a5", "statId": "CV000834", "addr": "\uc11c\uc6b8\ud2b9\ubcc4\uc2dc \uad00\uc545\uad6c \ud589\uc6b44\uae38 21", "lat": "37.479778999", "lng": "126.96048500"}, {"statNm": "\ucc3d\uc870\uc735\ud569\uc5f0\uad6c\ub3d9", "statId": "CV000838", "addr": "\uc11c\uc6b8\ud2b9\ubcc4\uc2dc \ub178\uc6d0\uad6c \uacf5\ub989\ub85c 232", "lat": "37.632288999", "lng": "127.07916800"}, {"statNm": "EV\uc2a4\ud14c\uc774\uc158\uac15\ub3d9", "statId": "CV000840", "addr": "\uc11c\uc6b8\ud2b9\ubcc4\uc2dc \uac15\ub3d9\uad6c \ucc9c\ud638\ub300\ub85c 1221", "lat": "37.536051", "lng": "127.146385"}, {"statNm": "\uace0\ucc99\ub3d9 \uc81c\ub2c8\uc2a4 \uc544\uc774\uc2a4\ub9c1\ud06c\uc7a5", "statId": "CV000842", "addr": "\uc11c\uc6b8\ud2b9\ubcc4\uc2dc \uad6c\ub85c\uad6c \uc548\uc591\ucc9c\ub85c537\uae38 16", "lat": "37.503859000", "lng": "126.86871600"}, {"statNm": "\ubc18\ud3ec\ubcf5\uac1c\ucc9c\uacf5\uc601\uc8fc\ucc28\uc7a5", "statId": "CV000848", "addr": "\uc11c\uc6b8\ud2b9\ubcc4\uc2dc \uc11c\ucd08\uad6c \uc11c\ucd08\uc911\uc559\ub85c 255", "lat": "37.504295093", "lng": "127.01008106"}, {"statNm": "\ud604\ub300\uacc4\ub3d9 \ubcf8\uc0ac", "statId": "CV000860", "addr": "\uc11c\uc6b8\ud2b9\ubcc4\uc2dc \uc885\ub85c\uad6c \uc728\uace1\ub85c 75", "lat": "37.578184", "lng": "126.98751"}, {"statNm": "\ud6a8\uc131\ube4c\ub77c\uccad\ub2f4101", "statId": "CV000868", "addr": "\uc11c\uc6b8\ud2b9\ubcc4\uc2dc \uac15\ub0a8\uad6c \uc555\uad6c\uc815\ub85c71\uae38 28", "lat": "37.528218", "lng": "127.046477"}, {"statNm": "\ub9c8\uace19\ub2e8\uc9c0", "statId": "CV000870", "addr": "\uc11c\uc6b8\ud2b9\ubcc4\uc2dc \uac15\uc11c\uad6c \uacf5\ud56d\ub300\ub85c 103", "lat": "37.561906999", "lng": "126.81860899"}, {"statNm": "\uc2e0\ub2f9\ub3d9 \uacf5\uacf5\ubcf5\ud569\uccad\uc0ac", "statId": "CV000876", "addr": "\uc11c\uc6b8\ud2b9\ubcc4\uc2dc \uc911\uad6c \ub2e4\uc0b0\ub85c33\uae38 3", "lat": "37.562018999", "lng": "127.01445199"}, {"statNm": "\ubc24\uace0\uac1c\ub85c21\uae38 \uacf5\uc601\uc8fc\ucc28\uc7a5", "statId": "CV000883", "addr": "\uc11c\uc6b8\ud2b9\ubcc4\uc2dc \uac15\ub0a8\uad6c \ubc24\uace0\uac1c\ub85c21\uae38 71", "lat": "37.474252000", "lng": "127.11416600"}, {"statNm": "\ub0a8\ubd80\ucd08 \uacf5\uc601\uc8fc\ucc28\uc7a5", "statId": "CV000885", "addr": "\uc11c\uc6b8\ud2b9\ubcc4\uc2dc \uad00\uc545\uad6c \ub0a8\ubd80\uc21c\ud658\ub85c163\uae38 14", "lat": "37.485083000", "lng": "126.92215600"}, {"statNm": "\uc5fc\ub9ac\uacf5\uc601\uc8fc\ucc28\uc7a5", "statId": "CV000887", "addr": "\uc11c\uc6b8\ud2b9\ubcc4\uc2dc \ub9c8\ud3ec\uad6c \ud070\uc6b0\ubb3c\ub85c 61", "lat": "37.54199400", "lng": "126.94520799"}, {"statNm": "\ud3ec\ub974\uc250 HPC \ub370\uc2a4\ud2f0\ub124\uc774\uc158 \uc11c\uc6b8 \uc6e8\uc2a4\ud2f4 \uc870\uc120 \ud638\ud154", "statId": "CV000888", "addr": "\uc11c\uc6b8\ud2b9\ubcc4\uc2dc \uc911\uad6c \uc18c\uacf5\ub85c 106", "lat": "37.564462999", "lng": "126.98020500"}, {"statNm": "\uc704\ub840\uc9c0\uad6c 18\ub2e8\uc9c0", "statId": "CV000911", "addr": "\uc11c\uc6b8\ud2b9\ubcc4\uc2dc \uc1a1\ud30c\uad6c \uc704\ub840\uc11c\uc774\ub85c 25", "lat": "37.493193", "lng": "127.137845"}, {"statNm": "\ud3ec\ub974\uc250 HPC \uc5d0\uc2a4-\uc624\uc77c \uc608\uc220\uc758\uc804\ub2f9\uc55e\uc8fc\uc720\uc18c", "statId": "CV000920", "addr": "\uc11c\uc6b8\ud2b9\ubcc4\uc2dc \uc11c\ucd08\uad6c \ub0a8\ubd80\uc21c\ud658\ub85c 2391", "lat": "37.480557", "lng": "127.011981"}, {"statNm": "\ub4f1\ub098\ubb34\uadfc\ub9b0\uacf5\uc6d0 \uacf5\uc601\uc8fc\ucc28\uc7a5", "statId": "CV000938", "addr": "\uc11c\uc6b8\ud2b9\ubcc4\uc2dc \ub178\uc6d0\uad6c \ub3d9\uc77c\ub85c204\uac00\uae38 41-2", "lat": "37.640994008", "lng": "127.0674399"}, {"statNm": "\ubd81\ud55c\uc0b0 \uc9c4\uad00\uc0ac\uacf5\uc601\uc8fc\ucc28\uc7a5", "statId": "CV000939", "addr": "\uc11c\uc6b8\ud2b9\ubcc4\uc2dc \uc740\ud3c9\uad6c \uc9c4\uad00\uae38 46", "lat": "37.64070746", "lng": "126.94293086"}, {"statNm": "\uc704\ub840\uc9c0\uad6c 17\ub2e8\uc9c0", "statId": "CV000940", "addr": "\uc11c\uc6b8\ud2b9\ubcc4\uc2dc \uc1a1\ud30c\uad6c \uc704\ub840\uc1a1\ud30c\ub85c 123", "lat": "37.48574707", "lng": "127.1479273"}, {"statNm": "\uc704\ub840\uc9c0\uad6c 15\ub2e8\uc9c0", "statId": "CV000941", "addr": "\uc11c\uc6b8\ud2b9\ubcc4\uc2dc \uc1a1\ud30c\uad6c \uc704\ub840\uc1a1\ud30c\ub85c 89", "lat": "37.48630833", "lng": "127.1446640"}, {"statNm": "\uc2e0\uc6d46\ub3d9\ubcf5\ud569\uccad\uc0ac", "statId": "CV000949", "addr": "\uc11c\uc6b8\ud2b9\ubcc4\uc2dc \uc591\ucc9c\uad6c \ub0a8\ubd80\uc21c\ud658\ub85c83\uae38 47", "lat": "37.517957024", "lng": "126.84518294"}, {"statNm": "\ub9c8\ud3ec T \ud0c0\uc6b4", "statId": "CV000953", "addr": "\uc11c\uc6b8\ud2b9\ubcc4\uc2dc \ub9c8\ud3ec\uad6c \ub9c8\ud3ec\ub300\ub85c 144", "lat": "37.54699300", "lng": "126.95376300"}, {"statNm": "\ub178\uc6d0\uc5d0\ucf54\uc13c\ud130", "statId": "CV000963", "addr": "\uc11c\uc6b8\ud2b9\ubcc4\uc2dc \ub178\uc6d0\uad6c \ub355\ub989\ub85c 460", "lat": "37.644399000", "lng": "127.05994699"}, {"statNm": "\uccad\uc194\ud504\ub77c\uc790", "statId": "CV000973", "addr": "\uc11c\uc6b8\ud2b9\ubcc4\uc2dc \uad6c\ub85c\uad6c \uc11c\ud574\uc548\ub85c 2096", "lat": "37.479767662", "lng": "126.82311689"}, {"statNm": "\ub9dd\uc6d0\ub3d9 \uacf5\uc601\uc8fc\ucc28\uc7a5", "statId": "CV000974", "addr": "\uc11c\uc6b8\ud2b9\ubcc4\uc2dc \ub9c8\ud3ec\uad6c \ub3d9\uad50\ub85c1\uae38 45", "lat": "37.555860999", "lng": "126.89668400"}, {"statNm": "\uc5fc\ub9ac\ub3d9\uc885\ud569\uc0ac\ud68c\ubcf5\uc9c0\uad00", "statId": "CV000995", "addr": "\uc11c\uc6b8\ud2b9\ubcc4\uc2dc \ub9c8\ud3ec\uad6c \ub300\ud765\ub85c24\uae38 50", "lat": "37.541854999", "lng": "126.95659599"}, {"statNm": "\uc11c\uc77c\ub300\ud559\uad50", "statId": "CV001011", "addr": "\uc11c\uc6b8\ud2b9\ubcc4\uc2dc \uc911\ub791\uad6c \uc6a9\ub9c8\uc0b0\ub85c90\uae38 28", "lat": "37.58610000", "lng": "127.09722199"}, {"statNm": "\uad11\uc9c4\uc815\ubcf4\ub3c4\uc11c\uad00", "statId": "CV001017", "addr": "\uc11c\uc6b8\ud2b9\ubcc4\uc2dc \uad11\uc9c4\uad6c \uc544\ucc28\uc0b0\ub85c78\uae38 90", "lat": "37.550881999", "lng": "127.11049899"}, {"statNm": "\ud55c\uad6d\ud0c0\uc774\uc5b4 \uc5ed\uc0bc\uc0ac\uc625", "statId": "CV001027", "addr": "\uc11c\uc6b8\ud2b9\ubcc4\uc2dc \uac15\ub0a8\uad6c \ud14c\ud5e4\ub780\ub85c 133", "lat": "37.500138", "lng": "127.03345100"}, {"statNm": "\uc6a9\uc0b0\uc8fc\ucc28\ube4c\ub529", "statId": "CV001043", "addr": "\uc11c\uc6b8\ud2b9\ubcc4\uc2dc \uc6a9\uc0b0\uad6c \uc0c8\ucc3d\ub85c49\uae38 42", "lat": "37.534272000", "lng": "126.96531800"}, {"statNm": "KTnG \uc601\ub4f1\ud3ec\uc9c0\uc0ac", "statId": "CV001049", "addr": "\uc11c\uc6b8\ud2b9\ubcc4\uc2dc \uc601\ub4f1\ud3ec\uad6c \uc120\uc720\ub85c 11", "lat": "37.515746", "lng": "126.887575"}, {"statNm": "\uc885\ubb18\uacf5\uc601\uc8fc\ucc28\uc7a5", "statId": "CV001050", "addr": "\uc11c\uc6b8\ud2b9\ubcc4\uc2dc \uc885\ub85c\uad6c \uc885\ub85c 157", "lat": "37.57299000", "lng": "126.99437000"}, {"statNm": "\uc7a0\uc2e4\uc5ed\uacf5\uc601\uc8fc\ucc28\uc7a5", "statId": "CV001061", "addr": "\uc11c\uc6b8\ud2b9\ubcc4\uc2dc \uc1a1\ud30c\uad6c \uc62c\ub9bc\ud53d\ub85c 299", "lat": "37.514970000", "lng": "127.10424999"}, {"statNm": "\uc218\uc11c\uc5ed\uacf5\uc601\uc8fc\ucc28\uc7a5", "statId": "CV001064", "addr": "\uc11c\uc6b8\ud2b9\ubcc4\uc2dc \uac15\ub0a8\uad6c \uad11\ud3c9\ub85c \uc9c0\ud558270", "lat": "37.487522486", "lng": "127.09996851"}, {"statNm": "\uad6c\uc138\uad70\uae38 \uacf5\uc601\uc8fc\ucc28\uc7a5", "statId": "CV001069", "addr": "\uc11c\uc6b8\ud2b9\ubcc4\uc2dc \uac15\ubd81\uad6c \uc778\uc218\ubd09\ub85c20\uac00\uae38 21", "lat": "37.626094999", "lng": "127.013479"}, {"statNm": "\ud55c\ub0a8\uc720\uc218\uc9c0 \uacf5\uc601\uc8fc\ucc28\uc7a5", "statId": "CV001085", "addr": "\uc11c\uc6b8\ud2b9\ubcc4\uc2dc \uc6a9\uc0b0\uad6c \ub3c5\uc11c\ub2f9\ub85c 18", "lat": "37.530022999", "lng": "127.00739699"}, {"statNm": "\uccad\ud30c\ub3d91\ub9c8\uc744\uacf5\uc6d0 \uacf5\uc601\uc8fc\ucc28\uc7a5", "statId": "CV001086", "addr": "\uc11c\uc6b8\ud2b9\ubcc4\uc2dc \uc6a9\uc0b0\uad6c \uc6d0\ud6a8\ub85c97\uae38 50", "lat": "37.542771", "lng": "126.96859500"}, {"statNm": "\uc2e0\ucc9c\uc720\uc218\uc9c0\uc8fc\ucc28\uc7a5", "statId": "CV001087", "addr": "\uc11c\uc6b8\ud2b9\ubcc4\uc2dc \uc1a1\ud30c\uad6c \uc624\uae08\ub85c2\uae38 22", "lat": "37.521766487", "lng": "127.10225300"}, {"statNm": "\uad00\uc545\uad6c\ubbfc\uc885\ud569\uccb4\uc721\uc13c\ud130", "statId": "CV001088", "addr": "\uc11c\uc6b8\ud2b9\ubcc4\uc2dc \uad00\uc545\uad6c \ub099\uc131\ub300\ub85c3\uae38 37", "lat": "37.473057000", "lng": "126.96031899"}, {"statNm": "\uc2dc\ud7655\ub3d9 \ubcf5\ud569\uccad\uc0ac", "statId": "CV001096", "addr": "\uc11c\uc6b8\ud2b9\ubcc4\uc2dc \uae08\ucc9c\uad6c \uae08\ud558\ub85c24\uae38 6", "lat": "37.450833000", "lng": "126.90850299"}, {"statNm": "\ud55c\uad6d\ud1a0\uc9c0\uc8fc\ud0dd\uacf5\uc0ac \uc11c\uc6b8\uc9c0\uc5ed\ubcf8\ubd80 \uc804\uae30\ucc28 \ucda9\uc804\uc18c", "statId": "CV001098", "addr": "\uc11c\uc6b8\ud2b9\ubcc4\uc2dc \uac15\ub0a8\uad6c \uc120\ub989\ub85c121\uae38 12", "lat": "37.514331000", "lng": "127.04094999"}, {"statNm": "\uacc4\ub0a8\ub2e4\ubaa9\uc801\uccb4\uc721\uad00", "statId": "CV001102", "addr": "\uc11c\uc6b8\ud2b9\ubcc4\uc2dc \uc591\ucc9c\uad6c \uc2e0\uc815\ub85c 273-5", "lat": "37.513079999", "lng": "126.85052300"}, {"statNm": "\ub300\ub9bc\ud0dd\uc2dc", "statId": "CV001105", "addr": "\uc11c\uc6b8\ud2b9\ubcc4\uc2dc \ub178\uc6d0\uad6c \uacf5\ub989\ub85c42\uae38 107", "lat": "37.625679", "lng": "127.08541700"}, {"statNm": "\uba74\ubaa9\uc720\uc218\uc9c0 \uacf5\uc601\uc8fc\ucc28\uc7a5", "statId": "CV001112", "addr": "\uc11c\uc6b8\ud2b9\ubcc4\uc2dc \uc911\ub791\uad6c \uc0ac\uac00\uc815\ub85c 332", "lat": "37.580920680", "lng": "127.08035780"}, {"statNm": "\ub355\uc218\uace0\ub4f1\ud559\uad50 \uc8fc\ucc28\uc7a5", "statId": "CV001139", "addr": "\uc11c\uc6b8\ud2b9\ubcc4\uc2dc \uc1a1\ud30c\uad6c \uc704\ub840\ubd81\ub85c 10", "lat": "37.485445999", "lng": "127.14691299"}, {"statNm": "\uc2e0\uc2e0\uae30\uc5c5", "statId": "CV001143", "addr": "\uc11c\uc6b8\ud2b9\ubcc4\uc2dc \uac15\uc11c\uad6c \uac15\uc11c\ub85c 519-11", "lat": "37.571656", "lng": "126.84127299"}, {"statNm": "\uad6d\ub9bd\ub300\ud55c\ubbfc\uad6d\uc784\uc2dc\uc815\ubd80\uae30\ub150\uad00", "statId": "CV001154", "addr": "\uc11c\uc6b8\ud2b9\ubcc4\uc2dc \uc11c\ub300\ubb38\uad6c \ud1b5\uc77c\ub85c 279-24", "lat": "37.575989999", "lng": "126.95426299"}, {"statNm": "\ub9c8\uc7a5\ucd95\uc0b0\ubb3c\uc2dc\uc7a5 \uacf5\uc601\uc8fc\ucc28\uc7a5", "statId": "CV001167", "addr": "\uc11c\uc6b8\ud2b9\ubcc4\uc2dc \uc131\ub3d9\uad6c \uc0b4\uacf6\uc774\uae38 18", "lat": "37.571436762", "lng": "127.04039074"}, {"statNm": "\ub3c4\ubd09\uc5b4\ub974\uc2e0\ubb38\ud654\uc13c\ud130", "statId": "CV001170", "addr": "\uc11c\uc6b8\ud2b9\ubcc4\uc2dc \ub3c4\ubd09\uad6c \ub9c8\ub4e4\ub85c 536", "lat": "37.659869000", "lng": "127.05091999"}, {"statNm": "\ud6a8\ucc3d\ud30c\ud06c\ubdf0\ub370\uc2dc\uc559", "statId": "CV001178", "addr": "\uc11c\uc6b8\ud2b9\ubcc4\uc2dc \uc6a9\uc0b0\uad6c \ud6a8\ucc3d\uc6d0\ub85c 227", "lat": "37.547493", "lng": "126.96301200"}, {"statNm": "\uc138\uace1\ubcf5\ud569\ubb38\ud654\uc13c\ud130", "statId": "CV001196", "addr": "\uc11c\uc6b8\ud2b9\ubcc4\uc2dc \uac15\ub0a8\uad6c \uc790\uace1\ub85c 100", "lat": "37.471501999", "lng": "127.09450100"}, {"statNm": "\ub9b0\uc2a4\ud018\uc5b4 \ube4c\ub529 \uc8fc\ucc28\uc7a5", "statId": "CV001206", "addr": "\uc11c\uc6b8\ud2b9\ubcc4\uc2dc \uac15\ub0a8\uad6c \uc5b8\uc8fc\ub85c30\uae38 39", "lat": "37.48875", "lng": "127.053227"}, {"statNm": "\ub300\ub9bc\uac15\ubcc0\ud0c0\uc6b4", "statId": "EC000001", "addr": "\uc11c\uc6b8\ud2b9\ubcc4\uc2dc \uc131\ub3d9\uad6c \uace0\uc0b0\uc790\ub85c 160", "lat": "37.5544481", "lng": "127.0346918"}, {"statNm": "\uc0c1\uc554\uc6d4\ub4dc\ucef5\ud30c\ud06c4\ub2e8\uc9c0", "statId": "EC000019", "addr": "\uc11c\uc6b8\ud2b9\ubcc4\uc2dc \ub9c8\ud3ec\uad6c \uc0c1\uc554\uc0b0\ub85c1\uae38 24", "lat": "37.577972776", "lng": "126.88769189"}, {"statNm": "\ub2f9\uc0b0\ub3d9\ubd80\uc13c\ud2b8\ub808\ube4c", "statId": "EC000024", "addr": "\uc11c\uc6b8\ud2b9\ubcc4\uc2dc \uc601\ub4f1\ud3ec\uad6c \uc601\uc2e0\ub85c 191", "lat": "37.524790120", "lng": "126.90207699"}, {"statNm": "\ud751\uc11d\ud55c\uac15\ud478\ub974\uc9c0\uc624", "statId": "EC000025", "addr": "\uc11c\uc6b8\ud2b9\ubcc4\uc2dc \ub3d9\uc791\uad6c \ud751\uc11d\ud55c\uac15\ub85c 27", "lat": "37.504724682", "lng": "126.96556797"}, {"statNm": "\uc2e0\uae38\uacbd\ub0a8\uc544\ud30c\ud2b8", "statId": "EC000046", "addr": "\uc11c\uc6b8\ud2b9\ubcc4\uc2dc \uc601\ub4f1\ud3ec\uad6c \uc601\ub4f1\ud3ec\ub85c 351", "lat": "37.515343392", "lng": "126.91800530"}, {"statNm": "\uc2e0\ub3c4\ub9bc7\ucc28\uc774\ud3b8\ud55c\uc138\uc0c1", "statId": "EC000051", "addr": "\uc11c\uc6b8\ud2b9\ubcc4\uc2dc \uad6c\ub85c\uad6c \uc2e0\ub3c4\ub9bc\ub85c 56-13", "lat": "37.508392842", "lng": "126.88219791"}, {"statNm": "\ub798\ubbf8\uc548\ubc24\uc12c\ub9ac\ubca0\ub2741\uc544\ud30c\ud2b8", "statId": "EC000052", "addr": "\uc11c\uc6b8\ud2b9\ubcc4\uc2dc \ub9c8\ud3ec\uad6c \ub3c5\ub9c9\ub85c20\ub098\uae38 22", "lat": "37.546347744", "lng": "126.92606350"}, {"statNm": "\ubd81\ud55c\uc0b0\ub450\uc0b0\uc704\ube0c2\ucc28", "statId": "EC000062", "addr": "\uc11c\uc6b8\ud2b9\ubcc4\uc2dc \uc11c\ub300\ubb38\uad6c \ud64d\uc740\uc911\uc559\ub85c1\uae38 100", "lat": "37.599647007", "lng": "126.94422175"}, {"statNm": "\ucc3d\ub3d9\uac74\uc601\uce90\uc2a4\ube4c", "statId": "EC000063", "addr": "\uc11c\uc6b8\ud2b9\ubcc4\uc2dc \ub3c4\ubd09\uad6c \uc6b0\uc774\ucc9c\ub85c20\uae38 7", "lat": "37.640957018", "lng": "127.03407290"}, {"statNm": "\ud615\uc778\ud5c8\ube0c\ube4c", "statId": "EC000067", "addr": "\uc11c\uc6b8\ud2b9\ubcc4\uc2dc \uac15\ub3d9\uad6c \uc0c1\uc554\ub85c49\uae38 13", "lat": "37.547150477", "lng": "127.14464389"}, {"statNm": "\uc740\ud3c9\ub274\ud0c0\uc6b4\uc81c\uac01\ub9d05\ub2e8\uc9c0\uc81c2", "statId": "EC000069", "addr": "\uc11c\uc6b8\ud2b9\ubcc4\uc2dc \uc740\ud3c9\uad6c \uc5f0\uc11c\ub85c48\uae38 11", "lat": "37.6376117", "lng": "126.9363968"}, {"statNm": "\ub798\ubbf8\uc548\ub0a8\uac00\uc88c2\ucc28", "statId": "EC000071", "addr": "\uc11c\uc6b8\ud2b9\ubcc4\uc2dc \uc11c\ub300\ubb38\uad6c \uc218\uc0c9\ub85c6\uae38 43", "lat": "37.572212982", "lng": "126.91357441"}, {"statNm": "\ub9c8\ud3ec\uc790\uc7742\ucc28\uc544\ud30c\ud2b8", "statId": "EC000138", "addr": "\uc11c\uc6b8\ud2b9\ubcc4\uc2dc \ub9c8\ud3ec\uad6c \uc11c\uac15\ub300\uae38 40", "lat": "37.549580306", "lng": "126.94142729"}, {"statNm": "\uace0\ub355\ub86f\ub370\uce90\uc2ac\ubca0\ub124\ub8e8\uccb4", "statId": "EC000140", "addr": "\uc11c\uc6b8\ud2b9\ubcc4\uc2dc \uac15\ub3d9\uad6c \uc0c1\uc554\ub85c79\uae38 88", "lat": "37.549134779", "lng": "127.16610085"}, {"statNm": "\uadf9\ub3d9\uc0c1\ub85d\uc218", "statId": "EC000146", "addr": "\uc11c\uc6b8\ud2b9\ubcc4\uc2dc \uac15\uc11c\uad6c \uacf5\ud56d\ub300\ub85c71\uae38 31", "lat": "37.548784939", "lng": "126.87253281"}, {"statNm": "\ub514\uc5e0\uc528\uc5d0\ucf54\uc790\uc774", "statId": "EC000147", "addr": "\uc11c\uc6b8\ud2b9\ubcc4\uc2dc \uc11c\ub300\ubb38\uad6c \uac70\ubd81\uace8\ub85c 84", "lat": "37.576845476", "lng": "126.91974985"}, {"statNm": "\ud56d\ub3d9\ud558\ubc84\ub77c\uc7782\ub2e8\uc9c0", "statId": "EC000149", "addr": "\uc11c\uc6b8\ud2b9\ubcc4\uc2dc \uad6c\ub85c\uad6c \uc5f0\ub3d9\ub85c 234", "lat": "37.481905515", "lng": "126.82152825"}, {"statNm": "\ucc9c\ud638\ub3d9\uc544\ud558\uc774\ube4c", "statId": "EC000159", "addr": "\uc11c\uc6b8\ud2b9\ubcc4\uc2dc \uac15\ub3d9\uad6c \uad6c\ucc9c\uba74\ub85c 278", "lat": "37.544695743", "lng": "127.13327502"}, {"statNm": "\uc2e0\ub9bc\uc2e0\ub3c4\ube0c\ub798\ub274", "statId": "EC000184", "addr": "\uc11c\uc6b8\ud2b9\ubcc4\uc2dc \uad00\uc545\uad6c \uc870\uc6d0\ub85c16\uae38 7", "lat": "37.483836596", "lng": "126.91096837"}, {"statNm": "\uc218\ub77d\uc0b0\ub298\ud478\ub978\uc544\ud30c\ud2b8", "statId": "EC000192", "addr": "\uc11c\uc6b8\ud2b9\ubcc4\uc2dc \ub178\uc6d0\uad6c \ub3d9\uc77c\ub85c242\ub098\uae38 20", "lat": "37.676485650", "lng": "127.05662216"}, {"statNm": "\ub179\ubc88\ub300\ub9bc\uc544\ud30c\ud2b8", "statId": "EC000193", "addr": "\uc11c\uc6b8\ud2b9\ubcc4\uc2dc \uc740\ud3c9\uad6c \ud1b5\uc77c\ub85c 586", "lat": "37.599335030", "lng": "126.93708583"}, {"statNm": "\ub355\uc601\ub4dc\ub9bc\uc544\ud30c\ud2b8", "statId": "EC000195", "addr": "\uc11c\uc6b8\ud2b9\ubcc4\uc2dc \uad6c\ub85c\uad6c \uad6c\ub85c\uc911\uc559\ub85c34\uae38 17", "lat": "37.500847800", "lng": "126.88405339"}, {"statNm": "\uc2dc\ud765\ubcbd\uc0b0\uc544\ud30c\ud2b8", "statId": "EC000210", "addr": "\uc11c\uc6b8\ud2b9\ubcc4\uc2dc \uae08\ucc9c\uad6c \uae08\ud558\ub85c 793", "lat": "37.449898125", "lng": "126.91775903"}, {"statNm": "\ub798\ubbf8\uc548\uae38\uc74c2\ucc28", "statId": "EC000213", "addr": "\uc11c\uc6b8\ud2b9\ubcc4\uc2dc \uc131\ubd81\uad6c \uae38\uc74c\ub85c 74", "lat": "37.609084043", "lng": "127.02052940"}, {"statNm": "\ub798\ubbf8\uc548\uc194\ubca0\ub274", "statId": "EC000217", "addr": "\uc11c\uc6b8\ud2b9\ubcc4\uc2dc \uac15\ub3d9\uad6c \uc591\uc7ac\ub300\ub85c 1650", "lat": "37.552794588", "lng": "127.14441821"}, {"statNm": "\uac15\ub3d9\uc5ed\uc2e0\ub3d9\uc544\ud30c\ubc00\ub9ac\uc5d0", "statId": "EC000218", "addr": "\uc11c\uc6b8\ud2b9\ubcc4\uc2dc \uac15\ub3d9\uad6c \ucc9c\ud638\ub300\ub85c 1089", "lat": "37.535991227", "lng": "127.13293899"}, {"statNm": "\uac15\ub0a8\uc5d8\uc5d0\uc774\uce581\ub2e8\uc9c0(\uac15\ub0a8LH1\ub2e8\uc9c0)", "statId": "EC000219", "addr": "\uc11c\uc6b8\ud2b9\ubcc4\uc2dc \uac15\ub0a8\uad6c \ud5cc\ub989\ub85c571\uae38 20", "lat": "37.466992436", "lng": "127.10193635"}, {"statNm": "\ucc3d\ub3d9\ub300\uc6b0\uadf8\ub9b0", "statId": "EC000223", "addr": "\uc11c\uc6b8\ud2b9\ubcc4\uc2dc \ub3c4\ubd09\uad6c \ub355\ub989\ub85c 371", "lat": "37.645911627", "lng": "127.05025413"}, {"statNm": "\ub798\ubbf8\uc548\ubc24\uc12c\ub9ac\ubca0\ub2742", "statId": "EC000225", "addr": "\uc11c\uc6b8\ud2b9\ubcc4\uc2dc \ub9c8\ud3ec\uad6c \ub3c5\ub9c9\ub85c20\ub098\uae38 21", "lat": "37.546425547", "lng": "126.92672644"}, {"statNm": "\uc0c1\uc554\ud734\uba3c\uc2dc\uc5441\ub2e8\uc9c0", "statId": "EC000227", "addr": "\uc11c\uc6b8\ud2b9\ubcc4\uc2dc \ub9c8\ud3ec\uad6c \uc6d4\ub4dc\ucef5\ubd81\ub85c43\uae38 11", "lat": "37.574543387", "lng": "126.89537148"}, {"statNm": "\uc5fc\uace1\uc548\uc8fc\ud0dd", "statId": "EC001021", "addr": "\uc11c\uc6b8\ud2b9\ubcc4\uc2dc \uc11c\ucd08\uad6c \uc5fc\uace1\uc5481\uae38 4", "lat": "37.462391976", "lng": "127.05018837"}, {"statNm": "\ub300\ud55c\ubbfc\uad6d\uace0\uc5fd\uc81c\uc804\uc6b0\ud68c\uc591\ucc9c\uad6c\uc9c0\ud68c", "statId": "EC001030", "addr": "\uc11c\uc6b8\ud2b9\ubcc4\uc2dc \uc591\ucc9c\uad6c \ub0a8\ubd80\uc21c\ud658\ub85c 694", "lat": "37.507619121", "lng": "126.84330362"}, {"statNm": "\ud56d\ub3d9\ud558\ubc84\ub77c\uc77810\ub2e8\uc9c0", "statId": "EC001031", "addr": "\uc11c\uc6b8\ud2b9\ubcc4\uc2dc \uad6c\ub85c\uad6c \ud56d\ub3d9\ub85c 60", "lat": "37.479769800", "lng": "126.82578197"}, {"statNm": "\ub798\ubbf8\uc548\uc6a9\uc0b0\ub354\uc13c\ud2b8\ub7f4", "statId": "EC100001", "addr": "\uc11c\uc6b8\ud2b9\ubcc4\uc2dc \uc6a9\uc0b0\uad6c \ud55c\uac15\ub300\ub85c 95", "lat": "37.529023293", "lng": "126.96710510"}, {"statNm": "\uac1c\ubd09\ub450\uc0b0\uc544\ud30c\ud2b8(INO)", "statId": "EK221015", "addr": "\uc11c\uc6b8\ud2b9\ubcc4\uc2dc \uad6c\ub85c\uad6c \ub0a8\ubd80\uc21c\ud658\ub85c95\uae38 88", "lat": "37.495325127", "lng": "126.8517305"}, {"statNm": "\ud638\ud154\ub354\ub514\uc790\uc774\ub108\uc2a4\ub9ac\uc988\uac15\ub0a8\ud504\ub9ac\ubbf8\uc5b4(ino)", "statId": "EK221028", "addr": "\uc11c\uc6b8\ud2b9\ubcc4\uc2dc \uac15\ub0a8\uad6c \ubd09\uc740\uc0ac\ub85c 113", "lat": "37.5052667", "lng": "127.0258786"}, {"statNm": "\ud55c\uac15\ud604\ub300\ud558\uc774\uc5d8(ino)", "statId": "EK221032", "addr": "\uc11c\uc6b8\ud2b9\ubcc4\uc2dc \uc6a9\uc0b0\uad6c \uc0c8\ucc3d\ub85c 213-12", "lat": "37.530489483", "lng": "126.96802809"}, {"statNm": "\uc5d0\uc774\uc2a4\ud558\uc774\uc5d4\ub4dc\ud0c0\uc6cc6\ucc28(INO)", "statId": "EK221033", "addr": "\uc11c\uc6b8\ud2b9\ubcc4\uc2dc \uae08\ucc9c\uad6c \ubc9a\uaf43\ub85c 234", "lat": "37.4759973", "lng": "126.8861324"}, {"statNm": "EV\ucda9\uc804\uc18c SK\uc5ec\uc758\ub3c4\uc8fc\uc720\uc18c (ev Most)", "statId": "EM000001", "addr": "\uc11c\uc6b8\ud2b9\ubcc4\uc2dc \uc601\ub4f1\ud3ec\uad6c \uc758\uc0ac\ub2f9\ub300\ub85c 154", "lat": "37.517737", "lng": "126.927370"}, {"statNm": "EV\ucda9\uc804\uc18c SK\uc601\ub4f1\ud3ec\ud589\ubcf5\uc8fc\uc720\uc18c (ev Most)", "statId": "EM000002", "addr": "\uc11c\uc6b8\ud2b9\ubcc4\uc2dc \uc601\ub4f1\ud3ec\uad6c \uc120\uc720\ub85c 114", "lat": "37.524004", "lng": "126.890839"}, {"statNm": "EV\ucda9\uc804\uc18c SK\uc2e0\uc6d4\ub0a8\ubd80\uc8fc\uc720\uc18c (ev Most)", "statId": "EM000003", "addr": "\uc11c\uc6b8\ud2b9\ubcc4\uc2dc \uc591\ucc9c\uad6c \ub0a8\ubd80\uc21c\ud658\ub85c 553", "lat": "37.519571", "lng": "126.838732"}, {"statNm": "EV\ucda9\uc804\uc18c SK\uc911\ub791\uad50\uc140\ud504\uc8fc\uc720\uc18c (ev Most)", "statId": "EM000004", "addr": "\uc11c\uc6b8\ud2b9\ubcc4\uc2dc \uc911\ub791\uad6c \ub9dd\uc6b0\ub85c 229", "lat": "37.594717", "lng": "127.077906"}, {"statNm": "\uc11c\uc6b8\uc7a5\uc560\uc778\uc885\ud569\ubcf5\uc9c0\uad00", "statId": "EP109102", "addr": "\uc11c\uc6b8\ud2b9\ubcc4\uc2dc \uac15\ub3d9\uad6c \uace0\ub355\ub85c 201", "lat": "37.5562072", "lng": "127.1485437"}, {"statNm": "\uad00\uc545\uc704\ubc84\ud3f4\ub9ac\uc2a4", "statId": "EP190003", "addr": "\uc11c\uc6b8\ud2b9\ubcc4\uc2dc \uad00\uc545\uad6c \uad00\uc545\ub85c 195", "lat": "37.4825641", "lng": "126.9530968"}, {"statNm": "(\uc8fc)\ub18d\ud611\uc720\ud1b5\ucc3d\ub3d9\ub18d\uc0b0\ubb3c\uc885\ud569", "statId": "EP190009", "addr": "\uc11c\uc6b8\ud2b9\ubcc4\uc2dc \ub3c4\ubd09\uad6c \ub9c8\ub4e4\ub85c11\uae38 20", "lat": "37.6550378", "lng": "127.0518028"}, {"statNm": "\ubaa9\ub3d9\ud604\ub300\ud30c\ud06c\ube4c1(\uc9c0\ud5582_3\uce35", "statId": "EP190061", "addr": "\uc11c\uc6b8\ud2b9\ubcc4\uc2dc \uc591\ucc9c\uad6c \ubaa9\ub3d9\ub3d9\ub85c 391", "lat": "37.5358738", "lng": "126.8802712"}, {"statNm": "\uc11c\uc6b8 \uce90\ub9ad\ud130\uadf8\ub9b0\ube4c\uad00\ub9ac\ub2e8", "statId": "EP190073", "addr": "\uc11c\uc6b8\ud2b9\ubcc4\uc2dc \uad00\uc545\uad6c \ubcf4\ub77c\ub9e4\ub85c5\uac00\uae38 7", "lat": "37.4918481", "lng": "126.9251744"}, {"statNm": "\uc11c\uc6b8 \uad11\ub9bc\uad50\ud68c", "statId": "EP190075", "addr": "\uc11c\uc6b8\ud2b9\ubcc4\uc2dc \uac15\ub0a8\uad6c \ub17c\ud604\ub85c163\uae38 33", "lat": "37.5238944", "lng": "127.0255799"}, {"statNm": "\ubd80\uc601\uadf8\ub9b0\ud0c0\uc6b41\ucc281(\uc9c0\ud5585\uce35)", "statId": "EP190101", "addr": "\uc11c\uc6b8\ud2b9\ubcc4\uc2dc \uc591\ucc9c\uad6c \ubaa9\ub3d9\ub3d9\ub85c 393", "lat": "37.5361835", "lng": "126.8800535"}, {"statNm": "\ud48d\ub9bc\uc544\uc774\uc6d03\ucc28", "statId": "EP190103", "addr": "\uc11c\uc6b8\ud2b9\ubcc4\uc2dc \uac15\ub0a8\uad6c \uc601\ub3d9\ub300\ub85c72\uae38 10", "lat": "37.504658", "lng": "127.0667903"}, {"statNm": "\uc131\ub3c4\ube4c\ub529", "statId": "EP190107", "addr": "\uc11c\uc6b8\ud2b9\ubcc4\uc2dc \uac15\ub0a8\uad6c \ub3c4\uc0b0\ub300\ub85c 207", "lat": "37.5204265", "lng": "127.0290764"}, {"statNm": "\ub3c4\ubd09 \ub355\uc131\uc5ec\uc790\ub300\ud559\uad50", "statId": "EP190116", "addr": "\uc11c\uc6b8\ud2b9\ubcc4\uc2dc \ub3c4\ubd09\uad6c \uc0bc\uc591\ub85c144\uae38 33", "lat": "37.6495091", "lng": "127.0163952"}, {"statNm": "\uc5ed\uc0bc\uc544\ub974\ub204\ubcf4\uc2dc\ud2f0", "statId": "EP200178", "addr": "\uc11c\uc6b8\ud2b9\ubcc4\uc2dc \uac15\ub0a8\uad6c \uc5b8\uc8fc\ub85c 506", "lat": "37.5034175", "lng": "127.0428583"}, {"statNm": "\uc11c\uc6b8 \ub798\ubbf8\uc548\uc7a5\uc548\uc544\ud30c\ud2b8", "statId": "EP200181", "addr": "\uc11c\uc6b8\ud2b9\ubcc4\uc2dc \ub3d9\ub300\ubb38\uad6c \uc7a5\ud55c\ub85c14\uae38 81", "lat": "37.5668181", "lng": "127.0721803"}, {"statNm": "\uc11c\uc6b8 \uc870\uc740\uc219(\ub80c\ud0c8)", "statId": "EP200211", "addr": "\uc11c\uc6b8\ud2b9\ubcc4\uc2dc \uc740\ud3c9\uad6c \uc751\uc554\ub85c25\uae38 12-7", "lat": "37.5957406", "lng": "126.9171063"}, {"statNm": "\uc11c\uc6b8 \uad11\uc6b4\ub300\ud559\uad50", "statId": "EP200233", "addr": "\uc11c\uc6b8\ud2b9\ubcc4\uc2dc \ub178\uc6d0\uad6c \uad11\uc6b4\ub85c 20", "lat": "37.6193203", "lng": "127.058338"}, {"statNm": "\uc11c\uc6b8 \uc9c4\uad11\uad50\ud68c", "statId": "EP200234", "addr": "\uc11c\uc6b8\ud2b9\ubcc4\uc2dc \uc911\ub791\uad6c \uc0ac\uac00\uc815\ub85c41\uae38 34", "lat": "37.5826433", "lng": "127.0845202"}, {"statNm": "\uc11c\uc6b8 \uc601\ub0a8\uc911\uacf5\uc5c5", "statId": "EP200236", "addr": "\uc11c\uc6b8\ud2b9\ubcc4\uc2dc \uae08\ucc9c\uad6c \uc2dc\ud765\ub300\ub85c153\uae38 26", "lat": "37.4778275", "lng": "126.896922"}, {"statNm": "\uae08\ucc9c\ub86f\ub370\uce90\uc2ac\uace8\ub4dc\ud30c\ud06c2\ucc28\uc624\ud53c\uc2a4\ud154", "statId": "EP200392", "addr": "\uc11c\uc6b8\ud2b9\ubcc4\uc2dc \uae08\ucc9c\uad6c \ubc9a\uaf43\ub85c 30", "lat": "37.4582229", "lng": "126.8937104"}, {"statNm": "\uc11c\uc6b8 \ud3ec\uc2a4\ucf54\ud2b8\uc544\ud30c\ud2b8", "statId": "EP200401", "addr": "\uc11c\uc6b8\ud2b9\ubcc4\uc2dc \uac15\ub0a8\uad6c \ub0a8\ubd80\uc21c\ud658\ub85c381\uae38 15", "lat": "37.4879363", "lng": "127.0476656"}, {"statNm": "\uac74\uc640\ube4c\ub529", "statId": "EP200471", "addr": "\uc11c\uc6b8\ud2b9\ubcc4\uc2dc \uac15\uc11c\uad6c \ub9c8\uace1\ub3d9\ub85c 56", "lat": "37.5599779", "lng": "126.8338034"}, {"statNm": "\uc11c\uc6b8 \uba85\uc9c0\ud398\ub974\ub9c8\ud0c0\uc624\ud53c\uc2a4\ud154", "statId": "EP200473", "addr": "\uc11c\uc6b8\ud2b9\ubcc4\uc2dc \uc601\ub4f1\ud3ec\uad6c \uc120\uc720\uc11c\ub85c 15", "lat": "37.5172062", "lng": "126.8837867"}, {"statNm": "\ubc18\ud3ec\uc790\uc774\uc544\ud30c\ud2b85(112\ub3d9)", "statId": "EP210005", "addr": "\uc11c\uc6b8\ud2b9\ubcc4\uc2dc \uc11c\ucd08\uad6c \uc2e0\ubc18\ud3ec\ub85c 270", "lat": "37.5073684", "lng": "127.0131875"}, {"statNm": "\ub86f\ub370\uce90\uc2ac\ubca0\ub124\uce58\uc5441(104\ub3d9 3\uce35)", "statId": "EP210025", "addr": "\uc11c\uc6b8\ud2b9\ubcc4\uc2dc \uc911\uad6c \uccad\uacc4\ucc9c\ub85c 400", "lat": "37.5708699", "lng": "127.0200245"}, {"statNm": "(\uc8fc)\uc774\uc5d0\uc2a4\uc885\ud569\uac74\uc124", "statId": "EP210042", "addr": "\uc11c\uc6b8\ud2b9\ubcc4\uc2dc \uc591\ucc9c\uad6c \uacf0\ub2ec\ub798\ub85c10\uae38 21-2", "lat": "37.5282363", "lng": "126.837558"}, {"statNm": "\ud55c\uc720\uc5d0\ub108\uc9c0 \uae09\uc18d\ucda9\uc804\uc18c", "statId": "EP210059", "addr": "\uc11c\uc6b8\ud2b9\ubcc4\uc2dc \uad00\uc545\uad6c \ub0a8\ubd80\uc21c\ud658\ub85c 1883", "lat": "37.4790967", "lng": "126.9591691"}, {"statNm": "\ubd80\ub760\ud06c\ubaa8\ub098\ucf54 \uae09\uc18d\ucda9\uc804\uc18c", "statId": "EP210060", "addr": "\uc11c\uc6b8\ud2b9\ubcc4\uc2dc \uc11c\ucd08\uad6c \uc11c\ucd08\ub300\ub85c 397", "lat": "37.4974341", "lng": "127.0245167"}, {"statNm": "\uc11c\uc6b8\uc2e0\ubb38\uc0ac \uae09\uc18d\ucda9\uc804\uc18c", "statId": "EP210068", "addr": "\uc11c\uc6b8\ud2b9\ubcc4\uc2dc \uc911\uad6c \uc138\uc885\ub300\ub85c 124", "lat": "37.5674199", "lng": "126.9778737"}, {"statNm": "\ud558\ub098\uc740\ud589\ubc29\ubc30\uc9c0\uc810 \uae09\uc18d\ucda9\uc804\uc18c", "statId": "EP210070", "addr": "\uc11c\uc6b8\ud2b9\ubcc4\uc2dc \uc11c\ucd08\uad6c \ubc29\ubc30\ub85c 131", "lat": "37.485617", "lng": "126.9943923"}, {"statNm": "\uc815\ub989\ucc9c\ubcf5\uac1c\uc8fc\ucc28\uc7a5(\uad6c)", "statId": "EP210094", "addr": "\uc11c\uc6b8\ud2b9\ubcc4\uc2dc \ub3d9\ub300\ubb38\uad6c \uc815\ub989\ucc9c\ub3d9\ub85c 83", "lat": "37.5797865", "lng": "127.0349611"}, {"statNm": "\uac1c\ud3ec\ub798\ubbf8\uc548\ud3ec\ub808\uc2a4\ud2b81(A\ube14\ub7ed 105\ub3d9 B4F)", "statId": "EP210111", "addr": "\uc11c\uc6b8\ud2b9\ubcc4\uc2dc \uac15\ub0a8\uad6c \uac1c\ud3ec\ub85c 264", "lat": "37.4800746", "lng": "127.0533075"}, {"statNm": "\ub3d9\ub9bc\uc624\ud53c\uc2a4\ud154", "statId": "EP210123", "addr": "\uc11c\uc6b8\ud2b9\ubcc4\uc2dc \uad00\uc545\uad6c \ub0a8\ubd80\uc21c\ud658\ub85c 1924", "lat": "37.4769082", "lng": "126.9628781"}, {"statNm": "\uc6b0\uc131\uce90\ub9ad\ud130199\uc544\ud30c\ud2b8", "statId": "EP210137", "addr": "\uc11c\uc6b8\ud2b9\ubcc4\uc2dc \uac15\ub0a8\uad6c \uc5b8\uc8fc\ub85c 118", "lat": "37.486916", "lng": "127.0518555"}, {"statNm": "\ud504\ub9ac\uc6b0\uc2a4\uc5ed\uc0bc2\ucc28\uc544\ud30c\ud2b8", "statId": "EP210149", "addr": "\uc11c\uc6b8\ud2b9\ubcc4\uc2dc \uac15\ub0a8\uad6c \ud14c\ud5e4\ub780\ub85c13\uae38 31-7", "lat": "37.5013326", "lng": "127.0312852"}, {"statNm": "\ud55c\uac15\ud64d\uc218\ud1b5\uc81c\uc18c", "statId": "EP210165", "addr": "\uc11c\uc6b8\ud2b9\ubcc4\uc2dc \uc11c\ucd08\uad6c \ub3d9\uc791\ub300\ub85c 328", "lat": "37.5038974", "lng": "126.9807784"}, {"statNm": "\uad6d\ub9bd\uc815\uc2e0\uac74\uac15\uc13c\ud130", "statId": "EP210166", "addr": "\uc11c\uc6b8\ud2b9\ubcc4\uc2dc \uad11\uc9c4\uad6c \uc6a9\ub9c8\uc0b0\ub85c 127", "lat": "37.5650127", "lng": "127.0857921"}, {"statNm": "\ub3c5\uc0b0\ub354\ud0c0\uc6cc1", "statId": "EP210171", "addr": "\uc11c\uc6b8\ud2b9\ubcc4\uc2dc \uae08\ucc9c\uad6c \ubc94\uc548\ub85c 1212", "lat": "37.4661206", "lng": "126.8964453"}, {"statNm": "\ub300\ub96d\ud14c\ud06c\ub178\ud0c0\uc6b46\ucc28", "statId": "EP210180", "addr": "\uc11c\uc6b8\ud2b9\ubcc4\uc2dc \uae08\ucc9c\uad6c \uc11c\ubd80\uc0db\uae38 648", "lat": "37.4812045", "lng": "126.8761807"}, {"statNm": "\uc2e0\ub3c4\ub9bc3\ucc28\ub3d9\uc544\uc544\ud30c\ud2b8", "statId": "EP210181", "addr": "\uc11c\uc6b8\ud2b9\ubcc4\uc2dc \uad6c\ub85c\uad6c \uc2e0\ub3c4\ub9bc\ub85c 78", "lat": "37.5099072", "lng": "126.8841809"}, {"statNm": "\uc2e0\uc548\uc544\ud30c\ud2b8", "statId": "EP210187", "addr": "\uc11c\uc6b8\ud2b9\ubcc4\uc2dc \uac15\uc11c\uad6c \uc591\ucc9c\ub85c30\uae38 123-9", "lat": "37.56875643", "lng": "126.8234049"}, {"statNm": "\ub300\ubc29\uc0b0\uc5c5\uac1c\ubc1c", "statId": "EP210201", "addr": "\uc11c\uc6b8\ud2b9\ubcc4\uc2dc \uac15\uc11c\uad6c \uacf5\ud56d\ub300\ub85c 248", "lat": "37.5584039", "lng": "126.8348939"}, {"statNm": "\ub3c4\ub9bc\ud55c\ub77c\uc544\ud30c\ud2b8", "statId": "EP210202", "addr": "\uc11c\uc6b8\ud2b9\ubcc4\uc2dc \uc601\ub4f1\ud3ec\uad6c \ub3c4\uc2e0\ub85c15\ub77c\uae38 5-7", "lat": "37.50785333", "lng": "126.89738203"}, {"statNm": "\uccad\uacc4\ud478\ub974\uc9c0\uc624\uc2dc\ud2f0", "statId": "EP210213", "addr": "\uc11c\uc6b8\ud2b9\ubcc4\uc2dc \ub3d9\ub300\ubb38\uad6c \ucc9c\ud638\ub300\ub85c 257", "lat": "37.5689571", "lng": "127.0505798"}, {"statNm": "\ub300\uccad\ud0c0\uc6cc", "statId": "EP210214", "addr": "\uc11c\uc6b8\ud2b9\ubcc4\uc2dc \uac15\ub0a8\uad6c \uac1c\ud3ec\ub85c 623", "lat": "37.4943412", "lng": "127.0796478"}, {"statNm": "\uc6d4\uacc4\ud55c\uc77c1\ucc28\uc544\ud30c\ud2b8", "statId": "EP210221", "addr": "\uc11c\uc6b8\ud2b9\ubcc4\uc2dc \ub178\uc6d0\uad6c \uc11d\uacc4\ub85c15\uae38 25", "lat": "37.62206287", "lng": "127.0613425"}, {"statNm": "\uc5d0\uc2a4\ucf00\uc774\ube0c\ub85c\ub4dc\ubc34\ub4dc\uc8fc\uc2dd\ud68c\uc0ac(\uc5ec\uc758\ub300\ubc29\ub85c)", "statId": "EP210224", "addr": "\uc11c\uc6b8\ud2b9\ubcc4\uc2dc \ub3d9\uc791\uad6c \uc5ec\uc758\ub300\ubc29\ub85c 74", "lat": "37.49641", "lng": "126.9144902"}, {"statNm": "\uc131\ub3d9\uc0e4\ub974\ub9dd", "statId": "EP210244", "addr": "\uc11c\uc6b8\ud2b9\ubcc4\uc2dc \uc131\ub3d9\uad6c \uace0\uc0b0\uc790\ub85c 284", "lat": "37.5649129", "lng": "127.0367977"}, {"statNm": "\uadf8\ub9b0\ube4c\uc624\ud53c\uc2a4\ud154", "statId": "EP210249", "addr": "\uc11c\uc6b8\ud2b9\ubcc4\uc2dc \uc11c\ucd08\uad6c \ud6a8\ub839\ub85c55\uae38 22", "lat": "37.4857996", "lng": "127.0146937"}, {"statNm": "\uc131\uc2e0\uc5ec\uc790\ub300\ud559\uad50 \ubbf8\uc544\uc6b4\uc815\uadf8\ub9b0\ucea0\ud37c\uc2a4", "statId": "EP210250", "addr": "\uc11c\uc6b8\ud2b9\ubcc4\uc2dc \uac15\ubd81\uad6c \ub3c4\ubd09\ub85c76\uac00\uae38 55", "lat": "37.6322043", "lng": "127.0273476"}, {"statNm": "\ub3d9\ubd80\uc13c\ud2b8\ub808\ube4c", "statId": "EP210255", "addr": "\uc11c\uc6b8\ud2b9\ubcc4\uc2dc \uac15\ub0a8\uad6c \uc120\ub989\ub85c 206", "lat": "37.4927956", "lng": "127.0559061"}, {"statNm": "(\uc8fc)\ud55c\uad6d\uc885\ud569\uae30\uc220", "statId": "EP210264", "addr": "\uc11c\uc6b8\ud2b9\ubcc4\uc2dc \uac15\ub3d9\uad6c \uc0c1\uc77c\ub85c6\uae38 21", "lat": "37.5497419", "lng": "127.1743552"}, {"statNm": "SK\uc5d0\ucf54\ud50c\ub79c\ud2b8", "statId": "EP210268", "addr": "\uc11c\uc6b8\ud2b9\ubcc4\uc2dc \uc885\ub85c\uad6c \uc728\uace1\ub85c2\uae38 19", "lat": "37.5744733", "lng": "126.9810948"}, {"statNm": "\ub178\uc6d0\uc13c\ud2b8\ub7f4\ud478\ub974\uc9c0\uc624", "statId": "EP210271", "addr": "\uc11c\uc6b8\ud2b9\ubcc4\uc2dc \ub178\uc6d0\uad6c \uc218\ub77d\uc0b0\ub85c 12", "lat": "37.664408", "lng": "127.0749693"}, {"statNm": "\uc5ed\uc0bc\ud55c\uc2a4\ube4c\uc544\ud30c\ud2b8", "statId": "EP210272", "addr": "\uc11c\uc6b8\ud2b9\ubcc4\uc2dc \uac15\ub0a8\uad6c \ub3c4\uace1\ub85c3\uae38 26", "lat": "37.491983", "lng": "127.032956"}, {"statNm": "\uc131\uc2e0\uc5ec\uc790\ub300\ud559\uad50 \ub3c8\uc554\uc218\uc815\ucea0\ud37c\uc2a4", "statId": "EP210275", "addr": "\uc11c\uc6b8\ud2b9\ubcc4\uc2dc \uc131\ubd81\uad6c \ubcf4\ubb38\ub85c34\ub2e4\uae38 2", "lat": "37.5916525", "lng": "127.0221456"}, {"statNm": "\uc5d0\uc774\uc2a4\ud14c\ud06c\ub178\ud0c0\uc6cc10\ucc28", "statId": "EP210287", "addr": "\uc11c\uc6b8\ud2b9\ubcc4\uc2dc \uae08\ucc9c\uad6c \uac00\uc0b0\ub514\uc9c0\ud1381\ub85c 196", "lat": "37.4829649", "lng": "126.8812848"}, {"statNm": "\ud55c\uc194\ub85c\uc774\uc820\ud2b8", "statId": "EP210289", "addr": "\uc11c\uc6b8\ud2b9\ubcc4\uc2dc \uad6c\ub85c\uad6c \uac00\ub9c8\uc0b0\ub85c 265", "lat": "37.4961375", "lng": "126.8896672"}, {"statNm": "\uc5ed\uc0bc\ud604\ub300\ubca4\uccd0\ud154", "statId": "EP210291", "addr": "\uc11c\uc6b8\ud2b9\ubcc4\uc2dc \uac15\ub0a8\uad6c \ud14c\ud5e4\ub780\ub85c25\uae38 20", "lat": "37.501631", "lng": "127.0356518"}, {"statNm": "\ucf54\uc624\ub871\ud14c\ud06c\ub178\ubc38\ub9ac", "statId": "EP210295", "addr": "\uc11c\uc6b8\ud2b9\ubcc4\uc2dc \uae08\ucc9c\uad6c \ub514\uc9c0\ud138\ub85c9\uae38 56", "lat": "37.4804026", "lng": "126.8868723"}, {"statNm": "\uba54\uc774\ud50c\uce74\uc6b4\ud2f02\ucc28\uc624\ud53c\uc2a4\ud154", "statId": "EP210298", "addr": "\uc11c\uc6b8\ud2b9\ubcc4\uc2dc \uc740\ud3c9\uad6c \uc9c4\uad002\ub85c 12", "lat": "37.6342576", "lng": "126.918551"}, {"statNm": "\uc601\ud654\uc9c4\ud765\uc704\uc6d0\ud68c", "statId": "EP210306", "addr": "\uc11c\uc6b8\ud2b9\ubcc4\uc2dc \ub9c8\ud3ec\uad6c \uc640\uc6b0\uc0b0\ub85c 143", "lat": "37.5542498", "lng": "126.9289464"}, {"statNm": "\uc81c\uc774\uc6d4\ub4dc\ube4c\uc624\ud53c\uc2a4\ud154", "statId": "EP210307", "addr": "\uc11c\uc6b8\ud2b9\ubcc4\uc2dc \uc591\ucc9c\uad6c \ubaa9\ub3d9\uc11c\ub85c 291", "lat": "37.5216327", "lng": "126.8695435"}, {"statNm": "\uac15\uc77c\ud3ec\ub514\uc6c0\uc624\ud53c\uc2a4\ud154", "statId": "EP210308", "addr": "\uc11c\uc6b8\ud2b9\ubcc4\uc2dc \uac15\ub3d9\uad6c \uc544\ub9ac\uc218\ub85c91\uae38 24-9", "lat": "37.5653777", "lng": "127.1734361"}, {"statNm": "\uae08\ucc9c\ub9ac\uba54\uc778\uc2dc\ud2f0", "statId": "EP210310", "addr": "\uc11c\uc6b8\ud2b9\ubcc4\uc2dc \uae08\ucc9c\uad6c \uc2dc\ud765\ub300\ub85c 224", "lat": "37.4539384", "lng": "126.9013962"}, {"statNm": "\ub2e4\uc2a4\ud558\uc6b0\uc2a4\uc624\ud53c\uc2a4\ud154", "statId": "EP210318", "addr": "\uc11c\uc6b8\ud2b9\ubcc4\uc2dc \ub3d9\ub300\ubb38\uad6c \uc655\uc0b0\ub85c 294", "lat": "37.5863663", "lng": "127.0523889"}, {"statNm": "\ud654\ub791\ud0c0\uc6b4\uc544\ud30c\ud2b82", "statId": "EP210324", "addr": "\uc11c\uc6b8\ud2b9\ubcc4\uc2dc \ub178\uc6d0\uad6c \ud654\ub791\ub85c51\uae38 17", "lat": "37.6230779", "lng": "127.0893658"}, {"statNm": "\uac00\uc591\uae00\ub85c\ubc8c\ud37c\uc2a4\ud2b8", "statId": "EP210329", "addr": "\uc11c\uc6b8\ud2b9\ubcc4\uc2dc \uac15\uc11c\uad6c \ud654\uace1\ub85c72\uae38 62", "lat": "37.5604142", "lng": "126.8588214"}, {"statNm": "\uccad\ub2f4\uc601\ud48d\uc544\ud30c\ud2b8", "statId": "EP210332", "addr": "\uc11c\uc6b8\ud2b9\ubcc4\uc2dc \uac15\ub0a8\uad6c \ud559\ub3d9\ub85c63\uae38 13", "lat": "37.5191598", "lng": "127.0446937"}, {"statNm": "\uc704\ub840\uc544\uc774\ud30c\ud06c\uc544\ud30c\ud2b8", "statId": "EP210338", "addr": "\uc11c\uc6b8\ud2b9\ubcc4\uc2dc \uc1a1\ud30c\uad6c \uc704\ub840\uad11\uc7a5\ub85c 136", "lat": "37.4771944", "lng": "127.1422812"}, {"statNm": "\uba54\uc774\ud50c\uce74\uc6b4\ud2f01\ucc28\uc624\ud53c\uc2a4\ud154", "statId": "EP210339", "addr": "\uc11c\uc6b8\ud2b9\ubcc4\uc2dc \uc740\ud3c9\uad6c \uc9c4\uad001\ub85c 21-39", "lat": "37.6338626", "lng": "126.9185725"}, {"statNm": "\ud558\ub098\uc740\ud589 \uba85\ub3d9\uc0ac\uc625 \uae09\uc18d\ucda9\uc804\uc18c", "statId": "EP210350", "addr": "\uc11c\uc6b8\ud2b9\ubcc4\uc2dc \uc911\uad6c \uc744\uc9c0\ub85c 66", "lat": "37.5651546", "lng": "126.9850107"}, {"statNm": "\uc544\ub09c\ud2f0 \uac15\ub0a8\ud638\ud154 \uae09\uc18d\ucda9\uc804\uc18c", "statId": "EP210353", "addr": "\uc11c\uc6b8\ud2b9\ubcc4\uc2dc \uac15\ub0a8\uad6c \ub17c\ud604\ub85c 730", "lat": "37.5172646", "lng": "127.0295695"}, {"statNm": "\ud558\ub098\uc740\ud589 \uc744\uc9c0\ub85c \uc9c0\uc810 \uae09\uc18d\ucda9\uc804\uc18c", "statId": "EP210355", "addr": "\uc11c\uc6b8\ud2b9\ubcc4\uc2dc \uc911\uad6c \uc744\uc9c0\ub85c 35", "lat": "37.5664918", "lng": "126.9818658"},