[{"statNm": "\uc885\ubb18 \uacf5\uc601\uc8fc\ucc28\uc7a5", "addr": "\uc11c\uc6b8\ud2b9\ubcc4\uc2dc \uc885\ub85c\uad6c \uc885\ub85c 157", "lat": "37.571076", "lng": "126.99588"}, {"statNm": "\uc138\uc885\ub85c \uacf5\uc601\uc8fc\ucc28\uc7a5", "addr": "\uc11c\uc6b8\ud2b9\ubcc4\uc2dc \uc885\ub85c\uad6c \uc138\uc885\ub300\ub85c 189", "lat": "37.573611", "lng": "126.976011"}, {"statNm": "\uadf8\ub79c\ub4dc\uc570\ubc30\uc11c\ub354 \uc11c\uc6b8", "addr": "\uc11c\uc6b8\ud2b9\ubcc4\uc2dc \uc911\uad6c \ub3d9\ud638\ub85c 287", "lat": "37.559352", "lng": "127.002350"}, {"statNm": "\ud55c\uac15\uc9c4\uc5ed \uacf5\uc601\uc8fc\ucc28\uc7a5", "addr": "\uc11c\uc6b8\ud2b9\ubcc4\uc2dc \uc6a9\uc0b0\uad6c \ud55c\ub0a8\ub3d9 \uc0b010-84", "lat": "37.540085", "lng": "127.002804"}, {"statNm": "\ub9c8\uc7a5\ub3d9\uc0ac\ubb34\uc18c \uc55e(\uacf5\uc911\uc804\ud654\ubd80\uc2a4)", "addr": "\uc11c\uc6b8\ud2b9\ubcc4\uc2dc \uc131\ub3d9\uad6c \ub9c8\uc7a5\ub3d9 808", "lat": "37.5660935", "lng": "127.0455256"}, {"statNm": "\uccad\ub7c9\ub9ac\ub86f\ub370\ubc31\ud654\uc810", "addr": "\uc11c\uc6b8\ud2b9\ubcc4\uc2dc \ub3d9\ub300\ubb38\uad6c \uc655\uc0b0\ub85c 214", "lat": "37.580650", "lng": "127.047938"}, {"statNm": "\uc774\ub9c8\ud2b8 \uc774\ubb38\uc810", "addr": "\uc11c\uc6b8\ud2b9\ubcc4\uc2dc \ub3d9\ub300\ubb38\uad6c \uc774\ubb38\ub85c 136", "lat": "37.598454", "lng": "127.061848"}, {"statNm": "\ud648\ud50c\ub7ec\uc2a4 \uc6d4\uace1\uc810", "addr": "\uc11c\uc6b8\ud2b9\ubcc4\uc2dc \uc131\ubd81\uad6c \ud654\ub791\ub85c 76", "lat": "37.60208293", "lng": "127.04002398"}, {"statNm": "\uc131\ubd81\ubca4\ucc98\ube4c\ub529 \uacf5\uc601\uc8fc\ucc28\uc7a5", "addr": "\uc11c\uc6b8\ud2b9\ubcc4\uc2dc \uc131\ubd81\uad6c \uc7a5\uc7042\ub3d9 65-154", "lat": "37.60936", "lng": "127.053263"}, {"statNm": "\ub86f\ub370\ub9c8\ud2b8 \uc0bc\uc591\uc810", "addr": "\uc11c\uc6b8\ud2b9\ubcc4\uc2dc \uac15\ubd81\uad6c \uc0bc\uc591\ub85c 247", "lat": "37.625405", "lng": "127.017897"}, {"statNm": "\uc774\ub9c8\ud2b8 \uc740\ud3c9\uc810", "addr": "\uc11c\uc6b8\ud2b9\ubcc4\uc2dc \uc740\ud3c9\uad6c \uc740\ud3c9\ub85c 111", "lat": "37.60047527", "lng": "126.92047408"}, {"statNm": "\uad6c\ud30c\ubc1c\uc5ed \ud658\uc2b9\uc8fc\ucc28\uc7a5", "addr": "\uc11c\uc6b8\ud2b9\ubcc4\uc2dc \uc740\ud3c9\uad6c \uc9c4\uad00\ub3d9 66-30", "lat": "37.637910", "lng": "126.91910"}, {"statNm": "\ud648\ud50c\ub7ec\uc2a4 \uc6d4\ub4dc\ucef5\uc810", "addr": "\uc11c\uc6b8\ud2b9\ubcc4\uc2dc \ub9c8\ud3ec\uad6c \uc6d4\ub4dc\ucef5\ub85c 240", "lat": "37.566685", "lng": "126.898753"}, {"statNm": "\uc2dc\uc124\uad00\ub9ac\uacf5\ub2e8 \ub9c8\ud3ec\uc720\uc218\uc9c0\uc8fc\ucc28\uc7a5", "addr": "\uc11c\uc6b8\ud2b9\ubcc4\uc2dc \ub9c8\ud3ec\uad6c \ub9c8\ud3ec\ub300\ub85c1\uae38 19", "lat": "37.539442", "lng": "126.943054"}, {"statNm": "\ud648\ud50c\ub7ec\uc2a4 \ubaa9\ub3d9\uc810", "addr": "\uc11c\uc6b8\ud2b9\ubcc4\uc2dc \uc591\ucc9c\uad6c \ubaa9\ub3d9\uc11c\ub85c 170", "lat": "37.52992611", "lng": "126.87364033"}, {"statNm": "\ud574\ub9de\uc774\uacf5\uc601\uc8fc\ucc28\uc7a5", "addr": "\uc11c\uc6b8\ud2b9\ubcc4\uc2dc \uc591\ucc9c\uad6c \uc9c0\uc591\ub85c 47", "lat": "37.520062", "lng": "126.834854"}, {"statNm": "\ud648\ud50c\ub7ec\uc2a4 \uac00\uc591\uc810", "addr": "\uc11c\uc6b8\ud2b9\ubcc4\uc2dc \uac15\uc11c\uad6c \uc591\ucc9c\ub85c 431", "lat": "37.56401856", "lng": "126.85059572"}, {"statNm": "\ub86f\ub370\ub9c8\ud2b8 \uae40\ud3ec\uacf5\ud56d\uc810", "addr": "\uc11c\uc6b8\ud2b9\ubcc4\uc2dc \uac15\uc11c\uad6c \ud558\ub298\uae38 77", "lat": "37.563453", "lng": "126.803539"}, {"statNm": "\uba54\uc774\ud544\ub4dc\ud638\ud154", "addr": "\uc11c\uc6b8\ud2b9\ubcc4\uc2dc \uac15\uc11c\uad6c \ubc29\ud654\ub300\ub85c 94", "lat": "37.546851", "lng": "126.818613"}, {"statNm": "\ucc9c\uc655\uc5ed \ud658\uc2b9\uc8fc\ucc28\uc7a5", "addr": "\uc11c\uc6b8\ud2b9\ubcc4\uc2dc \uad6c\ub85c\uad6c \uc624\ub958\ub3d9 174-10", "lat": "37.487234", "lng": "126.839153"}, {"statNm": "\uad6c\ub85c\ub9ac\uacf5\uc6d0 \uc55e(\uacf5\uc911\uc804\ud654\ubd80\uc2a4)", "addr": "\uc11c\uc6b8\ud2b9\ubcc4\uc2dc \uad6c\ub85c\uad6c \uad6c\ub85c\ub3d9 136-14", "lat": "37.4912466", "lng": "126.8919514"}, {"statNm": "\ud648\ud50c\ub7ec\uc2a4 \uc2dc\ud765\uc810", "addr": "\uc11c\uc6b8\ud2b9\ubcc4\uc2dc \uae08\ucc9c\uad6c \uc2dc\ud765\ub300\ub85c 201", "lat": "37.45222814", "lng": "126.90093936"}, {"statNm": "\uc81c\uc77c\ubaa8\uc9c1\uc544\uc6b8\ub81b \uac74\ub108\ud3b8(\uacf5\uc911\uc804\ud654\ubd80\uc2a4)", "addr": "\uc11c\uc6b8\ud2b9\ubcc4\uc2dc \uae08\ucc9c\uad6c \uac00\uc0b0\ub3d9 239-27", "lat": "37.4744454", "lng": "126.8867302"}, {"statNm": "\uc601\ub4f1\ud3ec\uad6c \ub300\uc2e0\uc2dc\uc7a5(\uacf5\uc911\uc804\ud654\ubd80\uc2a4)", "addr": "\uc11c\uc6b8\ud2b9\ubcc4\uc2dc \uc601\ub4f1\ud3ec\uad6c \uc2e0\uae381\ub3d9 116-15", "lat": "37.5113404", "lng": "126.9176919"}, {"statNm": "\ub3d9\uc791\uc8fc\ucc28\uacf5\uc6d0 \uacf5\uc601\uc8fc\ucc28\uc7a5", "addr": "\uc11c\uc6b8\ud2b9\ubcc4\uc2dc \ub3d9\uc791\uad6c \ud604\ucda9\ub85c 213", "lat": "37.503803", "lng": "126.976775"}, {"statNm": "\uc870\uc6d0\ub3d9 \uc81c1\uacf5\uc601\uc8fc\ucc28\uc7a5", "addr": "\uc11c\uc6b8\ud2b9\ubcc4\uc2dc \uad00\uc545\uad6c \uc2e0\ub9bc\ub3d9 571-6", "lat": "37.481069", "lng": "126.905703"}, {"statNm": "\uc0ac\ub2f9\uc5ed \uacf5\uc601\uc8fc\ucc28\uc7a5", "addr": "\uc11c\uc6b8\ud2b9\ubcc4\uc2dc \uc11c\ucd08\uad6c \uacfc\ucc9c\ub300\ub85c 950-18", "lat": "37.475256", "lng": "126.982638"}, {"statNm": "\uc774\ub9c8\ud2b8 \uc591\uc7ac\uc810", "addr": "\uc11c\uc6b8\ud2b9\ubcc4\uc2dc \uc11c\ucd08\uad6c \ub9e4\ud5cc\ub85c 16", "lat": "37.463293", "lng": "127.036812"}, {"statNm": "\uc218\uc11c\uc5ed \uacf5\uc601\uc8fc\ucc28\uc7a5", "addr": "\uc11c\uc6b8\ud2b9\ubcc4\uc2dc \uac15\ub0a8\uad6c \uc218\uc11c\ub3d9 735", "lat": "37.487569", "lng": "127.101016"}, {"statNm": "\ud559\uc5ec\uc6b8\uc5ed \uacf5\uc601\uc8fc\ucc28\uc7a5", "addr": "\uc11c\uc6b8\ud2b9\ubcc4\uc2dc \uac15\ub0a8\uad6c \ub0a8\ubd80\uc21c\ud658\ub85c 3104", "lat": "37.496722", "lng": "127.070444"}, {"statNm": "\ub86f\ub370\ub9c8\ud2b8 \uc7a0\uc2e4\uc810", "addr": "\uc11c\uc6b8\ud2b9\ubcc4\uc2dc \uc1a1\ud30c\uad6c \uc62c\ub9bc\ud53d\ub85c 240", "lat": "37.511818", "lng": "127.096321"}, {"statNm": "\uc774\ub9c8\ud2b8 \uba85\uc77c\uc810", "addr": "\uc11c\uc6b8\ud2b9\ubcc4\uc2dc \uac15\ub3d9\uad6c \uace0\ub355\ub85c 276", "lat": "37.554606", "lng": "127.155966"}, {"statNm": "\ub178\ubcf4\ud154", "addr": "\uc11c\uc6b8\ud2b9\ubcc4\uc2dc \uac15\ub0a8\uad6c \ubd09\uc740\uc0ac\ub85c 130", "lat": "37.5052721", "lng": "127.0289991"}, {"statNm": "\uc554\uc0ac1\ub3d9 \uacf5\uc601\uc8fc\ucc28\uc7a5", "addr": "\uc11c\uc6b8\ud2b9\ubcc4\uc2dc \uac15\ub3d9\uad6c \uace0\ub355\ub85c28\uae38 36", "lat": "37.5529087", "lng": "127.1372547"}, {"statNm": "\ucc9c\ud638\uc720\uc218\uc9c0 \uacf5\uc601\uc8fc\ucc28\uc7a5", "addr": "\uc11c\uc6b8\ud2b9\ubcc4\uc2dc \uac15\ub3d9\uad6c \uc120\uc0ac\ub85c 70", "lat": "37.5448122", "lng": "127.1218396"}, {"statNm": "\ucc9c\ud6383\ub3d9 \uc81c1\uacf5\uc601\uc8fc\ucc28\uc7a5", "addr": "\uc11c\uc6b8\ud2b9\ubcc4\uc2dc \uac15\ub3d9\uad6c \uc9c4\ud669\ub3c4\ub85c29\uae38 34", "lat": "37.5387951", "lng": "127.1333987"}, {"statNm": "\uac00\ub85c\uacf5\uc6d0\ub85c \uc9c0\ud558\uacf5\uc601\uc8fc\ucc28\uc7a5", "addr": "\uc11c\uc6b8\ud2b9\ubcc4\uc2dc \uac15\uc11c\uad6c \uac00\ub85c\uacf5\uc6d0\ub85c 189", "lat": "37.5372628", "lng": "126.8383789"}, {"statNm": "\uacf0\ub2ec\ub798\ubb38\ud654\ubcf5\uc9c0\uc13c\ud130 \uacf5\uc601\uc8fc\ucc28\uc7a5", "addr": "\uc11c\uc6b8\ud2b9\ubcc4\uc2dc \uac15\uc11c\uad6c \uac15\uc11c\ub85c5\uae38 50", "lat": "37.5289561", "lng": "126.8490887"}, {"statNm": "\ubccf\uace8\uacf5\uc6d0 \uc9c0\ud558\uacf5\uc601\uc8fc\ucc28\uc7a5", "addr": "\uc11c\uc6b8\ud2b9\ubcc4\uc2dc \uac15\uc11c\uad6c \uae4c\uce58\uc0b0\ub85c4\uae38 22", "lat": "37.5419747", "lng": "126.8444499"}, {"statNm": "\ud654\uace16-1 \uacf5\uc601\uc8fc\ucc28\uc7a5", "addr": "\uc11c\uc6b8\ud2b9\ubcc4\uc2dc \uac15\uc11c\uad6c \uc6b0\uc7a5\uc0b0\ub85c 114", "lat": "37.5530457", "lng": "126.8488169"}, {"statNm": "\ud648\ud50c\ub7ec\uc2a4 \uac15\uc11c\uc810", "addr": "\uc11c\uc6b8\ud2b9\ubcc4\uc2dc \uac15\uc11c\uad6c \ud654\uace1\ub85c 398", "lat": "37.5591218", "lng": "126.8549199"}, {"statNm": "\uc2e0\ub9bc\ub3d9 \uc81c1\uacf5\uc601\uc8fc\ucc28\uc7a5", "addr": "\uc11c\uc6b8\ud2b9\ubcc4\uc2dc \uad00\uc545\uad6c \uad00\ucc9c\ub85c 98", "lat": "37.4874046", "lng": "126.9235075"}, {"statNm": "\ub09c\uace1\ub3d9 \uc81c1\uacf5\uc601\uc8fc\ucc28\uc7a5", "addr": "\uc11c\uc6b8\ud2b9\ubcc4\uc2dc \uad00\uc545\uad6c \ub09c\uace1\ub85c34\ub098\uae38 14", "lat": "37.4722977", "lng": "126.9231169"}, {"statNm": "\ub099\uc131\ub300\ub3d9\uc8fc\ubbfc\uc13c\ud130", "addr": "\uc11c\uc6b8\ud2b9\ubcc4\uc2dc \uad00\uc545\uad6c \ub099\uc131\ub300\ub85c4\uac00\uae38 5", "lat": "37.476296", "lng": "126.9583876"}, {"statNm": "\ub099\uc131\ub300\ub3d9\uc8fc\ubbfc\uc13c\ud130", "addr": "\uc11c\uc6b8\ud2b9\ubcc4\uc2dc \uad00\uc545\uad6c \ub099\uc131\ub300\ub85c4\uac00\uae38 5", "lat": "37.476296", "lng": "126.9583876"}, {"statNm": "\ubcf4\ub77c\ub9e4 \uc81c1\uacf5\uc601\uc8fc\ucc28\uc7a5", "addr": "\uc11c\uc6b8\ud2b9\ubcc4\uc2dc \uad00\uc545\uad6c \ubd09\ucc9c\ub85c21\uae38 38", "lat": "37.488301", "lng": "126.9346119"}, {"statNm": "\ubcf4\ub77c\ub9e4 \uc81c1\uacf5\uc601\uc8fc\ucc28\uc7a5", "addr": "\uc785\uad6c\uc88c\uce21, \uc9c0\ud558 \uac01 1\uae30", "lat": "37.488301", "lng": "126.9346119"}, {"statNm": "\uc6d0\uc2e0 \uacf5\uc601\uc8fc\ucc28\uc7a5", "addr": "\uc11c\uc6b8\ud2b9\ubcc4\uc2dc \uad00\uc545\uad6c \uc591\uc9c0\uae38 63", "lat": "37.470038", "lng": "126.9292421"}, {"statNm": "\uc5b4\ub9b0\uc774\ub300\uacf5\uc6d0 \ud6c4\ubb38\uc8fc\ucc28\uc7a5", "addr": "\uc11c\uc6b8\ud2b9\ubcc4\uc2dc \uad11\uc9c4\uad6c \ub2a5\ub3d9\ub85c 216", "lat": "37.5515067", "lng": "127.0869275"}, {"statNm": "\ud648\ud50c\ub7ec\uc2a4 \uc2e0\ub3c4\ub9bc\uc810", "addr": "\uc11c\uc6b8\ud2b9\ubcc4\uc2dc \uad6c\ub85c\uad6c \uacbd\uc778\ub85c 661", "lat": "37.5099693", "lng": "126.888413"}, {"statNm": "\ub86f\ub370\ub9c8\ud2b8 \uc911\uacc4\uc810", "addr": "\uc11c\uc6b8\ud2b9\ubcc4\uc2dc \ub178\uc6d0\uad6c \ub178\uc6d0\ub85c 330", "lat": "37.6466673", "lng": "127.0715514"}, {"statNm": "\ud648\ud50c\ub7ec\uc2a4 \uc911\uacc4\uc810", "addr": "\uc11c\uc6b8\ud2b9\ubcc4\uc2dc \ub178\uc6d0\uad6c \ub3d9\uc77c\ub85c204\uac00\uae38 12", "lat": "37.6400856", "lng": "127.0685413"}, {"statNm": "\uc2e4\uc99d\uc6a9 Mock-up \uc8fc\ud0dd \ud64d\ubcf4\uad00", "addr": "\uc11c\uc6b8\ud2b9\ubcc4\uc2dc \ub178\uc6d0\uad6c \ud558\uacc4\ub3d9 251-8", "lat": "37.6381803", "lng": "127.0737876"}, {"statNm": "\uc2e4\uc99d\uc6a9 Mock-up \uc8fc\ud0dd \ud64d\ubcf4\uad00", "addr": "\uc11c\uc6b8\ud2b9\ubcc4\uc2dc \ub178\uc6d0\uad6c \ud558\uacc4\ub3d9 251-8", "lat": "37.6381803", "lng": "127.0737876"}, {"statNm": "\ub3d9\ub300\ubb38\uad6c\uccad", "addr": "\uc11c\uc6b8\ud2b9\ubcc4\uc2dc \ub3d9\ub300\ubb38\uad6c \ucc9c\ud638\ub300\ub85c 145", "lat": "37.5746807", "lng": "127.0401814"}, {"statNm": "\uc911\uc559\ub300\ud559\uad50\ubcd1\uc6d0 \ub2e4\uc815\uad00 \uc8fc\ucc28\uc7a5", "addr": "\uc11c\uc6b8\ud2b9\ubcc4\uc2dc \ub3d9\uc791\uad6c \ud751\uc11d\ub85c 102", "lat": "37.5055471", "lng": "126.9607195"}, {"statNm": "\uc591\ud654\uc9c4\uacf5\uc601\uc8fc\ucc28\uc7a5", "addr": "\uc11c\uc6b8\ud2b9\ubcc4\uc2dc \ub9c8\ud3ec\uad6c \ud1a0\uc815\ub85c 2", "lat": "37.5457992", "lng": "126.9117265"}, {"statNm": "\uacf5\ub3551-1\uacf5\uc601\uc8fc\ucc28\uc7a5", "addr": "\uc625\uc0c1", "lat": "37.5471234", "lng": "126.9612454"}, {"statNm": "\ud64d\uc81c\uacac\uc778\ucc28\ub7c9\ubcf4\uad00\uc18c \uc8fc\ucc28\uc7a5", "addr": "\uc11c\uc6b8\ud2b9\ubcc4\uc2dc \uc11c\ub300\ubb38\uad6c \ud64d\uc81c\ub0b4\uae38 227", "lat": "37.5905929", "lng": "126.9407564"}, {"statNm": "\ud64d\uc81c\uacac\uc778\ucc28\ub7c9\ubcf4\uad00\uc18c \uc8fc\ucc28\uc7a5", "addr": "\uc11c\uc6b8\ud2b9\ubcc4\uc2dc \uc11c\ub300\ubb38\uad6c \ud64d\uc81c\ub0b4\uae38 227", "lat": "37.5905929", "lng": "126.9407564"}, {"statNm": "\uc11c\uc6b8\uc2dc\uc778\uc7ac\uac1c\ubc1c\uc6d0", "addr": "\uc11c\uc6b8\ud2b9\ubcc4\uc2dc \uc11c\ucd08\uad6c \ub0a8\ubd80\uc21c\ud658\ub85c 340\uae38 58", "lat": "37.481369", "lng": "127.0238502"}, {"statNm": "\uc11c\uc6b8\ucd94\ubaa8\uacf5\uc6d0", "addr": "\uc11c\uc6b8\ud2b9\ubcc4\uc2dc \uc11c\ucd08\uad6c \uc591\uc7ac\ub300\ub85c12\uae38 74", "lat": "37.4536062", "lng": "127.0428005"}, {"statNm": "\uc544\uc2dc\uc544\uacf5\uc6d0 \uacf5\uc601\uc8fc\ucc28\uc7a5", "addr": "\uc11c\uc6b8\ud2b9\ubcc4\uc2dc \uc1a1\ud30c\uad6c \uc7a0\uc2e4\ub3d9 84", "lat": "37.5102969", "lng": "127.0788121"}, {"statNm": "\uc544\uc2dc\uc544\uacf5\uc6d0 \uacf5\uc601\uc8fc\ucc28\uc7a5", "addr": "\uc11c\uc6b8\ud2b9\ubcc4\uc2dc \uc1a1\ud30c\uad6c \uc7a0\uc2e4\ub3d9 84", "lat": "37.5102969", "lng": "127.0788121"}, {"statNm": "\uc544\uc2dc\uc544\uacf5\uc6d0 \uacf5\uc601\uc8fc\ucc28\uc7a5", "addr": "\uc11c\uc6b8\ud2b9\ubcc4\uc2dc \uc1a1\ud30c\uad6c \uc7a0\uc2e4\ub3d9 84", "lat": "37.5102969", "lng": "127.0788121"}, {"statNm": "\ub86f\ub370\ub9c8\ud2b8 \uc1a1\ud30c\uc810", "addr": "\uc11c\uc6b8\ud2b9\ubcc4\uc2dc \uc1a1\ud30c\uad6c \uc911\ub300\ub85c 80", "lat": "37.4918392", "lng": "127.1178931"}, {"statNm": "\ud648\ud50c\ub7ec\uc2a4 \uc601\ub4f1\ud3ec\uc810", "addr": "\uc11c\uc6b8\ud2b9\ubcc4\uc2dc \uc601\ub4f1\ud3ec\uad6c \ub2f9\uc0b0\ub85c 42", "lat": "37.5190208", "lng": "126.8957999"}, {"statNm": "\uc2e0\uae386\ub3d9 \uacf5\uc601\ub178\uc678\uc8fc\ucc28\uc7a5(\uad6c \uc2e0\uae38 \uc81c5\ub3d9 \uc8fc\ubbfc\uc13c\ud130)", "addr": "\uc11c\uc6b8\ud2b9\ubcc4\uc2dc \uc601\ub4f1\ud3ec\uad6c \uc2e0\uae38\ub3d9 3203", "lat": "37.502512989", "lng": "126.9110497"}, {"statNm": "\uc2e0\uae384\ub3d91\ub9c8\uc744\uacf5\uc6d0 \uacf5\uc601\uc8fc\ucc28\uc7a5", "addr": "\uc11c\uc6b8\ud2b9\ubcc4\uc2dc \uc601\ub4f1\ud3ec\uad6c \uc2e0\uae38\ub85c40\uae38 5", "lat": "37.507122", "lng": "126.9116817"}, {"statNm": "\ub2f9\uc0b0\uc5d0\uc2a4\uc5d0\uc774\uce58\ube4c \uc544\ud30c\ud2b8 \uc55e", "addr": "\uc11c\uc6b8\ud2b9\ubcc4\uc2dc \uc601\ub4f1\ud3ec\uad6c \uc601\uc2e0\ub85c 183", "lat": "37.524217", "lng": "126.9019801"}, {"statNm": "\uc601\ub4f1\ud3ec \uc81c3\uacf5\uc601", "addr": "\uc11c\uc6b8\ud2b9\ubcc4\uc2dc \uc601\ub4f1\ud3ec\uad6c \uc601\uc911\ub85c3\uae38 7", "lat": "37.5180087", "lng": "126.9030865"}, {"statNm": "\uc2e0\ucc3d\ub3d9 \uacf5\uc601\uc8fc\ucc28\uc7a5", "addr": "\uc11c\uc6b8\ud2b9\ubcc4\uc2dc \uc6a9\uc0b0\uad6c \uc6d0\ud6a8\ub85c35\uae38 53", "lat": "37.5353568", "lng": "126.9552587"}, {"statNm": "\ud55c\ub0a8\ub3d9 \uacf5\uc601\uc8fc\ucc28\uc7a5", "addr": "\uc11c\uc6b8\ud2b9\ubcc4\uc2dc \uc6a9\uc0b0\uad6c \uc774\ud0dc\uc6d0\ub85c 224-19", "lat": "37.5349284", "lng": "127.0002489"}, {"statNm": "\ud604\ub300\uc790\ub3d9\ucc28 \uc218\uc0c9\ub300\ub9ac\uc810", "addr": "\uc11c\uc6b8\ud2b9\ubcc4\uc2dc \uc740\ud3c9\uad6c \uc218\uc0c9\ub85c 342-1", "lat": "37.5867665", "lng": "126.8880299"}, {"statNm": "\uc740\ud3c9\uad6c\ubbfc\uccb4\uc721\uc13c\ud130", "addr": "\uc11c\uc6b8\ud2b9\ubcc4\uc2dc \uc740\ud3c9\uad6c \uc9c4\uad001\ub85c 40", "lat": "37.6310603", "lng": "126.9246413"}, {"statNm": "\ud0dc\ud654\ube4c\ub529", "addr": "\uc11c\uc6b8\ud2b9\ubcc4\uc2dc \uc885\ub85c\uad6c \uc778\uc0ac\ub3d95\uae38 29", "lat": "37.5718148", "lng": "126.9850443"}, {"statNm": "\ud55c\uad6d\uc608\uc220\uc885\ud569\ud559\uad50(\uc885\ub85c)", "addr": "\uc11c\uc6b8\ud2b9\ubcc4\uc2dc \uc885\ub85c\uad6c \ucc3d\uacbd\uad81\ub85c 215", "lat": "37.5824318", "lng": "126.9974047"}, {"statNm": "\uad6d\ub9bd\uadf9\uc7a5", "addr": "\uad6d\ub9bd\uadf9\uc7a5 \uc88c\uce21 \ucd9c\uad6c \uc8fc\ucc28\uc7a5", "lat": "37.5517908", "lng": "127.0002167"}, {"statNm": "\uad6d\ub9bd\uadf9\uc7a5", "addr": "\uad6d\ub9bd\uadf9\uc7a5 \uc88c\uce21 \ucd9c\uad6c \uc8fc\ucc28\uc7a5", "lat": "37.5517908", "lng": "127.0002167"}, {"statNm": "\ud648\ud50c\ub7ec\uc2a4 \uc0c1\ubd09\uc810", "addr": "\uc11c\uc6b8\ud2b9\ubcc4\uc2dc \uc911\ub791\uad6c \ub9dd\uc6b0\ub85c 353", "lat": "37.5983156", "lng": "127.0905669"}, {"statNm": "\ud648\ud50c\ub7ec\uc2a4 \uc2e0\ub0b4\uc810", "addr": "\uc11c\uc6b8\ud2b9\ubcc4\uc2dc \uc911\ub791\uad6c \uc2e0\ub0b4\ub85c 201", "lat": "37.6159847", "lng": "127.0939656"}, {"statNm": "\uc6a9\ub9c8\ud3ed\ud3ec\uacf5\uc6d0 \uacf5\uc601\uc8fc\ucc28\uc7a5", "addr": "\uc11c\uc6b8\ud2b9\ubcc4\uc2dc \uc911\ub791\uad6c \uc6a9\ub9c8\uc0b0\ub85c 250-12", "lat": "37.5745068", "lng": "127.089592"}, {"statNm": "\uc11c\uc6b8\ub9cc\ub0a8\ud734\uac8c\uc18c(\ubd80\uc0b0\ubc29\ud5a5)", "addr": "\uc11c\uc6b8\ud2b9\ubcc4\uc2dc \uc11c\ucd08\uad6c \uc591\uc7ac\ub300\ub85c12\uae38 73-71 (\uc6d0\uc9c0\ub3d9)", "lat": "37.4600218", "lng": "127.0420378"}, {"statNm": "\uc11c\uc6b8\ub9cc\ub0a8\ud734\uac8c\uc18c(\ubd80\uc0b0\ubc29\ud5a5)", "addr": "\uc11c\uc6b8\ud2b9\ubcc4\uc2dc \uc11c\ucd08\uad6c \uc591\uc7ac\ub300\ub85c12\uae38 73-71 (\uc6d0\uc9c0\ub3d9)", "lat": "37.4600218", "lng": "127.0420378"}, {"statNm": "\ud30c\ud06c\ud558\uc58f\ud2b8\uc11c\uc6b8\ud638\ud154", "addr": "\uc11c\uc6b8\ud2b9\ubcc4\uc2dc \uac15\ub0a8\uad6c \ud14c\ud5e4\ub780\ub85c606", "lat": "37.508834", "lng": "127.064114"}, {"statNm": "\uc2a4\uc704\uc2a4\uadf8\ub79c\ub4dc\ud638\ud154(\uad6c \uadf8\ub79c\ub4dc\ud790\ud2bc\ud638\ud154)", "addr": "\uc11c\uc6b8\ud2b9\ubcc4\uc2dc \uc11c\ub300\ubb38\uad6c \uc5f0\ud76c\ub85c 353", "lat": "37.590003", "lng": "126.934744"}, {"statNm": "\ub86f\ub370 VIC\ub9c8\ucf13 \uae08\ucc9c\uc810", "addr": "null", "lat": "37.470581", "lng": "126.895698"}, {"statNm": "\ub86f\ub370 VIC\ub9c8\ucf13 \uae08\ucc9c\uc810", "addr": "null", "lat": "37.470581", "lng": "126.895698"}, {"statNm": "\uc6b0\ub9ac\uc740\ud589\ubcf8\uc810", "addr": "\uc11c\uc6b8\ud2b9\ubcc4\uc2dc \uc911\uad6c \uc18c\uacf5\ub85c 51\ubc88\uc9c0", "lat": "37.559534", "lng": "126.981817"}, {"statNm": "\uc6b0\ub9ac\uc740\ud589\ubcf8\uc810", "addr": "\uc11c\uc6b8\ud2b9\ubcc4\uc2dc \uc911\uad6c \uc18c\uacf5\ub85c 51\ubc88\uc9c0", "lat": "37.559534", "lng": "126.981817"}, {"statNm": "\ub9c8\uace1\ub808\ud3ec\uce20\uc13c\ud130", "addr": "\uc11c\uc6b8\ud2b9\ubcc4\uc2dc \uac15\uc11c\uad6c \uc591\ucc9c\ub85c 251, \uc785\uad6c \uc6b0\uce21", "lat": "37.5728411", "lng": "126.8323738"}, {"statNm": "\ucc3d2\ub3d9 \uc81c4\uacf5\uc601\uc8fc\ucc28\uc7a5", "addr": "\uc11c\uc6b8\ud2b9\ubcc4\uc2dc \ub3c4\ubd09\uad6c \ucc3d2\ub3d9 582-22", "lat": "37.6413031", "lng": "127.0364035"}, {"statNm": "\ucc3d3\ub3d9 \uc81c1\uacf5\uc601\uc8fc\ucc28\uc7a5", "addr": "\uc11c\uc6b8\ud2b9\ubcc4\uc2dc \ub3c4\ubd09\uad6c \ucc3d3\ub3d9 504-21, \uc88c\uce21 \uc548\ucabd", "lat": "37.6332558", "lng": "127.0412125"}, {"statNm": "\ucc3d\ucc9c\uacf5\uc601\uc8fc\ucc28\uc7a5", "addr": "\uc11c\uc6b8\ud2b9\ubcc4\uc2dc \ub9c8\ud3ec\uad6c \ub178\uace0\uc0b0\ub3d9 33-1, B3 28", "lat": "37.55493", "lng": "126.9389738"}, {"statNm": "\ubc88\ub3d9\ud587\uc0b4 \uacf5\uc601\uc8fc\ucc28\uc7a5", "addr": "\uc11c\uc6b8\ud2b9\ubcc4\uc2dc \uac15\ubd81\uad6c \uc624\ud604\ub85c 21\uae38 84, \uc625\uc0c1 \uc8fc\ucc28\uc7a5", "lat": "37.6249449", "lng": "127.0334805"}, {"statNm": "\ub09c\ud5a5\ub3d9 \uc8fc\ubbfc\uc13c\ud130", "addr": "\uc11c\uc6b8\ud2b9\ubcc4\uc2dc \uad00\uc545\uad6c \ub09c\uace1\ub85c 67", "lat": "37.4616153", "lng": "126.9189711"}, {"statNm": "\uc2dc\ud765\uc81c4\ub3d9\uacf5\uc601\uc8fc\ucc28\uc7a5", "addr": "\uc11c\uc6b8\ud2b9\ubcc4\uc2dc \uae08\ucc9c\uad6c \ub3c5\uc0b0\ub85c 36\ub098\uae38 21, B1 18", "lat": "37.4589664", "lng": "126.9084827"}, {"statNm": "\uc30d\ubb383\ub3d9 \uc81c2\uacf5\uc601\uc8fc\ucc28\uc7a5", "addr": "\uc11c\uc6b8\ud2b9\ubcc4\uc2dc \ub3c4\ubd09\uad6c \uc30d\ubb383\ub3d9 315-62, \uc9c0\ud558 1\uce35 \uc548\ucabd", "lat": "37.6493531", "lng": "127.0293841"}, {"statNm": "\uc2a4\ud0e0\ud3ec\ub4dc\ud638\ud154\ucf54\ub9ac\uc544", "addr": "\uc11c\uc6b8\ud2b9\ubcc4\uc2dc \ub9c8\ud3ec\uad6c \uc0c1\uc554\ub3d9 \uc6d4\ub4dc\ucef5\ubd81\ub85c 58\uae38 15, \uc9c0\ud5584\uce35 18", "lat": "37.5823581", "lng": "126.886648"}, {"statNm": "\uc885\ubb18 \uacf5\uc601\uc8fc\ucc28\uc7a5", "addr": "\uc11c\uc6b8\ud2b9\ubcc4\uc2dc \uc885\ub85c\uad6c \uc885\ub85c 157", "lat": "37.571076", "lng": "126.99588"}, {"statNm": "\uc138\uc885\ub85c \uacf5\uc601\uc8fc\ucc28\uc7a5", "addr": "\uc11c\uc6b8\ud2b9\ubcc4\uc2dc \uc885\ub85c\uad6c \uc138\uc885\ub300\ub85c 189", "lat": "37.573611", "lng": "126.976011"}, {"statNm": "\uadf8\ub79c\ub4dc\uc570\ubc30\uc11c\ub354 \uc11c\uc6b8", "addr": "\uc11c\uc6b8\ud2b9\ubcc4\uc2dc \uc911\uad6c \ub3d9\ud638\ub85c 287", "lat": "37.559352", "lng": "127.002350"}, {"statNm": "\ud55c\uac15\uc9c4\uc5ed \uacf5\uc601\uc8fc\ucc28\uc7a5", "addr": "\uc11c\uc6b8\ud2b9\ubcc4\uc2dc \uc6a9\uc0b0\uad6c \ud55c\ub0a8\ub3d9 \uc0b010-84", "lat": "37.540085", "lng": "127.002804"}, {"statNm": "\ub9c8\uc7a5\ub3d9\uc0ac\ubb34\uc18c \uc55e(\uacf5\uc911\uc804\ud654\ubd80\uc2a4)", "addr": "\uc11c\uc6b8\ud2b9\ubcc4\uc2dc \uc131\ub3d9\uad6c \ub9c8\uc7a5\ub3d9 808", "lat": "37.5660935", "lng": "127.0455256"}, {"statNm": "\uccad\ub7c9\ub9ac\ub86f\ub370\ubc31\ud654\uc810", "addr": "\uc11c\uc6b8\ud2b9\ubcc4\uc2dc \ub3d9\ub300\ubb38\uad6c \uc655\uc0b0\ub85c 214", "lat": "37.580650", "lng": "127.047938"}, {"statNm": "\uc774\ub9c8\ud2b8 \uc774\ubb38\uc810", "addr": "\uc11c\uc6b8\ud2b9\ubcc4\uc2dc \ub3d9\ub300\ubb38\uad6c \uc774\ubb38\ub85c 136", "lat": "37.598454", "lng": "127.061848"}, {"statNm": "\ud648\ud50c\ub7ec\uc2a4 \uc6d4\uace1\uc810", "addr": "\uc11c\uc6b8\ud2b9\ubcc4\uc2dc \uc131\ubd81\uad6c \ud654\ub791\ub85c 76", "lat": "37.60208293", "lng": "127.04002398"}, {"statNm": "\uc131\ubd81\ubca4\ucc98\ube4c\ub529 \uacf5\uc601\uc8fc\ucc28\uc7a5", "addr": "\uc11c\uc6b8\ud2b9\ubcc4\uc2dc \uc131\ubd81\uad6c \uc7a5\uc7042\ub3d9 65-154", "lat": "37.60936", "lng": "127.053263"}, {"statNm": "\ub86f\ub370\ub9c8\ud2b8 \uc0bc\uc591\uc810", "addr": "\uc11c\uc6b8\ud2b9\ubcc4\uc2dc \uac15\ubd81\uad6c \uc0bc\uc591\ub85c 247", "lat": "37.625405", "lng": "127.017897"}, {"statNm": "\uc774\ub9c8\ud2b8 \uc740\ud3c9\uc810", "addr": "\uc11c\uc6b8\ud2b9\ubcc4\uc2dc \uc740\ud3c9\uad6c \uc740\ud3c9\ub85c 111", "lat": "37.60047527", "lng": "126.92047408"}, {"statNm": "\uad6c\ud30c\ubc1c\uc5ed \ud658\uc2b9\uc8fc\ucc28\uc7a5", "addr": "\uc11c\uc6b8\ud2b9\ubcc4\uc2dc \uc740\ud3c9\uad6c \uc9c4\uad00\ub3d9 66-30", "lat": "37.637910", "lng": "126.91910"}, {"statNm": "\ud648\ud50c\ub7ec\uc2a4 \uc6d4\ub4dc\ucef5\uc810", "addr": "\uc11c\uc6b8\ud2b9\ubcc4\uc2dc \ub9c8\ud3ec\uad6c \uc6d4\ub4dc\ucef5\ub85c 240", "lat": "37.566685", "lng": "126.898753"}, {"statNm": "\uc2dc\uc124\uad00\ub9ac\uacf5\ub2e8 \ub9c8\ud3ec\uc720\uc218\uc9c0\uc8fc\ucc28\uc7a5", "addr": "\uc11c\uc6b8\ud2b9\ubcc4\uc2dc \ub9c8\ud3ec\uad6c \ub9c8\ud3ec\ub300\ub85c1\uae38 19", "lat": "37.539442", "lng": "126.943054"}, {"statNm": "\ud648\ud50c\ub7ec\uc2a4 \ubaa9\ub3d9\uc810", "addr": "\uc11c\uc6b8\ud2b9\ubcc4\uc2dc \uc591\ucc9c\uad6c \ubaa9\ub3d9\uc11c\ub85c 170", "lat": "37.52992611", "lng": "126.87364033"}, {"statNm": "\ud574\ub9de\uc774\uacf5\uc601\uc8fc\ucc28\uc7a5", "addr": "\uc11c\uc6b8\ud2b9\ubcc4\uc2dc \uc591\ucc9c\uad6c \uc9c0\uc591\ub85c 47", "lat": "37.520062", "lng": "126.834854"}, {"statNm": "\ud648\ud50c\ub7ec\uc2a4 \uac00\uc591\uc810", "addr": "\uc11c\uc6b8\ud2b9\ubcc4\uc2dc \uac15\uc11c\uad6c \uc591\ucc9c\ub85c 431", "lat": "37.56401856", "lng": "126.85059572"}, {"statNm": "\ub86f\ub370\ub9c8\ud2b8 \uae40\ud3ec\uacf5\ud56d\uc810", "addr": "\uc11c\uc6b8\ud2b9\ubcc4\uc2dc \uac15\uc11c\uad6c \ud558\ub298\uae38 77", "lat": "37.563453", "lng": "126.803539"}, {"statNm": "\uba54\uc774\ud544\ub4dc\ud638\ud154", "addr": "\uc11c\uc6b8\ud2b9\ubcc4\uc2dc \uac15\uc11c\uad6c \ubc29\ud654\ub300\ub85c 94", "lat": "37.546851", "lng": "126.818613"}, {"statNm": "\ucc9c\uc655\uc5ed \ud658\uc2b9\uc8fc\ucc28\uc7a5", "addr": "\uc11c\uc6b8\ud2b9\ubcc4\uc2dc \uad6c\ub85c\uad6c \uc624\ub958\ub3d9 174-10", "lat": "37.487234", "lng": "126.839153"}, {"statNm": "\uad6c\ub85c\ub9ac\uacf5\uc6d0 \uc55e(\uacf5\uc911\uc804\ud654\ubd80\uc2a4)", "addr": "\uc11c\uc6b8\ud2b9\ubcc4\uc2dc \uad6c\ub85c\uad6c \uad6c\ub85c\ub3d9 136-14", "lat": "37.4912466", "lng": "126.8919514"}, {"statNm": "\ud648\ud50c\ub7ec\uc2a4 \uc2dc\ud765\uc810", "addr": "\uc11c\uc6b8\ud2b9\ubcc4\uc2dc \uae08\ucc9c\uad6c \uc2dc\ud765\ub300\ub85c 201", "lat": "37.45222814", "lng": "126.90093936"}, {"statNm": "\uc81c\uc77c\ubaa8\uc9c1\uc544\uc6b8\ub81b \uac74\ub108\ud3b8(\uacf5\uc911\uc804\ud654\ubd80\uc2a4)", "addr": "\uc11c\uc6b8\ud2b9\ubcc4\uc2dc \uae08\ucc9c\uad6c \uac00\uc0b0\ub3d9 239-27", "lat": "37.4744454", "lng": "126.8867302"}, {"statNm": "\uc601\ub4f1\ud3ec\uad6c \ub300\uc2e0\uc2dc\uc7a5(\uacf5\uc911\uc804\ud654\ubd80\uc2a4)", "addr": "\uc11c\uc6b8\ud2b9\ubcc4\uc2dc \uc601\ub4f1\ud3ec\uad6c \uc2e0\uae381\ub3d9 116-15", "lat": "37.5113404", "lng": "126.9176919"}, {"statNm": "\ub3d9\uc791\uc8fc\ucc28\uacf5\uc6d0 \uacf5\uc601\uc8fc\ucc28\uc7a5", "addr": "\uc11c\uc6b8\ud2b9\ubcc4\uc2dc \ub3d9\uc791\uad6c \ud604\ucda9\ub85c 213", "lat": "37.503803", "lng": "126.976775"}, {"statNm": "\uc870\uc6d0\ub3d9 \uc81c1\uacf5\uc601\uc8fc\ucc28\uc7a5", "addr": "\uc11c\uc6b8\ud2b9\ubcc4\uc2dc \uad00\uc545\uad6c \uc2e0\ub9bc\ub3d9 571-6", "lat": "37.481069", "lng": "126.905703"}, {"statNm": "\uc0ac\ub2f9\uc5ed \uacf5\uc601\uc8fc\ucc28\uc7a5", "addr": "\uc11c\uc6b8\ud2b9\ubcc4\uc2dc \uc11c\ucd08\uad6c \uacfc\ucc9c\ub300\ub85c 950-18", "lat": "37.475256", "lng": "126.982638"}, {"statNm": "\uc774\ub9c8\ud2b8 \uc591\uc7ac\uc810", "addr": "\uc11c\uc6b8\ud2b9\ubcc4\uc2dc \uc11c\ucd08\uad6c \ub9e4\ud5cc\ub85c 16", "lat": "37.463293", "lng": "127.036812"}, {"statNm": "\uc218\uc11c\uc5ed \uacf5\uc601\uc8fc\ucc28\uc7a5", "addr": "\uc11c\uc6b8\ud2b9\ubcc4\uc2dc \uac15\ub0a8\uad6c \uc218\uc11c\ub3d9 735", "lat": "37.487569", "lng": "127.101016"}, {"statNm": "\ud559\uc5ec\uc6b8\uc5ed \uacf5\uc601\uc8fc\ucc28\uc7a5", "addr": "\uc11c\uc6b8\ud2b9\ubcc4\uc2dc \uac15\ub0a8\uad6c \ub0a8\ubd80\uc21c\ud658\ub85c 3104", "lat": "37.496722", "lng": "127.070444"}, {"statNm": "\ub86f\ub370\ub9c8\ud2b8 \uc7a0\uc2e4\uc810", "addr": "\uc11c\uc6b8\ud2b9\ubcc4\uc2dc \uc1a1\ud30c\uad6c \uc62c\ub9bc\ud53d\ub85c 240", "lat": "37.511818", "lng": "127.096321"}, {"statNm": "\uc774\ub9c8\ud2b8 \uba85\uc77c\uc810", "addr": "\uc11c\uc6b8\ud2b9\ubcc4\uc2dc \uac15\ub3d9\uad6c \uace0\ub355\ub85c 276", "lat": "37.554606", "lng": "127.155966"}, {"statNm": "\ub178\ubcf4\ud154", "addr": "\uc11c\uc6b8\ud2b9\ubcc4\uc2dc \uac15\ub0a8\uad6c \ubd09\uc740\uc0ac\ub85c 130", "lat": "37.5052721", "lng": "127.0289991"}, {"statNm": "\uc554\uc0ac1\ub3d9 \uacf5\uc601\uc8fc\ucc28\uc7a5", "addr": "\uc11c\uc6b8\ud2b9\ubcc4\uc2dc \uac15\ub3d9\uad6c \uace0\ub355\ub85c28\uae38 36", "lat": "37.5529087", "lng": "127.1372547"}, {"statNm": "\ucc9c\ud638\uc720\uc218\uc9c0 \uacf5\uc601\uc8fc\ucc28\uc7a5", "addr": "\uc11c\uc6b8\ud2b9\ubcc4\uc2dc \uac15\ub3d9\uad6c \uc120\uc0ac\ub85c 70", "lat": "37.5448122", "lng": "127.1218396"}, {"statNm": "\ucc9c\ud6383\ub3d9 \uc81c1\uacf5\uc601\uc8fc\ucc28\uc7a5", "addr": "\uc11c\uc6b8\ud2b9\ubcc4\uc2dc \uac15\ub3d9\uad6c \uc9c4\ud669\ub3c4\ub85c29\uae38 34", "lat": "37.5387951", "lng": "127.1333987"}, {"statNm": "\uac00\ub85c\uacf5\uc6d0\ub85c \uc9c0\ud558\uacf5\uc601\uc8fc\ucc28\uc7a5", "addr": "\uc11c\uc6b8\ud2b9\ubcc4\uc2dc \uac15\uc11c\uad6c \uac00\ub85c\uacf5\uc6d0\ub85c 189", "lat": "37.5372628", "lng": "126.8383789"}, {"statNm": "\uacf0\ub2ec\ub798\ubb38\ud654\ubcf5\uc9c0\uc13c\ud130 \uacf5\uc601\uc8fc\ucc28\uc7a5", "addr": "\uc11c\uc6b8\ud2b9\ubcc4\uc2dc \uac15\uc11c\uad6c \uac15\uc11c\ub85c5\uae38 50", "lat": "37.5289561", "lng": "126.8490887"}, {"statNm": "\ubccf\uace8\uacf5\uc6d0 \uc9c0\ud558\uacf5\uc601\uc8fc\ucc28\uc7a5", "addr": "\uc11c\uc6b8\ud2b9\ubcc4\uc2dc \uac15\uc11c\uad6c \uae4c\uce58\uc0b0\ub85c4\uae38 22", "lat": "37.5419747", "lng": "126.8444499"}, {"statNm": "\ud654\uace16-1 \uacf5\uc601\uc8fc\ucc28\uc7a5", "addr": "\uc11c\uc6b8\ud2b9\ubcc4\uc2dc \uac15\uc11c\uad6c \uc6b0\uc7a5\uc0b0\ub85c 114", "lat": "37.5530457", "lng": "126.8488169"}, {"statNm": "\ud648\ud50c\ub7ec\uc2a4 \uac15\uc11c\uc810", "addr": "\uc11c\uc6b8\ud2b9\ubcc4\uc2dc \uac15\uc11c\uad6c \ud654\uace1\ub85c 398", "lat": "37.5591218", "lng": "126.8549199"}, {"statNm": "\uc2e0\ub9bc\ub3d9 \uc81c1\uacf5\uc601\uc8fc\ucc28\uc7a5", "addr": "\uc11c\uc6b8\ud2b9\ubcc4\uc2dc \uad00\uc545\uad6c \uad00\ucc9c\ub85c 98", "lat": "37.4874046", "lng": "126.9235075"}, {"statNm": "\ub09c\uace1\ub3d9 \uc81c1\uacf5\uc601\uc8fc\ucc28\uc7a5", "addr": "\uc11c\uc6b8\ud2b9\ubcc4\uc2dc \uad00\uc545\uad6c \ub09c\uace1\ub85c34\ub098\uae38 14", "lat": "37.4722977", "lng": "126.9231169"}, {"statNm": "\ub099\uc131\ub300\ub3d9\uc8fc\ubbfc\uc13c\ud130", "addr": "\uc11c\uc6b8\ud2b9\ubcc4\uc2dc \uad00\uc545\uad6c \ub099\uc131\ub300\ub85c4\uac00\uae38 5", "lat": "37.476296", "lng": "126.9583876"}, {"statNm": "\ub099\uc131\ub300\ub3d9\uc8fc\ubbfc\uc13c\ud130", "addr": "\uc11c\uc6b8\ud2b9\ubcc4\uc2dc \uad00\uc545\uad6c \ub099\uc131\ub300\ub85c4\uac00\uae38 5", "lat": "37.476296", "lng": "126.9583876"}, {"statNm": "\ubcf4\ub77c\ub9e4 \uc81c1\uacf5\uc601\uc8fc\ucc28\uc7a5", "addr": "\uc11c\uc6b8\ud2b9\ubcc4\uc2dc \uad00\uc545\uad6c \ubd09\ucc9c\ub85c21\uae38 38", "lat": "37.488301", "lng": "126.9346119"}, {"statNm": "\ubcf4\ub77c\ub9e4 \uc81c1\uacf5\uc601\uc8fc\ucc28\uc7a5", "addr": "\uc785\uad6c\uc88c\uce21, \uc9c0\ud558 \uac01 1\uae30", "lat": "37.488301", "lng": "126.9346119"}, {"statNm": "\uc6d0\uc2e0 \uacf5\uc601\uc8fc\ucc28\uc7a5", "addr": "\uc11c\uc6b8\ud2b9\ubcc4\uc2dc \uad00\uc545\uad6c \uc591\uc9c0\uae38 63", "lat": "37.470038", "lng": "126.9292421"}, {"statNm": "\uc5b4\ub9b0\uc774\ub300\uacf5\uc6d0 \ud6c4\ubb38\uc8fc\ucc28\uc7a5", "addr": "\uc11c\uc6b8\ud2b9\ubcc4\uc2dc \uad11\uc9c4\uad6c \ub2a5\ub3d9\ub85c 216", "lat": "37.5515067", "lng": "127.0869275"}, {"statNm": "\ud648\ud50c\ub7ec\uc2a4 \uc2e0\ub3c4\ub9bc\uc810", "addr": "\uc11c\uc6b8\ud2b9\ubcc4\uc2dc \uad6c\ub85c\uad6c \uacbd\uc778\ub85c 661", "lat": "37.5099693", "lng": "126.888413"}, {"statNm": "\ub86f\ub370\ub9c8\ud2b8 \uc911\uacc4\uc810", "addr": "\uc11c\uc6b8\ud2b9\ubcc4\uc2dc \ub178\uc6d0\uad6c \ub178\uc6d0\ub85c 330", "lat": "37.6466673", "lng": "127.0715514"}, {"statNm": "\ud648\ud50c\ub7ec\uc2a4 \uc911\uacc4\uc810", "addr": "\uc11c\uc6b8\ud2b9\ubcc4\uc2dc \ub178\uc6d0\uad6c \ub3d9\uc77c\ub85c204\uac00\uae38 12", "lat": "37.6400856", "lng": "127.0685413"}, {"statNm": "\uc2e4\uc99d\uc6a9 Mock-up \uc8fc\ud0dd \ud64d\ubcf4\uad00", "addr": "\uc11c\uc6b8\ud2b9\ubcc4\uc2dc \ub178\uc6d0\uad6c \ud558\uacc4\ub3d9 251-8", "lat": "37.6381803", "lng": "127.0737876"}, {"statNm": "\uc2e4\uc99d\uc6a9 Mock-up \uc8fc\ud0dd \ud64d\ubcf4\uad00", "addr": "\uc11c\uc6b8\ud2b9\ubcc4\uc2dc \ub178\uc6d0\uad6c \ud558\uacc4\ub3d9 251-8", "lat": "37.6381803", "lng": "127.0737876"}, {"statNm": "\ub3d9\ub300\ubb38\uad6c\uccad", "addr": "\uc11c\uc6b8\ud2b9\ubcc4\uc2dc \ub3d9\ub300\ubb38\uad6c \ucc9c\ud638\ub300\ub85c 145", "lat": "37.5746807", "lng": "127.0401814"}, {"statNm": "\uc911\uc559\ub300\ud559\uad50\ubcd1\uc6d0 \ub2e4\uc815\uad00 \uc8fc\ucc28\uc7a5", "addr": "\uc11c\uc6b8\ud2b9\ubcc4\uc2dc \ub3d9\uc791\uad6c \ud751\uc11d\ub85c 102", "lat": "37.5055471", "lng": "126.9607195"}, {"statNm": "\uc591\ud654\uc9c4\uacf5\uc601\uc8fc\ucc28\uc7a5", "addr": "\uc11c\uc6b8\ud2b9\ubcc4\uc2dc \ub9c8\ud3ec\uad6c \ud1a0\uc815\ub85c 2", "lat": "37.5457992", "lng": "126.9117265"}, {"statNm": "\uacf5\ub3551-1\uacf5\uc601\uc8fc\ucc28\uc7a5", "addr": "\uc625\uc0c1", "lat": "37.5471234", "lng": "126.9612454"}, {"statNm": "\ud64d\uc81c\uacac\uc778\ucc28\ub7c9\ubcf4\uad00\uc18c \uc8fc\ucc28\uc7a5", "addr": "\uc11c\uc6b8\ud2b9\ubcc4\uc2dc \uc11c\ub300\ubb38\uad6c \ud64d\uc81c\ub0b4\uae38 227", "lat": "37.5905929", "lng": "126.9407564"}, {"statNm": "\ud64d\uc81c\uacac\uc778\ucc28\ub7c9\ubcf4\uad00\uc18c \uc8fc\ucc28\uc7a5", "addr": "\uc11c\uc6b8\ud2b9\ubcc4\uc2dc \uc11c\ub300\ubb38\uad6c \ud64d\uc81c\ub0b4\uae38 227", "lat": "37.5905929", "lng": "126.9407564"}, {"statNm": "\uc11c\uc6b8\uc2dc\uc778\uc7ac\uac1c\ubc1c\uc6d0", "addr": "\uc11c\uc6b8\ud2b9\ubcc4\uc2dc \uc11c\ucd08\uad6c \ub0a8\ubd80\uc21c\ud658\ub85c 340\uae38 58", "lat": "37.481369", "lng": "127.0238502"}, {"statNm": "\uc11c\uc6b8\ucd94\ubaa8\uacf5\uc6d0", "addr": "\uc11c\uc6b8\ud2b9\ubcc4\uc2dc \uc11c\ucd08\uad6c \uc591\uc7ac\ub300\ub85c12\uae38 74", "lat": "37.4536062", "lng": "127.0428005"}, {"statNm": "\uc544\uc2dc\uc544\uacf5\uc6d0 \uacf5\uc601\uc8fc\ucc28\uc7a5", "addr": "\uc11c\uc6b8\ud2b9\ubcc4\uc2dc \uc1a1\ud30c\uad6c \uc7a0\uc2e4\ub3d9 84", "lat": "37.5102969", "lng": "127.0788121"}, {"statNm": "\uc544\uc2dc\uc544\uacf5\uc6d0 \uacf5\uc601\uc8fc\ucc28\uc7a5", "addr": "\uc11c\uc6b8\ud2b9\ubcc4\uc2dc \uc1a1\ud30c\uad6c \uc7a0\uc2e4\ub3d9 84", "lat": "37.5102969", "lng": "127.0788121"}, {"statNm": "\uc544\uc2dc\uc544\uacf5\uc6d0 \uacf5\uc601\uc8fc\ucc28\uc7a5", "addr": "\uc11c\uc6b8\ud2b9\ubcc4\uc2dc \uc1a1\ud30c\uad6c \uc7a0\uc2e4\ub3d9 84", "lat": "37.5102969", "lng": "127.0788121"}, {"statNm": "\ub86f\ub370\ub9c8\ud2b8 \uc1a1\ud30c\uc810", "addr": "\uc11c\uc6b8\ud2b9\ubcc4\uc2dc \uc1a1\ud30c\uad6c \uc911\ub300\ub85c 80", "lat": "37.4918392", "lng": "127.1178931"}, {"statNm": "\ud648\ud50c\ub7ec\uc2a4 \uc601\ub4f1\ud3ec\uc810", "addr": "\uc11c\uc6b8\ud2b9\ubcc4\uc2dc \uc601\ub4f1\ud3ec\uad6c \ub2f9\uc0b0\ub85c 42", "lat": "37.5190208", "lng": "126.8957999"}, {"statNm": "\uc2e0\uae386\ub3d9 \uacf5\uc601\ub178\uc678\uc8fc\ucc28\uc7a5(\uad6c \uc2e0\uae38 \uc81c5\ub3d9 \uc8fc\ubbfc\uc13c\ud130)", "addr": "\uc11c\uc6b8\ud2b9\ubcc4\uc2dc \uc601\ub4f1\ud3ec\uad6c \uc2e0\uae38\ub3d9 3203", "lat": "37.502512989", "lng": "126.9110497"}, {"statNm": "\uc2e0\uae384\ub3d91\ub9c8\uc744\uacf5\uc6d0 \uacf5\uc601\uc8fc\ucc28\uc7a5", "addr": "\uc11c\uc6b8\ud2b9\ubcc4\uc2dc \uc601\ub4f1\ud3ec\uad6c \uc2e0\uae38\ub85c40\uae38 5", "lat": "37.507122", "lng": "126.9116817"}, {"statNm": "\ub2f9\uc0b0\uc5d0\uc2a4\uc5d0\uc774\uce58\ube4c \uc544\ud30c\ud2b8 \uc55e", "addr": "\uc11c\uc6b8\ud2b9\ubcc4\uc2dc \uc601\ub4f1\ud3ec\uad6c \uc601\uc2e0\ub85c 183", "lat": "37.524217", "lng": "126.9019801"}, {"statNm": "\uc601\ub4f1\ud3ec \uc81c3\uacf5\uc601", "addr": "\uc11c\uc6b8\ud2b9\ubcc4\uc2dc \uc601\ub4f1\ud3ec\uad6c \uc601\uc911\ub85c3\uae38 7", "lat": "37.5180087", "lng": "126.9030865"}, {"statNm": "\uc2e0\ucc3d\ub3d9 \uacf5\uc601\uc8fc\ucc28\uc7a5", "addr": "\uc11c\uc6b8\ud2b9\ubcc4\uc2dc \uc6a9\uc0b0\uad6c \uc6d0\ud6a8\ub85c35\uae38 53", "lat": "37.5353568", "lng": "126.9552587"}, {"statNm": "\ud55c\ub0a8\ub3d9 \uacf5\uc601\uc8fc\ucc28\uc7a5", "addr": "\uc11c\uc6b8\ud2b9\ubcc4\uc2dc \uc6a9\uc0b0\uad6c \uc774\ud0dc\uc6d0\ub85c 224-19", "lat": "37.5349284", "lng": "127.0002489"}, {"statNm": "\ud604\ub300\uc790\ub3d9\ucc28 \uc218\uc0c9\ub300\ub9ac\uc810", "addr": "\uc11c\uc6b8\ud2b9\ubcc4\uc2dc \uc740\ud3c9\uad6c \uc218\uc0c9\ub85c 342-1", "lat": "37.5867665", "lng": "126.8880299"}, {"statNm": "\uc740\ud3c9\uad6c\ubbfc\uccb4\uc721\uc13c\ud130", "addr": "\uc11c\uc6b8\ud2b9\ubcc4\uc2dc \uc740\ud3c9\uad6c \uc9c4\uad001\ub85c 40", "lat": "37.6310603", "lng": "126.9246413"}, {"statNm": "\ud0dc\ud654\ube4c\ub529", "addr": "\uc11c\uc6b8\ud2b9\ubcc4\uc2dc \uc885\ub85c\uad6c \uc778\uc0ac\ub3d95\uae38 29", "lat": "37.5718148", "lng": "126.9850443"}, {"statNm": "\ud55c\uad6d\uc608\uc220\uc885\ud569\ud559\uad50(\uc885\ub85c)", "addr": "\uc11c\uc6b8\ud2b9\ubcc4\uc2dc \uc885\ub85c\uad6c \ucc3d\uacbd\uad81\ub85c 215", "lat": "37.5824318", "lng": "126.9974047"}, {"statNm": "\uad6d\ub9bd\uadf9\uc7a5", "addr": "\uad6d\ub9bd\uadf9\uc7a5 \uc88c\uce21 \ucd9c\uad6c \uc8fc\ucc28\uc7a5", "lat": "37.5517908", "lng": "127.0002167"}, {"statNm": "\uad6d\ub9bd\uadf9\uc7a5", "addr": "\uad6d\ub9bd\uadf9\uc7a5 \uc88c\uce21 \ucd9c\uad6c \uc8fc\ucc28\uc7a5", "lat": "37.5517908", "lng": "127.0002167"}, {"statNm": "\ud648\ud50c\ub7ec\uc2a4 \uc0c1\ubd09\uc810", "addr": "\uc11c\uc6b8\ud2b9\ubcc4\uc2dc \uc911\ub791\uad6c \ub9dd\uc6b0\ub85c 353", "lat": "37.5983156", "lng": "127.0905669"}, {"statNm": "\ud648\ud50c\ub7ec\uc2a4 \uc2e0\ub0b4\uc810", "addr": "\uc11c\uc6b8\ud2b9\ubcc4\uc2dc \uc911\ub791\uad6c \uc2e0\ub0b4\ub85c 201", "lat": "37.6159847", "lng": "127.0939656"}, {"statNm": "\uc6a9\ub9c8\ud3ed\ud3ec\uacf5\uc6d0 \uacf5\uc601\uc8fc\ucc28\uc7a5", "addr": "\uc11c\uc6b8\ud2b9\ubcc4\uc2dc \uc911\ub791\uad6c \uc6a9\ub9c8\uc0b0\ub85c 250-12", "lat": "37.5745068", "lng": "127.089592"}, {"statNm": "\uc11c\uc6b8\ub9cc\ub0a8\ud734\uac8c\uc18c(\ubd80\uc0b0\ubc29\ud5a5)", "addr": "\uc11c\uc6b8\ud2b9\ubcc4\uc2dc \uc11c\ucd08\uad6c \uc591\uc7ac\ub300\ub85c12\uae38 73-71 (\uc6d0\uc9c0\ub3d9)", "lat": "37.4600218", "lng": "127.0420378"}, {"statNm": "\uc11c\uc6b8\ub9cc\ub0a8\ud734\uac8c\uc18c(\ubd80\uc0b0\ubc29\ud5a5)", "addr": "\uc11c\uc6b8\ud2b9\ubcc4\uc2dc \uc11c\ucd08\uad6c \uc591\uc7ac\ub300\ub85c12\uae38 73-71 (\uc6d0\uc9c0\ub3d9)", "lat": "37.4600218", "lng": "127.0420378"}, {"statNm": "\ud30c\ud06c\ud558\uc58f\ud2b8\uc11c\uc6b8\ud638\ud154", "addr": "\uc11c\uc6b8\ud2b9\ubcc4\uc2dc \uac15\ub0a8\uad6c \ud14c\ud5e4\ub780\ub85c606", "lat": "37.508834", "lng": "127.064114"}, {"statNm": "\uc2a4\uc704\uc2a4\uadf8\ub79c\ub4dc\ud638\ud154(\uad6c \uadf8\ub79c\ub4dc\ud790\ud2bc\ud638\ud154)", "addr": "\uc11c\uc6b8\ud2b9\ubcc4\uc2dc \uc11c\ub300\ubb38\uad6c \uc5f0\ud76c\ub85c 353", "lat": "37.590003", "lng": "126.934744"}, {"statNm": "\ub86f\ub370 VIC\ub9c8\ucf13 \uae08\ucc9c\uc810", "addr": "null", "lat": "37.470581", "lng": "126.895698"}, {"statNm": "\ub86f\ub370 VIC\ub9c8\ucf13 \uae08\ucc9c\uc810", "addr": "null", "lat": "37.470581", "lng": "126.895698"}, {"statNm": "\uc6b0\ub9ac\uc740\ud589\ubcf8\uc810", "addr": "\uc11c\uc6b8\ud2b9\ubcc4\uc2dc \uc911\uad6c \uc18c\uacf5\ub85c 51\ubc88\uc9c0", "lat": "37.559534", "lng": "126.981817"}, {"statNm": "\uc6b0\ub9ac\uc740\ud589\ubcf8\uc810", "addr": "\uc11c\uc6b8\ud2b9\ubcc4\uc2dc \uc911\uad6c \uc18c\uacf5\ub85c 51\ubc88\uc9c0", "lat": "37.559534", "lng": "126.981817"}, {"statNm": "\ub9c8\uace1\ub808\ud3ec\uce20\uc13c\ud130", "addr": "\uc11c\uc6b8\ud2b9\ubcc4\uc2dc \uac15\uc11c\uad6c \uc591\ucc9c\ub85c 251, \uc785\uad6c \uc6b0\uce21", "lat": "37.5728411", "lng": "126.8323738"}, {"statNm": "\ucc3d2\ub3d9 \uc81c4\uacf5\uc601\uc8fc\ucc28\uc7a5", "addr": "\uc11c\uc6b8\ud2b9\ubcc4\uc2dc \ub3c4\ubd09\uad6c \ucc3d2\ub3d9 582-22", "lat": "37.6413031", "lng": "127.0364035"}, {"statNm": "\ucc3d3\ub3d9 \uc81c1\uacf5\uc601\uc8fc\ucc28\uc7a5", "addr": "\uc11c\uc6b8\ud2b9\ubcc4\uc2dc \ub3c4\ubd09\uad6c \ucc3d3\ub3d9 504-21, \uc88c\uce21 \uc548\ucabd", "lat": "37.6332558", "lng": "127.0412125"}, {"statNm": "\ucc3d\ucc9c\uacf5\uc601\uc8fc\ucc28\uc7a5", "addr": "\uc11c\uc6b8\ud2b9\ubcc4\uc2dc \ub9c8\ud3ec\uad6c \ub178\uace0\uc0b0\ub3d9 33-1, B3 28", "lat": "37.55493", "lng": "126.9389738"}, {"statNm": "\ubc88\ub3d9\ud587\uc0b4 \uacf5\uc601\uc8fc\ucc28\uc7a5", "addr": "\uc11c\uc6b8\ud2b9\ubcc4\uc2dc \uac15\ubd81\uad6c \uc624\ud604\ub85c 21\uae38 84, \uc625\uc0c1 \uc8fc\ucc28\uc7a5", "lat": "37.6249449", "lng": "127.0334805"}, {"statNm": "\ub09c\ud5a5\ub3d9 \uc8fc\ubbfc\uc13c\ud130", "addr": "\uc11c\uc6b8\ud2b9\ubcc4\uc2dc \uad00\uc545\uad6c \ub09c\uace1\ub85c 67", "lat": "37.4616153", "lng": "126.9189711"}, {"statNm": "\uc2dc\ud765\uc81c4\ub3d9\uacf5\uc601\uc8fc\ucc28\uc7a5", "addr": "\uc11c\uc6b8\ud2b9\ubcc4\uc2dc \uae08\ucc9c\uad6c \ub3c5\uc0b0\ub85c 36\ub098\uae38 21, B1 18", "lat": "37.4589664", "lng": "126.9084827"}, {"statNm": "\uc30d\ubb383\ub3d9 \uc81c2\uacf5\uc601\uc8fc\ucc28\uc7a5", "addr": "\uc11c\uc6b8\ud2b9\ubcc4\uc2dc \ub3c4\ubd09\uad6c \uc30d\ubb383\ub3d9 315-62, \uc9c0\ud558 1\uce35 \uc548\ucabd", "lat": "37.6493531", "lng": "127.0293841"}, {"statNm": "\uc2a4\ud0e0\ud3ec\ub4dc\ud638\ud154\ucf54\ub9ac\uc544", "addr": "\uc11c\uc6b8\ud2b9\ubcc4\uc2dc \ub9c8\ud3ec\uad6c \uc0c1\uc554\ub3d9 \uc6d4\ub4dc\ucef5\ubd81\ub85c 58\uae38 15, \uc9c0\ud5584\uce35 18", "lat": "37.5823581", "lng": "126.886648"}, {"statNm": "\uc885\ubb18 \uacf5\uc601\uc8fc\ucc28\uc7a5", "addr": "\uc11c\uc6b8\ud2b9\ubcc4\uc2dc \uc885\ub85c\uad6c \uc885\ub85c 157", "lat": "37.571076", "lng": "126.99588"}, {"statNm": "\uc138\uc885\ub85c \uacf5\uc601\uc8fc\ucc28\uc7a5", "addr": "\uc11c\uc6b8\ud2b9\ubcc4\uc2dc \uc885\ub85c\uad6c \uc138\uc885\ub300\ub85c 189", "lat": "37.573611", "lng": "126.976011"}, {"statNm": "\uadf8\ub79c\ub4dc\uc570\ubc30\uc11c\ub354 \uc11c\uc6b8", "addr": "\uc11c\uc6b8\ud2b9\ubcc4\uc2dc \uc911\uad6c \ub3d9\ud638\ub85c 287", "lat": "37.559352", "lng": "127.002350"}, {"statNm": "\ud55c\uac15\uc9c4\uc5ed \uacf5\uc601\uc8fc\ucc28\uc7a5", "addr": "\uc11c\uc6b8\ud2b9\ubcc4\uc2dc \uc6a9\uc0b0\uad6c \ud55c\ub0a8\ub3d9 \uc0b010-84", "lat": "37.540085", "lng": "127.002804"}, {"statNm": "\ub9c8\uc7a5\ub3d9\uc0ac\ubb34\uc18c \uc55e(\uacf5\uc911\uc804\ud654\ubd80\uc2a4)", "addr": "\uc11c\uc6b8\ud2b9\ubcc4\uc2dc \uc131\ub3d9\uad6c \ub9c8\uc7a5\ub3d9 808", "lat": "37.5660935", "lng": "127.0455256"}, {"statNm": "\uccad\ub7c9\ub9ac\ub86f\ub370\ubc31\ud654\uc810", "addr": "\uc11c\uc6b8\ud2b9\ubcc4\uc2dc \ub3d9\ub300\ubb38\uad6c \uc655\uc0b0\ub85c 214", "lat": "37.580650", "lng": "127.047938"}, {"statNm": "\uc774\ub9c8\ud2b8 \uc774\ubb38\uc810", "addr": "\uc11c\uc6b8\ud2b9\ubcc4\uc2dc \ub3d9\ub300\ubb38\uad6c \uc774\ubb38\ub85c 136", "lat": "37.598454", "lng": "127.061848"}, {"statNm": "\ud648\ud50c\ub7ec\uc2a4 \uc6d4\uace1\uc810", "addr": "\uc11c\uc6b8\ud2b9\ubcc4\uc2dc \uc131\ubd81\uad6c \ud654\ub791\ub85c 76", "lat": "37.60208293", "lng": "127.04002398"}, {"statNm": "\uc131\ubd81\ubca4\ucc98\ube4c\ub529 \uacf5\uc601\uc8fc\ucc28\uc7a5", "addr": "\uc11c\uc6b8\ud2b9\ubcc4\uc2dc \uc131\ubd81\uad6c \uc7a5\uc7042\ub3d9 65-154", "lat": "37.60936", "lng": "127.053263"}, {"statNm": "\ub86f\ub370\ub9c8\ud2b8 \uc0bc\uc591\uc810", "addr": "\uc11c\uc6b8\ud2b9\ubcc4\uc2dc \uac15\ubd81\uad6c \uc0bc\uc591\ub85c 247", "lat": "37.625405", "lng": "127.017897"}, {"statNm": "\uc774\ub9c8\ud2b8 \uc740\ud3c9\uc810", "addr": "\uc11c\uc6b8\ud2b9\ubcc4\uc2dc \uc740\ud3c9\uad6c \uc740\ud3c9\ub85c 111", "lat": "37.60047527", "lng": "126.92047408"}, {"statNm": "\uad6c\ud30c\ubc1c\uc5ed \ud658\uc2b9\uc8fc\ucc28\uc7a5", "addr": "\uc11c\uc6b8\ud2b9\ubcc4\uc2dc \uc740\ud3c9\uad6c \uc9c4\uad00\ub3d9 66-30", "lat": "37.637910", "lng": "126.91910"}, {"statNm": "\ud648\ud50c\ub7ec\uc2a4 \uc6d4\ub4dc\ucef5\uc810", "addr": "\uc11c\uc6b8\ud2b9\ubcc4\uc2dc \ub9c8\ud3ec\uad6c \uc6d4\ub4dc\ucef5\ub85c 240", "lat": "37.566685", "lng": "126.898753"}, {"statNm": "\uc2dc\uc124\uad00\ub9ac\uacf5\ub2e8 \ub9c8\ud3ec\uc720\uc218\uc9c0\uc8fc\ucc28\uc7a5", "addr": "\uc11c\uc6b8\ud2b9\ubcc4\uc2dc \ub9c8\ud3ec\uad6c \ub9c8\ud3ec\ub300\ub85c1\uae38 19", "lat": "37.539442", "lng": "126.943054"}, {"statNm": "\ud648\ud50c\ub7ec\uc2a4 \ubaa9\ub3d9\uc810", "addr": "\uc11c\uc6b8\ud2b9\ubcc4\uc2dc \uc591\ucc9c\uad6c \ubaa9\ub3d9\uc11c\ub85c 170", "lat": "37.52992611", "lng": "126.87364033"}, {"statNm": "\ud574\ub9de\uc774\uacf5\uc601\uc8fc\ucc28\uc7a5", "addr": "\uc11c\uc6b8\ud2b9\ubcc4\uc2dc \uc591\ucc9c\uad6c \uc9c0\uc591\ub85c 47", "lat": "37.520062", "lng": "126.834854"}, {"statNm": "\ud648\ud50c\ub7ec\uc2a4 \uac00\uc591\uc810", "addr": "\uc11c\uc6b8\ud2b9\ubcc4\uc2dc \uac15\uc11c\uad6c \uc591\ucc9c\ub85c 431", "lat": "37.56401856", "lng": "126.85059572"}, {"statNm": "\ub86f\ub370\ub9c8\ud2b8 \uae40\ud3ec\uacf5\ud56d\uc810", "addr": "\uc11c\uc6b8\ud2b9\ubcc4\uc2dc \uac15\uc11c\uad6c \ud558\ub298\uae38 77", "lat": "37.563453", "lng": "126.803539"}, {"statNm": "\uba54\uc774\ud544\ub4dc\ud638\ud154", "addr": "\uc11c\uc6b8\ud2b9\ubcc4\uc2dc \uac15\uc11c\uad6c \ubc29\ud654\ub300\ub85c 94", "lat": "37.546851", "lng": "126.818613"}, {"statNm": "\ucc9c\uc655\uc5ed \ud658\uc2b9\uc8fc\ucc28\uc7a5", "addr": "\uc11c\uc6b8\ud2b9\ubcc4\uc2dc \uad6c\ub85c\uad6c \uc624\ub958\ub3d9 174-10", "lat": "37.487234", "lng": "126.839153"}, {"statNm": "\uad6c\ub85c\ub9ac\uacf5\uc6d0 \uc55e(\uacf5\uc911\uc804\ud654\ubd80\uc2a4)", "addr": "\uc11c\uc6b8\ud2b9\ubcc4\uc2dc \uad6c\ub85c\uad6c \uad6c\ub85c\ub3d9 136-14", "lat": "37.4912466", "lng": "126.8919514"}, {"statNm": "\ud648\ud50c\ub7ec\uc2a4 \uc2dc\ud765\uc810", "addr": "\uc11c\uc6b8\ud2b9\ubcc4\uc2dc \uae08\ucc9c\uad6c \uc2dc\ud765\ub300\ub85c 201", "lat": "37.45222814", "lng": "126.90093936"}, {"statNm": "\uc81c\uc77c\ubaa8\uc9c1\uc544\uc6b8\ub81b \uac74\ub108\ud3b8(\uacf5\uc911\uc804\ud654\ubd80\uc2a4)", "addr": "\uc11c\uc6b8\ud2b9\ubcc4\uc2dc \uae08\ucc9c\uad6c \uac00\uc0b0\ub3d9 239-27", "lat": "37.4744454", "lng": "126.8867302"}, {"statNm": "\uc601\ub4f1\ud3ec\uad6c \ub300\uc2e0\uc2dc\uc7a5(\uacf5\uc911\uc804\ud654\ubd80\uc2a4)", "addr": "\uc11c\uc6b8\ud2b9\ubcc4\uc2dc \uc601\ub4f1\ud3ec\uad6c \uc2e0\uae381\ub3d9 116-15", "lat": "37.5113404", "lng": "126.9176919"}, {"statNm": "\ub3d9\uc791\uc8fc\ucc28\uacf5\uc6d0 \uacf5\uc601\uc8fc\ucc28\uc7a5", "addr": "\uc11c\uc6b8\ud2b9\ubcc4\uc2dc \ub3d9\uc791\uad6c \ud604\ucda9\ub85c 213", "lat": "37.503803", "lng": "126.976775"}, {"statNm": "\uc870\uc6d0\ub3d9 \uc81c1\uacf5\uc601\uc8fc\ucc28\uc7a5", "addr": "\uc11c\uc6b8\ud2b9\ubcc4\uc2dc \uad00\uc545\uad6c \uc2e0\ub9bc\ub3d9 571-6", "lat": "37.481069", "lng": "126.905703"}, {"statNm": "\uc0ac\ub2f9\uc5ed \uacf5\uc601\uc8fc\ucc28\uc7a5", "addr": "\uc11c\uc6b8\ud2b9\ubcc4\uc2dc \uc11c\ucd08\uad6c \uacfc\ucc9c\ub300\ub85c 950-18", "lat": "37.475256", "lng": "126.982638"}, {"statNm": "\uc774\ub9c8\ud2b8 \uc591\uc7ac\uc810", "addr": "\uc11c\uc6b8\ud2b9\ubcc4\uc2dc \uc11c\ucd08\uad6c \ub9e4\ud5cc\ub85c 16", "lat": "37.463293", "lng": "127.036812"}, {"statNm": "\uc218\uc11c\uc5ed \uacf5\uc601\uc8fc\ucc28\uc7a5", "addr": "\uc11c\uc6b8\ud2b9\ubcc4\uc2dc \uac15\ub0a8\uad6c \uc218\uc11c\ub3d9 735", "lat": "37.487569", "lng": "127.101016"}, {"statNm": "\ud559\uc5ec\uc6b8\uc5ed \uacf5\uc601\uc8fc\ucc28\uc7a5", "addr": "\uc11c\uc6b8\ud2b9\ubcc4\uc2dc \uac15\ub0a8\uad6c \ub0a8\ubd80\uc21c\ud658\ub85c 3104", "lat": "37.496722", "lng": "127.070444"}, {"statNm": "\ub86f\ub370\ub9c8\ud2b8 \uc7a0\uc2e4\uc810", "addr": "\uc11c\uc6b8\ud2b9\ubcc4\uc2dc \uc1a1\ud30c\uad6c \uc62c\ub9bc\ud53d\ub85c 240", "lat": "37.511818", "lng": "127.096321"}, {"statNm": "\uc774\ub9c8\ud2b8 \uba85\uc77c\uc810", "addr": "\uc11c\uc6b8\ud2b9\ubcc4\uc2dc \uac15\ub3d9\uad6c \uace0\ub355\ub85c 276", "lat": "37.554606", "lng": "127.155966"}, {"statNm": "\ub178\ubcf4\ud154", "addr": "\uc11c\uc6b8\ud2b9\ubcc4\uc2dc \uac15\ub0a8\uad6c \ubd09\uc740\uc0ac\ub85c 130", "lat": "37.5052721", "lng": "127.0289991"}, {"statNm": "\uc554\uc0ac1\ub3d9 \uacf5\uc601\uc8fc\ucc28\uc7a5", "addr": "\uc11c\uc6b8\ud2b9\ubcc4\uc2dc \uac15\ub3d9\uad6c \uace0\ub355\ub85c28\uae38 36", "lat": "37.5529087", "lng": "127.1372547"}, {"statNm": "\ucc9c\ud638\uc720\uc218\uc9c0 \uacf5\uc601\uc8fc\ucc28\uc7a5", "addr": "\uc11c\uc6b8\ud2b9\ubcc4\uc2dc \uac15\ub3d9\uad6c \uc120\uc0ac\ub85c 70", "lat": "37.5448122", "lng": "127.1218396"}, {"statNm": "\ucc9c\ud6383\ub3d9 \uc81c1\uacf5\uc601\uc8fc\ucc28\uc7a5", "addr": "\uc11c\uc6b8\ud2b9\ubcc4\uc2dc \uac15\ub3d9\uad6c \uc9c4\ud669\ub3c4\ub85c29\uae38 34", "lat": "37.5387951", "lng": "127.1333987"}, {"statNm": "\uac00\ub85c\uacf5\uc6d0\ub85c \uc9c0\ud558\uacf5\uc601\uc8fc\ucc28\uc7a5", "addr": "\uc11c\uc6b8\ud2b9\ubcc4\uc2dc \uac15\uc11c\uad6c \uac00\ub85c\uacf5\uc6d0\ub85c 189", "lat": "37.5372628", "lng": "126.8383789"}, {"statNm": "\uacf0\ub2ec\ub798\ubb38\ud654\ubcf5\uc9c0\uc13c\ud130 \uacf5\uc601\uc8fc\ucc28\uc7a5", "addr": "\uc11c\uc6b8\ud2b9\ubcc4\uc2dc \uac15\uc11c\uad6c \uac15\uc11c\ub85c5\uae38 50", "lat": "37.5289561", "lng": "126.8490887"}, {"statNm": "\ubccf\uace8\uacf5\uc6d0 \uc9c0\ud558\uacf5\uc601\uc8fc\ucc28\uc7a5", "addr": "\uc11c\uc6b8\ud2b9\ubcc4\uc2dc \uac15\uc11c\uad6c \uae4c\uce58\uc0b0\ub85c4\uae38 22", "lat": "37.5419747", "lng": "126.8444499"}, {"statNm": "\ud654\uace16-1 \uacf5\uc601\uc8fc\ucc28\uc7a5", "addr": "\uc11c\uc6b8\ud2b9\ubcc4\uc2dc \uac15\uc11c\uad6c \uc6b0\uc7a5\uc0b0\ub85c 114", "lat": "37.5530457", "lng": "126.8488169"}, {"statNm": "\ud648\ud50c\ub7ec\uc2a4 \uac15\uc11c\uc810", "addr": "\uc11c\uc6b8\ud2b9\ubcc4\uc2dc \uac15\uc11c\uad6c \ud654\uace1\ub85c 398", "lat": "37.5591218", "lng": "126.8549199"}, {"statNm": "\uc2e0\ub9bc\ub3d9 \uc81c1\uacf5\uc601\uc8fc\ucc28\uc7a5", "addr": "\uc11c\uc6b8\ud2b9\ubcc4\uc2dc \uad00\uc545\uad6c \uad00\ucc9c\ub85c 98", "lat": "37.4874046", "lng": "126.9235075"}, {"statNm": "\ub09c\uace1\ub3d9 \uc81c1\uacf5\uc601\uc8fc\ucc28\uc7a5", "addr": "\uc11c\uc6b8\ud2b9\ubcc4\uc2dc \uad00\uc545\uad6c \ub09c\uace1\ub85c34\ub098\uae38 14", "lat": "37.4722977", "lng": "126.9231169"}, {"statNm": "\ub099\uc131\ub300\ub3d9\uc8fc\ubbfc\uc13c\ud130", "addr": "\uc11c\uc6b8\ud2b9\ubcc4\uc2dc \uad00\uc545\uad6c \ub099\uc131\ub300\ub85c4\uac00\uae38 5", "lat": "37.476296", "lng": "126.9583876"}, {"statNm": "\ub099\uc131\ub300\ub3d9\uc8fc\ubbfc\uc13c\ud130", "addr": "\uc11c\uc6b8\ud2b9\ubcc4\uc2dc \uad00\uc545\uad6c \ub099\uc131\ub300\ub85c4\uac00\uae38 5", "lat": "37.476296", "lng": "126.9583876"}, {"statNm": "\ubcf4\ub77c\ub9e4 \uc81c1\uacf5\uc601\uc8fc\ucc28\uc7a5", "addr": "\uc11c\uc6b8\ud2b9\ubcc4\uc2dc \uad00\uc545\uad6c \ubd09\ucc9c\ub85c21\uae38 38", "lat": "37.488301", "lng": "126.9346119"}, {"statNm": "\ubcf4\ub77c\ub9e4 \uc81c1\uacf5\uc601\uc8fc\ucc28\uc7a5", "addr": "\uc785\uad6c\uc88c\uce21, \uc9c0\ud558 \uac01 1\uae30", "lat": "37.488301", "lng": "126.9346119"}, {"statNm": "\uc6d0\uc2e0 \uacf5\uc601\uc8fc\ucc28\uc7a5", "addr": "\uc11c\uc6b8\ud2b9\ubcc4\uc2dc \uad00\uc545\uad6c \uc591\uc9c0\uae38 63", "lat": "37.470038", "lng": "126.9292421"}, {"statNm": "\uc5b4\ub9b0\uc774\ub300\uacf5\uc6d0 \ud6c4\ubb38\uc8fc\ucc28\uc7a5", "addr": "\uc11c\uc6b8\ud2b9\ubcc4\uc2dc \uad11\uc9c4\uad6c \ub2a5\ub3d9\ub85c 216", "lat": "37.5515067", "lng": "127.0869275"}, {"statNm": "\ud648\ud50c\ub7ec\uc2a4 \uc2e0\ub3c4\ub9bc\uc810", "addr": "\uc11c\uc6b8\ud2b9\ubcc4\uc2dc \uad6c\ub85c\uad6c \uacbd\uc778\ub85c 661", "lat": "37.5099693", "lng": "126.888413"}, {"statNm": "\ub86f\ub370\ub9c8\ud2b8 \uc911\uacc4\uc810", "addr": "\uc11c\uc6b8\ud2b9\ubcc4\uc2dc \ub178\uc6d0\uad6c \ub178\uc6d0\ub85c 330", "lat": "37.6466673", "lng": "127.0715514"}, {"statNm": "\ud648\ud50c\ub7ec\uc2a4 \uc911\uacc4\uc810", "addr": "\uc11c\uc6b8\ud2b9\ubcc4\uc2dc \ub178\uc6d0\uad6c \ub3d9\uc77c\ub85c204\uac00\uae38 12", "lat": "37.6400856", "lng": "127.0685413"}, {"statNm": "\uc2e4\uc99d\uc6a9 Mock-up \uc8fc\ud0dd \ud64d\ubcf4\uad00", "addr": "\uc11c\uc6b8\ud2b9\ubcc4\uc2dc \ub178\uc6d0\uad6c \ud558\uacc4\ub3d9 251-8", "lat": "37.6381803", "lng": "127.0737876"}, {"statNm": "\uc2e4\uc99d\uc6a9 Mock-up \uc8fc\ud0dd \ud64d\ubcf4\uad00", "addr": "\uc11c\uc6b8\ud2b9\ubcc4\uc2dc \ub178\uc6d0\uad6c \ud558\uacc4\ub3d9 251-8", "lat": "37.6381803", "lng": "127.0737876"}, {"statNm": "\ub3d9\ub300\ubb38\uad6c\uccad", "addr": "\uc11c\uc6b8\ud2b9\ubcc4\uc2dc \ub3d9\ub300\ubb38\uad6c \ucc9c\ud638\ub300\ub85c 145", "lat": "37.5746807", "lng": "127.0401814"}, {"statNm": "\uc911\uc559\ub300\ud559\uad50\ubcd1\uc6d0 \ub2e4\uc815\uad00 \uc8fc\ucc28\uc7a5", "addr": "\uc11c\uc6b8\ud2b9\ubcc4\uc2dc \ub3d9\uc791\uad6c \ud751\uc11d\ub85c 102", "lat": "37.5055471", "lng": "126.9607195"}, {"statNm": "\uc591\ud654\uc9c4\uacf5\uc601\uc8fc\ucc28\uc7a5", "addr": "\uc11c\uc6b8\ud2b9\ubcc4\uc2dc \ub9c8\ud3ec\uad6c \ud1a0\uc815\ub85c 2", "lat": "37.5457992", "lng": "126.9117265"}, {"statNm": "\uacf5\ub3551-1\uacf5\uc601\uc8fc\ucc28\uc7a5", "addr": "\uc625\uc0c1", "lat": "37.5471234", "lng": "126.9612454"}, {"statNm": "\ud64d\uc81c\uacac\uc778\ucc28\ub7c9\ubcf4\uad00\uc18c \uc8fc\ucc28\uc7a5", "addr": "\uc11c\uc6b8\ud2b9\ubcc4\uc2dc \uc11c\ub300\ubb38\uad6c \ud64d\uc81c\ub0b4\uae38 227", "lat": "37.5905929", "lng": "126.9407564"}, {"statNm": "\ud64d\uc81c\uacac\uc778\ucc28\ub7c9\ubcf4\uad00\uc18c \uc8fc\ucc28\uc7a5", "addr": "\uc11c\uc6b8\ud2b9\ubcc4\uc2dc \uc11c\ub300\ubb38\uad6c \ud64d\uc81c\ub0b4\uae38 227", "lat": "37.5905929", "lng": "126.9407564"}, {"statNm": "\uc11c\uc6b8\uc2dc\uc778\uc7ac\uac1c\ubc1c\uc6d0", "addr": "\uc11c\uc6b8\ud2b9\ubcc4\uc2dc \uc11c\ucd08\uad6c \ub0a8\ubd80\uc21c\ud658\ub85c 340\uae38 58", "lat": "37.481369", "lng": "127.0238502"}, {"statNm": "\uc11c\uc6b8\ucd94\ubaa8\uacf5\uc6d0", "addr": "\uc11c\uc6b8\ud2b9\ubcc4\uc2dc \uc11c\ucd08\uad6c \uc591\uc7ac\ub300\ub85c12\uae38 74", "lat": "37.4536062", "lng": "127.0428005"}, {"statNm": "\uc544\uc2dc\uc544\uacf5\uc6d0 \uacf5\uc601\uc8fc\ucc28\uc7a5", "addr": "\uc11c\uc6b8\ud2b9\ubcc4\uc2dc \uc1a1\ud30c\uad6c \uc7a0\uc2e4\ub3d9 84", "lat": "37.5102969", "lng": "127.0788121"}, {"statNm": "\uc544\uc2dc\uc544\uacf5\uc6d0 \uacf5\uc601\uc8fc\ucc28\uc7a5", "addr": "\uc11c\uc6b8\ud2b9\ubcc4\uc2dc \uc1a1\ud30c\uad6c \uc7a0\uc2e4\ub3d9 84", "lat": "37.5102969", "lng": "127.0788121"}, {"statNm": "\uc544\uc2dc\uc544\uacf5\uc6d0 \uacf5\uc601\uc8fc\ucc28\uc7a5", "addr": "\uc11c\uc6b8\ud2b9\ubcc4\uc2dc \uc1a1\ud30c\uad6c \uc7a0\uc2e4\ub3d9 84", "lat": "37.5102969", "lng": "127.0788121"}, {"statNm": "\ub86f\ub370\ub9c8\ud2b8 \uc1a1\ud30c\uc810", "addr": "\uc11c\uc6b8\ud2b9\ubcc4\uc2dc \uc1a1\ud30c\uad6c \uc911\ub300\ub85c 80", "lat": "37.4918392", "lng": "127.1178931"}, {"statNm": "\ud648\ud50c\ub7ec\uc2a4 \uc601\ub4f1\ud3ec\uc810", "addr": "\uc11c\uc6b8\ud2b9\ubcc4\uc2dc \uc601\ub4f1\ud3ec\uad6c \ub2f9\uc0b0\ub85c 42", "lat": "37.5190208", "lng": "126.8957999"}, {"statNm": "\uc2e0\uae386\ub3d9 \uacf5\uc601\ub178\uc678\uc8fc\ucc28\uc7a5(\uad6c \uc2e0\uae38 \uc81c5\ub3d9 \uc8fc\ubbfc\uc13c\ud130)", "addr": "\uc11c\uc6b8\ud2b9\ubcc4\uc2dc \uc601\ub4f1\ud3ec\uad6c \uc2e0\uae38\ub3d9 3203", "lat": "37.502512989", "lng": "126.9110497"}, {"statNm": "\uc2e0\uae384\ub3d91\ub9c8\uc744\uacf5\uc6d0 \uacf5\uc601\uc8fc\ucc28\uc7a5", "addr": "\uc11c\uc6b8\ud2b9\ubcc4\uc2dc \uc601\ub4f1\ud3ec\uad6c \uc2e0\uae38\ub85c40\uae38 5", "lat": "37.507122", "lng": "126.9116817"}, {"statNm": "\ub2f9\uc0b0\uc5d0\uc2a4\uc5d0\uc774\uce58\ube4c \uc544\ud30c\ud2b8 \uc55e", "addr": "\uc11c\uc6b8\ud2b9\ubcc4\uc2dc \uc601\ub4f1\ud3ec\uad6c \uc601\uc2e0\ub85c 183", "lat": "37.524217", "lng": "126.9019801"}, {"statNm": "\uc601\ub4f1\ud3ec \uc81c3\uacf5\uc601", "addr": "\uc11c\uc6b8\ud2b9\ubcc4\uc2dc \uc601\ub4f1\ud3ec\uad6c \uc601\uc911\ub85c3\uae38 7", "lat": "37.5180087", "lng": "126.9030865"}, {"statNm": "\uc2e0\ucc3d\ub3d9 \uacf5\uc601\uc8fc\ucc28\uc7a5", "addr": "\uc11c\uc6b8\ud2b9\ubcc4\uc2dc \uc6a9\uc0b0\uad6c \uc6d0\ud6a8\ub85c35\uae38 53", "lat": "37.5353568", "lng": "126.9552587"}, {"statNm": "\ud55c\ub0a8\ub3d9 \uacf5\uc601\uc8fc\ucc28\uc7a5", "addr": "\uc11c\uc6b8\ud2b9\ubcc4\uc2dc \uc6a9\uc0b0\uad6c \uc774\ud0dc\uc6d0\ub85c 224-19", "lat": "37.5349284", "lng": "127.0002489"}, {"statNm": "\ud604\ub300\uc790\ub3d9\ucc28 \uc218\uc0c9\ub300\ub9ac\uc810", "addr": "\uc11c\uc6b8\ud2b9\ubcc4\uc2dc \uc740\ud3c9\uad6c \uc218\uc0c9\ub85c 342-1", "lat": "37.5867665", "lng": "126.8880299"}, {"statNm": "\uc740\ud3c9\uad6c\ubbfc\uccb4\uc721\uc13c\ud130", "addr": "\uc11c\uc6b8\ud2b9\ubcc4\uc2dc \uc740\ud3c9\uad6c \uc9c4\uad001\ub85c 40", "lat": "37.6310603", "lng": "126.9246413"}, {"statNm": "\ud0dc\ud654\ube4c\ub529", "addr": "\uc11c\uc6b8\ud2b9\ubcc4\uc2dc \uc885\ub85c\uad6c \uc778\uc0ac\ub3d95\uae38 29", "lat": "37.5718148", "lng": "126.9850443"}, {"statNm": "\ud55c\uad6d\uc608\uc220\uc885\ud569\ud559\uad50(\uc885\ub85c)", "addr": "\uc11c\uc6b8\ud2b9\ubcc4\uc2dc \uc885\ub85c\uad6c \ucc3d\uacbd\uad81\ub85c 215", "lat": "37.5824318", "lng": "126.9974047"}, {"statNm": "\uad6d\ub9bd\uadf9\uc7a5", "addr": "\uad6d\ub9bd\uadf9\uc7a5 \uc88c\uce21 \ucd9c\uad6c \uc8fc\ucc28\uc7a5", "lat": "37.5517908", "lng": "127.0002167"}, {"statNm": "\uad6d\ub9bd\uadf9\uc7a5", "addr": "\uad6d\ub9bd\uadf9\uc7a5 \uc88c\uce21 \ucd9c\uad6c \uc8fc\ucc28\uc7a5", "lat": "37.5517908", "lng": "127.0002167"}, {"statNm": "\ud648\ud50c\ub7ec\uc2a4 \uc0c1\ubd09\uc810", "addr": "\uc11c\uc6b8\ud2b9\ubcc4\uc2dc \uc911\ub791\uad6c \ub9dd\uc6b0\ub85c 353", "lat": "37.5983156", "lng": "127.0905669"}, {"statNm": "\ud648\ud50c\ub7ec\uc2a4 \uc2e0\ub0b4\uc810", "addr": "\uc11c\uc6b8\ud2b9\ubcc4\uc2dc \uc911\ub791\uad6c \uc2e0\ub0b4\ub85c 201", "lat": "37.6159847", "lng": "127.0939656"}, {"statNm": "\uc6a9\ub9c8\ud3ed\ud3ec\uacf5\uc6d0 \uacf5\uc601\uc8fc\ucc28\uc7a5", "addr": "\uc11c\uc6b8\ud2b9\ubcc4\uc2dc \uc911\ub791\uad6c \uc6a9\ub9c8\uc0b0\ub85c 250-12", "lat": "37.5745068", "lng": "127.089592"}, {"statNm": "\uc11c\uc6b8\ub9cc\ub0a8\ud734\uac8c\uc18c(\ubd80\uc0b0\ubc29\ud5a5)", "addr": "\uc11c\uc6b8\ud2b9\ubcc4\uc2dc \uc11c\ucd08\uad6c \uc591\uc7ac\ub300\ub85c12\uae38 73-71 (\uc6d0\uc9c0\ub3d9)", "lat": "37.4600218", "lng": "127.0420378"}, {"statNm": "\uc11c\uc6b8\ub9cc\ub0a8\ud734\uac8c\uc18c(\ubd80\uc0b0\ubc29\ud5a5)", "addr": "\uc11c\uc6b8\ud2b9\ubcc4\uc2dc \uc11c\ucd08\uad6c \uc591\uc7ac\ub300\ub85c12\uae38 73-71 (\uc6d0\uc9c0\ub3d9)", "lat": "37.4600218", "lng": "127.0420378"}, {"statNm": "\ud30c\ud06c\ud558\uc58f\ud2b8\uc11c\uc6b8\ud638\ud154", "addr": "\uc11c\uc6b8\ud2b9\ubcc4\uc2dc \uac15\ub0a8\uad6c \ud14c\ud5e4\ub780\ub85c606", "lat": "37.508834", "lng": "127.064114"}, {"statNm": "\uc2a4\uc704\uc2a4\uadf8\ub79c\ub4dc\ud638\ud154(\uad6c \uadf8\ub79c\ub4dc\ud790\ud2bc\ud638\ud154)", "addr": "\uc11c\uc6b8\ud2b9\ubcc4\uc2dc \uc11c\ub300\ubb38\uad6c \uc5f0\ud76c\ub85c 353", "lat": "37.590003", "lng": "126.934744"}, {"statNm": "\ub86f\ub370 VIC\ub9c8\ucf13 \uae08\ucc9c\uc810", "addr": "null", "lat": "37.470581", "lng": "126.895698"}, {"statNm": "\ub86f\ub370 VIC\ub9c8\ucf13 \uae08\ucc9c\uc810", "addr": "null", "lat": "37.470581", "lng": "126.895698"}, {"statNm": "\uc6b0\ub9ac\uc740\ud589\ubcf8\uc810", "addr": "\uc11c\uc6b8\ud2b9\ubcc4\uc2dc \uc911\uad6c \uc18c\uacf5\ub85c 51\ubc88\uc9c0", "lat": "37.559534", "lng": "126.981817"}, {"statNm": "\uc6b0\ub9ac\uc740\ud589\ubcf8\uc810", "addr": "\uc11c\uc6b8\ud2b9\ubcc4\uc2dc \uc911\uad6c \uc18c\uacf5\ub85c 51\ubc88\uc9c0", "lat": "37.559534", "lng": "126.981817"}, {"statNm": "\ub9c8\uace1\ub808\ud3ec\uce20\uc13c\ud130", "addr": "\uc11c\uc6b8\ud2b9\ubcc4\uc2dc \uac15\uc11c\uad6c \uc591\ucc9c\ub85c 251, \uc785\uad6c \uc6b0\uce21", "lat": "37.5728411", "lng": "126.8323738"}, {"statNm": "\ucc3d2\ub3d9 \uc81c4\uacf5\uc601\uc8fc\ucc28\uc7a5", "addr": "\uc11c\uc6b8\ud2b9\ubcc4\uc2dc \ub3c4\ubd09\uad6c \ucc3d2\ub3d9 582-22", "lat": "37.6413031", "lng": "127.0364035"}, {"statNm": "\ucc3d3\ub3d9 \uc81c1\uacf5\uc601\uc8fc\ucc28\uc7a5", "addr": "\uc11c\uc6b8\ud2b9\ubcc4\uc2dc \ub3c4\ubd09\uad6c \ucc3d3\ub3d9 504-21, \uc88c\uce21 \uc548\ucabd", "lat": "37.6332558", "lng": "127.0412125"}, {"statNm": "\ucc3d\ucc9c\uacf5\uc601\uc8fc\ucc28\uc7a5", "addr": "\uc11c\uc6b8\ud2b9\ubcc4\uc2dc \ub9c8\ud3ec\uad6c \ub178\uace0\uc0b0\ub3d9 33-1, B3 28", "lat": "37.55493", "lng": "126.9389738"}, {"statNm": "\ubc88\ub3d9\ud587\uc0b4 \uacf5\uc601\uc8fc\ucc28\uc7a5", "addr": "\uc11c\uc6b8\ud2b9\ubcc4\uc2dc \uac15\ubd81\uad6c \uc624\ud604\ub85c 21\uae38 84, \uc625\uc0c1 \uc8fc\ucc28\uc7a5", "lat": "37.6249449", "lng": "127.0334805"}, {"statNm": "\ub09c\ud5a5\ub3d9 \uc8fc\ubbfc\uc13c\ud130", "addr": "\uc11c\uc6b8\ud2b9\ubcc4\uc2dc \uad00\uc545\uad6c \ub09c\uace1\ub85c 67", "lat": "37.4616153", "lng": "126.9189711"}, {"statNm": "\uc2dc\ud765\uc81c4\ub3d9\uacf5\uc601\uc8fc\ucc28\uc7a5", "addr": "\uc11c\uc6b8\ud2b9\ubcc4\uc2dc \uae08\ucc9c\uad6c \ub3c5\uc0b0\ub85c 36\ub098\uae38 21, B1 18", "lat": "37.4589664", "lng": "126.9084827"}, {"statNm": "\uc30d\ubb383\ub3d9 \uc81c2\uacf5\uc601\uc8fc\ucc28\uc7a5", "addr": "\uc11c\uc6b8\ud2b9\ubcc4\uc2dc \ub3c4\ubd09\uad6c \uc30d\ubb383\ub3d9 315-62, \uc9c0\ud558 1\uce35 \uc548\ucabd", "lat": "37.6493531", "lng": "127.0293841"}, {"statNm": "\uc2a4\ud0e0\ud3ec\ub4dc\ud638\ud154\ucf54\ub9ac\uc544", "addr": "\uc11c\uc6b8\ud2b9\ubcc4\uc2dc \ub9c8\ud3ec\uad6c \uc0c1\uc554\ub3d9 \uc6d4\ub4dc\ucef5\ubd81\ub85c 58\uae38 15, \uc9c0\ud5584\uce35 18", "lat": "37.5823581", "lng": "126.886648"}, {"statNm": "\uc885\ubb18 \uacf5\uc601\uc8fc\ucc28\uc7a5", "addr": "\uc11c\uc6b8\ud2b9\ubcc4\uc2dc \uc885\ub85c\uad6c \uc885\ub85c 157", "lat": "37.571076", "lng": "126.99588"}, {"statNm": "\uc138\uc885\ub85c \uacf5\uc601\uc8fc\ucc28\uc7a5", "addr": "\uc11c\uc6b8\ud2b9\ubcc4\uc2dc \uc885\ub85c\uad6c \uc138\uc885\ub300\ub85c 189", "lat": "37.573611", "lng": "126.976011"}, {"statNm": "\uadf8\ub79c\ub4dc\uc570\ubc30\uc11c\ub354 \uc11c\uc6b8", "addr": "\uc11c\uc6b8\ud2b9\ubcc4\uc2dc \uc911\uad6c \ub3d9\ud638\ub85c 287", "lat": "37.559352", "lng": "127.002350"}, {"statNm": "\ud55c\uac15\uc9c4\uc5ed \uacf5\uc601\uc8fc\ucc28\uc7a5", "addr": "\uc11c\uc6b8\ud2b9\ubcc4\uc2dc \uc6a9\uc0b0\uad6c \ud55c\ub0a8\ub3d9 \uc0b010-84", "lat": "37.540085", "lng": "127.002804"}, {"statNm": "\ub9c8\uc7a5\ub3d9\uc0ac\ubb34\uc18c \uc55e(\uacf5\uc911\uc804\ud654\ubd80\uc2a4)", "addr": "\uc11c\uc6b8\ud2b9\ubcc4\uc2dc \uc131\ub3d9\uad6c \ub9c8\uc7a5\ub3d9 808", "lat": "37.5660935", "lng": "127.0455256"}, {"statNm": "\uccad\ub7c9\ub9ac\ub86f\ub370\ubc31\ud654\uc810", "addr": "\uc11c\uc6b8\ud2b9\ubcc4\uc2dc \ub3d9\ub300\ubb38\uad6c \uc655\uc0b0\ub85c 214", "lat": "37.580650", "lng": "127.047938"}, {"statNm": "\uc774\ub9c8\ud2b8 \uc774\ubb38\uc810", "addr": "\uc11c\uc6b8\ud2b9\ubcc4\uc2dc \ub3d9\ub300\ubb38\uad6c \uc774\ubb38\ub85c 136", "lat": "37.598454", "lng": "127.061848"}, {"statNm": "\ud648\ud50c\ub7ec\uc2a4 \uc6d4\uace1\uc810", "addr": "\uc11c\uc6b8\ud2b9\ubcc4\uc2dc \uc131\ubd81\uad6c \ud654\ub791\ub85c 76", "lat": "37.60208293", "lng": "127.04002398"}, {"statNm": "\uc131\ubd81\ubca4\ucc98\ube4c\ub529 \uacf5\uc601\uc8fc\ucc28\uc7a5", "addr": "\uc11c\uc6b8\ud2b9\ubcc4\uc2dc \uc131\ubd81\uad6c \uc7a5\uc7042\ub3d9 65-154", "lat": "37.60936", "lng": "127.053263"}, {"statNm": "\ub86f\ub370\ub9c8\ud2b8 \uc0bc\uc591\uc810", "addr": "\uc11c\uc6b8\ud2b9\ubcc4\uc2dc \uac15\ubd81\uad6c \uc0bc\uc591\ub85c 247", "lat": "37.625405", "lng": "127.017897"}, {"statNm": "\uc774\ub9c8\ud2b8 \uc740\ud3c9\uc810", "addr": "\uc11c\uc6b8\ud2b9\ubcc4\uc2dc \uc740\ud3c9\uad6c \uc740\ud3c9\ub85c 111", "lat": "37.60047527", "lng": "126.92047408"}, {"statNm": "\uad6c\ud30c\ubc1c\uc5ed \ud658\uc2b9\uc8fc\ucc28\uc7a5", "addr": "\uc11c\uc6b8\ud2b9\ubcc4\uc2dc \uc740\ud3c9\uad6c \uc9c4\uad00\ub3d9 66-30", "lat": "37.637910", "lng": "126.91910"}, {"statNm": "\ud648\ud50c\ub7ec\uc2a4 \uc6d4\ub4dc\ucef5\uc810", "addr": "\uc11c\uc6b8\ud2b9\ubcc4\uc2dc \ub9c8\ud3ec\uad6c \uc6d4\ub4dc\ucef5\ub85c 240", "lat": "37.566685", "lng": "126.898753"}, {"statNm": "\uc2dc\uc124\uad00\ub9ac\uacf5\ub2e8 \ub9c8\ud3ec\uc720\uc218\uc9c0\uc8fc\ucc28\uc7a5", "addr": "\uc11c\uc6b8\ud2b9\ubcc4\uc2dc \ub9c8\ud3ec\uad6c \ub9c8\ud3ec\ub300\ub85c1\uae38 19", "lat": "37.539442", "lng": "126.943054"}, {"statNm": "\ud648\ud50c\ub7ec\uc2a4 \ubaa9\ub3d9\uc810", "addr": "\uc11c\uc6b8\ud2b9\ubcc4\uc2dc \uc591\ucc9c\uad6c \ubaa9\ub3d9\uc11c\ub85c 170", "lat": "37.52992611", "lng": "126.87364033"}, {"statNm": "\ud574\ub9de\uc774\uacf5\uc601\uc8fc\ucc28\uc7a5", "addr": "\uc11c\uc6b8\ud2b9\ubcc4\uc2dc \uc591\ucc9c\uad6c \uc9c0\uc591\ub85c 47", "lat": "37.520062", "lng": "126.834854"}, {"statNm": "\ud648\ud50c\ub7ec\uc2a4 \uac00\uc591\uc810", "addr": "\uc11c\uc6b8\ud2b9\ubcc4\uc2dc \uac15\uc11c\uad6c \uc591\ucc9c\ub85c 431", "lat": "37.56401856", "lng": "126.85059572"}, {"statNm": "\ub86f\ub370\ub9c8\ud2b8 \uae40\ud3ec\uacf5\ud56d\uc810", "addr": "\uc11c\uc6b8\ud2b9\ubcc4\uc2dc \uac15\uc11c\uad6c \ud558\ub298\uae38 77", "lat": "37.563453", "lng": "126.803539"}, {"statNm": "\uba54\uc774\ud544\ub4dc\ud638\ud154", "addr": "\uc11c\uc6b8\ud2b9\ubcc4\uc2dc \uac15\uc11c\uad6c \ubc29\ud654\ub300\ub85c 94", "lat": "37.546851", "lng": "126.818613"}, {"statNm": "\ucc9c\uc655\uc5ed \ud658\uc2b9\uc8fc\ucc28\uc7a5", "addr": "\uc11c\uc6b8\ud2b9\ubcc4\uc2dc \uad6c\ub85c\uad6c \uc624\ub958\ub3d9 174-10", "lat": "37.487234", "lng": "126.839153"}, {"statNm": "\uad6c\ub85c\ub9ac\uacf5\uc6d0 \uc55e(\uacf5\uc911\uc804\ud654\ubd80\uc2a4)", "addr": "\uc11c\uc6b8\ud2b9\ubcc4\uc2dc \uad6c\ub85c\uad6c \uad6c\ub85c\ub3d9 136-14", "lat": "37.4912466", "lng": "126.8919514"}, {"statNm": "\ud648\ud50c\ub7ec\uc2a4 \uc2dc\ud765\uc810", "addr": "\uc11c\uc6b8\ud2b9\ubcc4\uc2dc \uae08\ucc9c\uad6c \uc2dc\ud765\ub300\ub85c 201", "lat": "37.45222814", "lng": "126.90093936"}, {"statNm": "\uc81c\uc77c\ubaa8\uc9c1\uc544\uc6b8\ub81b \uac74\ub108\ud3b8(\uacf5\uc911\uc804\ud654\ubd80\uc2a4)", "addr": "\uc11c\uc6b8\ud2b9\ubcc4\uc2dc \uae08\ucc9c\uad6c \uac00\uc0b0\ub3d9 239-27", "lat": "37.4744454", "lng": "126.8867302"}, {"statNm": "\uc601\ub4f1\ud3ec\uad6c \ub300\uc2e0\uc2dc\uc7a5(\uacf5\uc911\uc804\ud654\ubd80\uc2a4)", "addr": "\uc11c\uc6b8\ud2b9\ubcc4\uc2dc \uc601\ub4f1\ud3ec\uad6c \uc2e0\uae381\ub3d9 116-15", "lat": "37.5113404", "lng": "126.9176919"}, {"statNm": "\ub3d9\uc791\uc8fc\ucc28\uacf5\uc6d0 \uacf5\uc601\uc8fc\ucc28\uc7a5", "addr": "\uc11c\uc6b8\ud2b9\ubcc4\uc2dc \ub3d9\uc791\uad6c \ud604\ucda9\ub85c 213", "lat": "37.503803", "lng": "126.976775"}, {"statNm": "\uc870\uc6d0\ub3d9 \uc81c1\uacf5\uc601\uc8fc\ucc28\uc7a5", "addr": "\uc11c\uc6b8\ud2b9\ubcc4\uc2dc \uad00\uc545\uad6c \uc2e0\ub9bc\ub3d9 571-6", "lat": "37.481069", "lng": "126.905703"}, {"statNm": "\uc0ac\ub2f9\uc5ed \uacf5\uc601\uc8fc\ucc28\uc7a5", "addr": "\uc11c\uc6b8\ud2b9\ubcc4\uc2dc \uc11c\ucd08\uad6c \uacfc\ucc9c\ub300\ub85c 950-18", "lat": "37.475256", "lng": "126.982638"}, {"statNm": "\uc774\ub9c8\ud2b8 \uc591\uc7ac\uc810", "addr": "\uc11c\uc6b8\ud2b9\ubcc4\uc2dc \uc11c\ucd08\uad6c \ub9e4\ud5cc\ub85c 16", "lat": "37.463293", "lng": "127.036812"}, {"statNm": "\uc218\uc11c\uc5ed \uacf5\uc601\uc8fc\ucc28\uc7a5", "addr": "\uc11c\uc6b8\ud2b9\ubcc4\uc2dc \uac15\ub0a8\uad6c \uc218\uc11c\ub3d9 735", "lat": "37.487569", "lng": "127.101016"}, {"statNm": "\ud559\uc5ec\uc6b8\uc5ed \uacf5\uc601\uc8fc\ucc28\uc7a5", "addr": "\uc11c\uc6b8\ud2b9\ubcc4\uc2dc \uac15\ub0a8\uad6c \ub0a8\ubd80\uc21c\ud658\ub85c 3104", "lat": "37.496722", "lng": "127.070444"}, {"statNm": "\ub86f\ub370\ub9c8\ud2b8 \uc7a0\uc2e4\uc810", "addr": "\uc11c\uc6b8\ud2b9\ubcc4\uc2dc \uc1a1\ud30c\uad6c \uc62c\ub9bc\ud53d\ub85c 240", "lat": "37.511818", "lng": "127.096321"}, {"statNm": "\uc774\ub9c8\ud2b8 \uba85\uc77c\uc810", "addr": "\uc11c\uc6b8\ud2b9\ubcc4\uc2dc \uac15\ub3d9\uad6c \uace0\ub355\ub85c 276", "lat": "37.554606", "lng": "127.155966"}, {"statNm": "\ub178\ubcf4\ud154", "addr": "\uc11c\uc6b8\ud2b9\ubcc4\uc2dc \uac15\ub0a8\uad6c \ubd09\uc740\uc0ac\ub85c 130", "lat": "37.5052721", "lng": "127.0289991"}, {"statNm": "\uc554\uc0ac1\ub3d9 \uacf5\uc601\uc8fc\ucc28\uc7a5", "addr": "\uc11c\uc6b8\ud2b9\ubcc4\uc2dc \uac15\ub3d9\uad6c \uace0\ub355\ub85c28\uae38 36", "lat": "37.5529087", "lng": "127.1372547"}, {"statNm": "\ucc9c\ud638\uc720\uc218\uc9c0 \uacf5\uc601\uc8fc\ucc28\uc7a5", "addr": "\uc11c\uc6b8\ud2b9\ubcc4\uc2dc \uac15\ub3d9\uad6c \uc120\uc0ac\ub85c 70", "lat": "37.5448122", "lng": "127.1218396"}, {"statNm": "\ucc9c\ud6383\ub3d9 \uc81c1\uacf5\uc601\uc8fc\ucc28\uc7a5", "addr": "\uc11c\uc6b8\ud2b9\ubcc4\uc2dc \uac15\ub3d9\uad6c \uc9c4\ud669\ub3c4\ub85c29\uae38 34", "lat": "37.5387951", "lng": "127.1333987"}, {"statNm": "\uac00\ub85c\uacf5\uc6d0\ub85c \uc9c0\ud558\uacf5\uc601\uc8fc\ucc28\uc7a5", "addr": "\uc11c\uc6b8\ud2b9\ubcc4\uc2dc \uac15\uc11c\uad6c \uac00\ub85c\uacf5\uc6d0\ub85c 189", "lat": "37.5372628", "lng": "126.8383789"}, {"statNm": "\uacf0\ub2ec\ub798\ubb38\ud654\ubcf5\uc9c0\uc13c\ud130 \uacf5\uc601\uc8fc\ucc28\uc7a5", "addr": "\uc11c\uc6b8\ud2b9\ubcc4\uc2dc \uac15\uc11c\uad6c \uac15\uc11c\ub85c5\uae38 50", "lat": "37.5289561", "lng": "126.8490887"}, {"statNm": "\ubccf\uace8\uacf5\uc6d0 \uc9c0\ud558\uacf5\uc601\uc8fc\ucc28\uc7a5", "addr": "\uc11c\uc6b8\ud2b9\ubcc4\uc2dc \uac15\uc11c\uad6c \uae4c\uce58\uc0b0\ub85c4\uae38 22", "lat": "37.5419747", "lng": "126.8444499"}, {"statNm": "\ud654\uace16-1 \uacf5\uc601\uc8fc\ucc28\uc7a5", "addr": "\uc11c\uc6b8\ud2b9\ubcc4\uc2dc \uac15\uc11c\uad6c \uc6b0\uc7a5\uc0b0\ub85c 114", "lat": "37.5530457", "lng": "126.8488169"}, {"statNm": "\ud648\ud50c\ub7ec\uc2a4 \uac15\uc11c\uc810", "addr": "\uc11c\uc6b8\ud2b9\ubcc4\uc2dc \uac15\uc11c\uad6c \ud654\uace1\ub85c 398", "lat": "37.5591218", "lng": "126.8549199"}, {"statNm": "\uc2e0\ub9bc\ub3d9 \uc81c1\uacf5\uc601\uc8fc\ucc28\uc7a5", "addr": "\uc11c\uc6b8\ud2b9\ubcc4\uc2dc \uad00\uc545\uad6c \uad00\ucc9c\ub85c 98", "lat": "37.4874046", "lng": "126.9235075"}, {"statNm": "\ub09c\uace1\ub3d9 \uc81c1\uacf5\uc601\uc8fc\ucc28\uc7a5", "addr": "\uc11c\uc6b8\ud2b9\ubcc4\uc2dc \uad00\uc545\uad6c \ub09c\uace1\ub85c34\ub098\uae38 14", "lat": "37.4722977", "lng": "126.9231169"}, {"statNm": "\ub099\uc131\ub300\ub3d9\uc8fc\ubbfc\uc13c\ud130", "addr": "\uc11c\uc6b8\ud2b9\ubcc4\uc2dc \uad00\uc545\uad6c \ub099\uc131\ub300\ub85c4\uac00\uae38 5", "lat": "37.476296", "lng": "126.9583876"}, {"statNm": "\ub099\uc131\ub300\ub3d9\uc8fc\ubbfc\uc13c\ud130", "addr": "\uc11c\uc6b8\ud2b9\ubcc4\uc2dc \uad00\uc545\uad6c \ub099\uc131\ub300\ub85c4\uac00\uae38 5", "lat": "37.476296", "lng": "126.9583876"}, {"statNm": "\ubcf4\ub77c\ub9e4 \uc81c1\uacf5\uc601\uc8fc\ucc28\uc7a5", "addr": "\uc11c\uc6b8\ud2b9\ubcc4\uc2dc \uad00\uc545\uad6c \ubd09\ucc9c\ub85c21\uae38 38", "lat": "37.488301", "lng": "126.9346119"}, {"statNm": "\ubcf4\ub77c\ub9e4 \uc81c1\uacf5\uc601\uc8fc\ucc28\uc7a5", "addr": "\uc785\uad6c\uc88c\uce21, \uc9c0\ud558 \uac01 1\uae30", "lat": "37.488301", "lng": "126.9346119"}, {"statNm": "\uc6d0\uc2e0 \uacf5\uc601\uc8fc\ucc28\uc7a5", "addr": "\uc11c\uc6b8\ud2b9\ubcc4\uc2dc \uad00\uc545\uad6c \uc591\uc9c0\uae38 63", "lat": "37.470038", "lng": "126.9292421"}, {"statNm": "\uc5b4\ub9b0\uc774\ub300\uacf5\uc6d0 \ud6c4\ubb38\uc8fc\ucc28\uc7a5", "addr": "\uc11c\uc6b8\ud2b9\ubcc4\uc2dc \uad11\uc9c4\uad6c \ub2a5\ub3d9\ub85c 216", "lat": "37.5515067", "lng": "127.0869275"}, {"statNm": "\ud648\ud50c\ub7ec\uc2a4 \uc2e0\ub3c4\ub9bc\uc810", "addr": "\uc11c\uc6b8\ud2b9\ubcc4\uc2dc \uad6c\ub85c\uad6c \uacbd\uc778\ub85c 661", "lat": "37.5099693", "lng": "126.888413"}, {"statNm": "\ub86f\ub370\ub9c8\ud2b8 \uc911\uacc4\uc810", "addr": "\uc11c\uc6b8\ud2b9\ubcc4\uc2dc \ub178\uc6d0\uad6c \ub178\uc6d0\ub85c 330", "lat": "37.6466673", "lng": "127.0715514"}, {"statNm": "\ud648\ud50c\ub7ec\uc2a4 \uc911\uacc4\uc810", "addr": "\uc11c\uc6b8\ud2b9\ubcc4\uc2dc \ub178\uc6d0\uad6c \ub3d9\uc77c\ub85c204\uac00\uae38 12", "lat": "37.6400856", "lng": "127.0685413"}, {"statNm": "\uc2e4\uc99d\uc6a9 Mock-up \uc8fc\ud0dd \ud64d\ubcf4\uad00", "addr": "\uc11c\uc6b8\ud2b9\ubcc4\uc2dc \ub178\uc6d0\uad6c \ud558\uacc4\ub3d9 251-8", "lat": "37.6381803", "lng": "127.0737876"}, {"statNm": "\uc2e4\uc99d\uc6a9 Mock-up \uc8fc\ud0dd \ud64d\ubcf4\uad00", "addr": "\uc11c\uc6b8\ud2b9\ubcc4\uc2dc \ub178\uc6d0\uad6c \ud558\uacc4\ub3d9 251-8", "lat": "37.6381803", "lng": "127.0737876"}, {"statNm": "\ub3d9\ub300\ubb38\uad6c\uccad", "addr": "\uc11c\uc6b8\ud2b9\ubcc4\uc2dc \ub3d9\ub300\ubb38\uad6c \ucc9c\ud638\ub300\ub85c 145", "lat": "37.5746807", "lng": "127.0401814"}, {"statNm": "\uc911\uc559\ub300\ud559\uad50\ubcd1\uc6d0 \ub2e4\uc815\uad00 \uc8fc\ucc28\uc7a5", "addr": "\uc11c\uc6b8\ud2b9\ubcc4\uc2dc \ub3d9\uc791\uad6c \ud751\uc11d\ub85c 102", "lat": "37.5055471", "lng": "126.9607195"}, {"statNm": "\uc591\ud654\uc9c4\uacf5\uc601\uc8fc\ucc28\uc7a5", "addr": "\uc11c\uc6b8\ud2b9\ubcc4\uc2dc \ub9c8\ud3ec\uad6c \ud1a0\uc815\ub85c 2", "lat": "37.5457992", "lng": "126.9117265"}, {"statNm": "\uacf5\ub3551-1\uacf5\uc601\uc8fc\ucc28\uc7a5", "addr": "\uc625\uc0c1", "lat": "37.5471234", "lng": "126.9612454"}, {"statNm": "\ud64d\uc81c\uacac\uc778\ucc28\ub7c9\ubcf4\uad00\uc18c \uc8fc\ucc28\uc7a5", "addr": "\uc11c\uc6b8\ud2b9\ubcc4\uc2dc \uc11c\ub300\ubb38\uad6c \ud64d\uc81c\ub0b4\uae38 227", "lat": "37.5905929", "lng": "126.9407564"}, {"statNm": "\ud64d\uc81c\uacac\uc778\ucc28\ub7c9\ubcf4\uad00\uc18c \uc8fc\ucc28\uc7a5", "addr": "\uc11c\uc6b8\ud2b9\ubcc4\uc2dc \uc11c\ub300\ubb38\uad6c \ud64d\uc81c\ub0b4\uae38 227", "lat": "37.5905929", "lng": "126.9407564"}, {"statNm": "\uc11c\uc6b8\uc2dc\uc778\uc7ac\uac1c\ubc1c\uc6d0", "addr": "\uc11c\uc6b8\ud2b9\ubcc4\uc2dc \uc11c\ucd08\uad6c \ub0a8\ubd80\uc21c\ud658\ub85c 340\uae38 58", "lat": "37.481369", "lng": "127.0238502"}, {"statNm": "\uc11c\uc6b8\ucd94\ubaa8\uacf5\uc6d0", "addr": "\uc11c\uc6b8\ud2b9\ubcc4\uc2dc \uc11c\ucd08\uad6c \uc591\uc7ac\ub300\ub85c12\uae38 74", "lat": "37.4536062", "lng": "127.0428005"}, {"statNm": "\uc544\uc2dc\uc544\uacf5\uc6d0 \uacf5\uc601\uc8fc\ucc28\uc7a5", "addr": "\uc11c\uc6b8\ud2b9\ubcc4\uc2dc \uc1a1\ud30c\uad6c \uc7a0\uc2e4\ub3d9 84", "lat": "37.5102969", "lng": "127.0788121"}, {"statNm": "\uc544\uc2dc\uc544\uacf5\uc6d0 \uacf5\uc601\uc8fc\ucc28\uc7a5", "addr": "\uc11c\uc6b8\ud2b9\ubcc4\uc2dc \uc1a1\ud30c\uad6c \uc7a0\uc2e4\ub3d9 84", "lat": "37.5102969", "lng": "127.0788121"}, {"statNm": "\uc544\uc2dc\uc544\uacf5\uc6d0 \uacf5\uc601\uc8fc\ucc28\uc7a5", "addr": "\uc11c\uc6b8\ud2b9\ubcc4\uc2dc \uc1a1\ud30c\uad6c \uc7a0\uc2e4\ub3d9 84", "lat": "37.5102969", "lng": "127.0788121"}, {"statNm": "\ub86f\ub370\ub9c8\ud2b8 \uc1a1\ud30c\uc810", "addr": "\uc11c\uc6b8\ud2b9\ubcc4\uc2dc \uc1a1\ud30c\uad6c \uc911\ub300\ub85c 80", "lat": "37.4918392", "lng": "127.1178931"}, {"statNm": "\ud648\ud50c\ub7ec\uc2a4 \uc601\ub4f1\ud3ec\uc810", "addr": "\uc11c\uc6b8\ud2b9\ubcc4\uc2dc \uc601\ub4f1\ud3ec\uad6c \ub2f9\uc0b0\ub85c 42", "lat": "37.5190208", "lng": "126.8957999"}, {"statNm": "\uc2e0\uae386\ub3d9 \uacf5\uc601\ub178\uc678\uc8fc\ucc28\uc7a5(\uad6c \uc2e0\uae38 \uc81c5\ub3d9 \uc8fc\ubbfc\uc13c\ud130)", "addr": "\uc11c\uc6b8\ud2b9\ubcc4\uc2dc \uc601\ub4f1\ud3ec\uad6c \uc2e0\uae38\ub3d9 3203", "lat": "37.502512989", "lng": "126.9110497"}, {"statNm": "\uc2e0\uae384\ub3d91\ub9c8\uc744\uacf5\uc6d0 \uacf5\uc601\uc8fc\ucc28\uc7a5", "addr": "\uc11c\uc6b8\ud2b9\ubcc4\uc2dc \uc601\ub4f1\ud3ec\uad6c \uc2e0\uae38\ub85c40\uae38 5", "lat": "37.507122", "lng": "126.9116817"}, {"statNm": "\ub2f9\uc0b0\uc5d0\uc2a4\uc5d0\uc774\uce58\ube4c \uc544\ud30c\ud2b8 \uc55e", "addr": "\uc11c\uc6b8\ud2b9\ubcc4\uc2dc \uc601\ub4f1\ud3ec\uad6c \uc601\uc2e0\ub85c 183", "lat": "37.524217", "lng": "126.9019801"}, {"statNm": "\uc601\ub4f1\ud3ec \uc81c3\uacf5\uc601", "addr": "\uc11c\uc6b8\ud2b9\ubcc4\uc2dc \uc601\ub4f1\ud3ec\uad6c \uc601\uc911\ub85c3\uae38 7", "lat": "37.5180087", "lng": "126.9030865"}, {"statNm": "\uc2e0\ucc3d\ub3d9 \uacf5\uc601\uc8fc\ucc28\uc7a5", "addr": "\uc11c\uc6b8\ud2b9\ubcc4\uc2dc \uc6a9\uc0b0\uad6c \uc6d0\ud6a8\ub85c35\uae38 53", "lat": "37.5353568", "lng": "126.9552587"}, {"statNm": "\ud55c\ub0a8\ub3d9 \uacf5\uc601\uc8fc\ucc28\uc7a5", "addr": "\uc11c\uc6b8\ud2b9\ubcc4\uc2dc \uc6a9\uc0b0\uad6c \uc774\ud0dc\uc6d0\ub85c 224-19", "lat": "37.5349284", "lng": "127.0002489"}, {"statNm": "\ud604\ub300\uc790\ub3d9\ucc28 \uc218\uc0c9\ub300\ub9ac\uc810", "addr": "\uc11c\uc6b8\ud2b9\ubcc4\uc2dc \uc740\ud3c9\uad6c \uc218\uc0c9\ub85c 342-1", "lat": "37.5867665", "lng": "126.8880299"}, {"statNm": "\uc740\ud3c9\uad6c\ubbfc\uccb4\uc721\uc13c\ud130", "addr": "\uc11c\uc6b8\ud2b9\ubcc4\uc2dc \uc740\ud3c9\uad6c \uc9c4\uad001\ub85c 40", "lat": "37.6310603", "lng": "126.9246413"}, {"statNm": "\ud0dc\ud654\ube4c\ub529", "addr": "\uc11c\uc6b8\ud2b9\ubcc4\uc2dc \uc885\ub85c\uad6c \uc778\uc0ac\ub3d95\uae38 29", "lat": "37.5718148", "lng": "126.9850443"}, {"statNm": "\ud55c\uad6d\uc608\uc220\uc885\ud569\ud559\uad50(\uc885\ub85c)", "addr": "\uc11c\uc6b8\ud2b9\ubcc4\uc2dc \uc885\ub85c\uad6c \ucc3d\uacbd\uad81\ub85c 215", "lat": "37.5824318", "lng": "126.9974047"}, {"statNm": "\uad6d\ub9bd\uadf9\uc7a5", "addr": "\uad6d\ub9bd\uadf9\uc7a5 \uc88c\uce21 \ucd9c\uad6c \uc8fc\ucc28\uc7a5", "lat": "37.5517908", "lng": "127.0002167"}, {"statNm": "\uad6d\ub9bd\uadf9\uc7a5", "addr": "\uad6d\ub9bd\uadf9\uc7a5 \uc88c\uce21 \ucd9c\uad6c \uc8fc\ucc28\uc7a5", "lat": "37.5517908", "lng": "127.0002167"}, {"statNm": "\ud648\ud50c\ub7ec\uc2a4 \uc0c1\ubd09\uc810", "addr": "\uc11c\uc6b8\ud2b9\ubcc4\uc2dc \uc911\ub791\uad6c \ub9dd\uc6b0\ub85c 353", "lat": "37.5983156", "lng": "127.0905669"}, {"statNm": "\ud648\ud50c\ub7ec\uc2a4 \uc2e0\ub0b4\uc810", "addr": "\uc11c\uc6b8\ud2b9\ubcc4\uc2dc \uc911\ub791\uad6c \uc2e0\ub0b4\ub85c 201", "lat": "37.6159847", "lng": "127.0939656"}, {"statNm": "\uc6a9\ub9c8\ud3ed\ud3ec\uacf5\uc6d0 \uacf5\uc601\uc8fc\ucc28\uc7a5", "addr": "\uc11c\uc6b8\ud2b9\ubcc4\uc2dc \uc911\ub791\uad6c \uc6a9\ub9c8\uc0b0\ub85c 250-12", "lat": "37.5745068", "lng": "127.089592"}, {"statNm": "\uc11c\uc6b8\ub9cc\ub0a8\ud734\uac8c\uc18c(\ubd80\uc0b0\ubc29\ud5a5)", "addr": "\uc11c\uc6b8\ud2b9\ubcc4\uc2dc \uc11c\ucd08\uad6c \uc591\uc7ac\ub300\ub85c12\uae38 73-71 (\uc6d0\uc9c0\ub3d9)", "lat": "37.4600218", "lng": "127.0420378"}, {"statNm": "\uc11c\uc6b8\ub9cc\ub0a8\ud734\uac8c\uc18c(\ubd80\uc0b0\ubc29\ud5a5)", "addr": "\uc11c\uc6b8\ud2b9\ubcc4\uc2dc \uc11c\ucd08\uad6c \uc591\uc7ac\ub300\ub85c12\uae38 73-71 (\uc6d0\uc9c0\ub3d9)", "lat": "37.4600218", "lng": "127.0420378"}, {"statNm": "\ud30c\ud06c\ud558\uc58f\ud2b8\uc11c\uc6b8\ud638\ud154", "addr": "\uc11c\uc6b8\ud2b9\ubcc4\uc2dc \uac15\ub0a8\uad6c \ud14c\ud5e4\ub780\ub85c606", "lat": "37.508834", "lng": "127.064114"}, {"statNm": "\uc2a4\uc704\uc2a4\uadf8\ub79c\ub4dc\ud638\ud154(\uad6c \uadf8\ub79c\ub4dc\ud790\ud2bc\ud638\ud154)", "addr": "\uc11c\uc6b8\ud2b9\ubcc4\uc2dc \uc11c\ub300\ubb38\uad6c \uc5f0\ud76c\ub85c 353", "lat": "37.590003", "lng": "126.934744"}, {"statNm": "\ub86f\ub370 VIC\ub9c8\ucf13 \uae08\ucc9c\uc810", "addr": "null", "lat": "37.470581", "lng": "126.895698"}, {"statNm": "\ub86f\ub370 VIC\ub9c8\ucf13 \uae08\ucc9c\uc810", "addr": "null", "lat": "37.470581", "lng": "126.895698"}, {"statNm": "\uc6b0\ub9ac\uc740\ud589\ubcf8\uc810", "addr": "\uc11c\uc6b8\ud2b9\ubcc4\uc2dc \uc911\uad6c \uc18c\uacf5\ub85c 51\ubc88\uc9c0", "lat": "37.559534", "lng": "126.981817"}, {"statNm": "\uc6b0\ub9ac\uc740\ud589\ubcf8\uc810", "addr": "\uc11c\uc6b8\ud2b9\ubcc4\uc2dc \uc911\uad6c \uc18c\uacf5\ub85c 51\ubc88\uc9c0", "lat": "37.559534", "lng": "126.981817"}, {"statNm": "\ub9c8\uace1\ub808\ud3ec\uce20\uc13c\ud130", "addr": "\uc11c\uc6b8\ud2b9\ubcc4\uc2dc \uac15\uc11c\uad6c \uc591\ucc9c\ub85c 251, \uc785\uad6c \uc6b0\uce21", "lat": "37.5728411", "lng": "126.8323738"}, {"statNm": "\ucc3d2\ub3d9 \uc81c4\uacf5\uc601\uc8fc\ucc28\uc7a5", "addr": "\uc11c\uc6b8\ud2b9\ubcc4\uc2dc \ub3c4\ubd09\uad6c \ucc3d2\ub3d9 582-22", "lat": "37.6413031", "lng": "127.0364035"}, {"statNm": "\ucc3d3\ub3d9 \uc81c1\uacf5\uc601\uc8fc\ucc28\uc7a5", "addr": "\uc11c\uc6b8\ud2b9\ubcc4\uc2dc \ub3c4\ubd09\uad6c \ucc3d3\ub3d9 504-21, \uc88c\uce21 \uc548\ucabd", "lat": "37.6332558", "lng": "127.0412125"}, {"statNm": "\ucc3d\ucc9c\uacf5\uc601\uc8fc\ucc28\uc7a5", "addr": "\uc11c\uc6b8\ud2b9\ubcc4\uc2dc \ub9c8\ud3ec\uad6c \ub178\uace0\uc0b0\ub3d9 33-1, B3 28", "lat": "37.55493", "lng": "126.9389738"}, {"statNm": "\ubc88\ub3d9\ud587\uc0b4 \uacf5\uc601\uc8fc\ucc28\uc7a5", "addr": "\uc11c\uc6b8\ud2b9\ubcc4\uc2dc \uac15\ubd81\uad6c \uc624\ud604\ub85c 21\uae38 84, \uc625\uc0c1 \uc8fc\ucc28\uc7a5", "lat": "37.6249449", "lng": "127.0334805"}, {"statNm": "\ub09c\ud5a5\ub3d9 \uc8fc\ubbfc\uc13c\ud130", "addr": "\uc11c\uc6b8\ud2b9\ubcc4\uc2dc \uad00\uc545\uad6c \ub09c\uace1\ub85c 67", "lat": "37.4616153", "lng": "126.9189711"}, {"statNm": "\uc2dc\ud765\uc81c4\ub3d9\uacf5\uc601\uc8fc\ucc28\uc7a5", "addr": "\uc11c\uc6b8\ud2b9\ubcc4\uc2dc \uae08\ucc9c\uad6c \ub3c5\uc0b0\ub85c 36\ub098\uae38 21, B1 18", "lat": "37.4589664", "lng": "126.9084827"}, {"statNm": "\uc30d\ubb383\ub3d9 \uc81c2\uacf5\uc601\uc8fc\ucc28\uc7a5", "addr": "\uc11c\uc6b8\ud2b9\ubcc4\uc2dc \ub3c4\ubd09\uad6c \uc30d\ubb383\ub3d9 315-62, \uc9c0\ud558 1\uce35 \uc548\ucabd", "lat": "37.6493531", "lng": "127.0293841"}, {"statNm": "\uc2a4\ud0e0\ud3ec\ub4dc\ud638\ud154\ucf54\ub9ac\uc544", "addr": "\uc11c\uc6b8\ud2b9\ubcc4\uc2dc \ub9c8\ud3ec\uad6c \uc0c1\uc554\ub3d9 \uc6d4\ub4dc\ucef5\ubd81\ub85c 58\uae38 15, \uc9c0\ud5584\uce35 18", "lat": "37.5823581", "lng": "126.886648"}, {"statNm": "\uc885\ubb18 \uacf5\uc601\uc8fc\ucc28\uc7a5", "addr": "\uc11c\uc6b8\ud2b9\ubcc4\uc2dc \uc885\ub85c\uad6c \uc885\ub85c 157", "lat": "37.571076", "lng": "126.99588"}, {"statNm": "\uc138\uc885\ub85c \uacf5\uc601\uc8fc\ucc28\uc7a5", "addr": "\uc11c\uc6b8\ud2b9\ubcc4\uc2dc \uc885\ub85c\uad6c \uc138\uc885\ub300\ub85c 189", "lat": "37.573611", "lng": "126.976011"}, {"statNm": "\uadf8\ub79c\ub4dc\uc570\ubc30\uc11c\ub354 \uc11c\uc6b8", "addr": "\uc11c\uc6b8\ud2b9\ubcc4\uc2dc \uc911\uad6c \ub3d9\ud638\ub85c 287", "lat": "37.559352", "lng": "127.002350"}, {"statNm": "\ud55c\uac15\uc9c4\uc5ed \uacf5\uc601\uc8fc\ucc28\uc7a5", "addr": "\uc11c\uc6b8\ud2b9\ubcc4\uc2dc \uc6a9\uc0b0\uad6c \ud55c\ub0a8\ub3d9 \uc0b010-84", "lat": "37.540085", "lng": "127.002804"}, {"statNm": "\ub9c8\uc7a5\ub3d9\uc0ac\ubb34\uc18c \uc55e(\uacf5\uc911\uc804\ud654\ubd80\uc2a4)", "addr": "\uc11c\uc6b8\ud2b9\ubcc4\uc2dc \uc131\ub3d9\uad6c \ub9c8\uc7a5\ub3d9 808", "lat": "37.5660935", "lng": "127.0455256"}, {"statNm": "\uccad\ub7c9\ub9ac\ub86f\ub370\ubc31\ud654\uc810", "addr": "\uc11c\uc6b8\ud2b9\ubcc4\uc2dc \ub3d9\ub300\ubb38\uad6c \uc655\uc0b0\ub85c 214", "lat": "37.580650", "lng": "127.047938"}, {"statNm": "\uc774\ub9c8\ud2b8 \uc774\ubb38\uc810", "addr": "\uc11c\uc6b8\ud2b9\ubcc4\uc2dc \ub3d9\ub300\ubb38\uad6c \uc774\ubb38\ub85c 136", "lat": "37.598454", "lng": "127.061848"}, {"statNm": "\ud648\ud50c\ub7ec\uc2a4 \uc6d4\uace1\uc810", "addr": "\uc11c\uc6b8\ud2b9\ubcc4\uc2dc \uc131\ubd81\uad6c \ud654\ub791\ub85c 76", "lat": "37.60208293", "lng": "127.04002398"}, {"statNm": "\uc131\ubd81\ubca4\ucc98\ube4c\ub529 \uacf5\uc601\uc8fc\ucc28\uc7a5", "addr": "\uc11c\uc6b8\ud2b9\ubcc4\uc2dc \uc131\ubd81\uad6c \uc7a5\uc7042\ub3d9 65-154", "lat": "37.60936", "lng": "127.053263"}, {"statNm": "\ub86f\ub370\ub9c8\ud2b8 \uc0bc\uc591\uc810", "addr": "\uc11c\uc6b8\ud2b9\ubcc4\uc2dc \uac15\ubd81\uad6c \uc0bc\uc591\ub85c 247", "lat": "37.625405", "lng": "127.017897"}, {"statNm": "\uc774\ub9c8\ud2b8 \uc740\ud3c9\uc810", "addr": "\uc11c\uc6b8\ud2b9\ubcc4\uc2dc \uc740\ud3c9\uad6c \uc740\ud3c9\ub85c 111", "lat": "37.60047527", "lng": "126.92047408"}, {"statNm": "\uad6c\ud30c\ubc1c\uc5ed \ud658\uc2b9\uc8fc\ucc28\uc7a5", "addr": "\uc11c\uc6b8\ud2b9\ubcc4\uc2dc \uc740\ud3c9\uad6c \uc9c4\uad00\ub3d9 66-30", "lat": "37.637910", "lng": "126.91910"}, {"statNm": "\ud648\ud50c\ub7ec\uc2a4 \uc6d4\ub4dc\ucef5\uc810", "addr": "\uc11c\uc6b8\ud2b9\ubcc4\uc2dc \ub9c8\ud3ec\uad6c \uc6d4\ub4dc\ucef5\ub85c 240", "lat": "37.566685", "lng": "126.898753"}, {"statNm": "\uc2dc\uc124\uad00\ub9ac\uacf5\ub2e8 \ub9c8\ud3ec\uc720\uc218\uc9c0\uc8fc\ucc28\uc7a5", "addr": "\uc11c\uc6b8\ud2b9\ubcc4\uc2dc \ub9c8\ud3ec\uad6c \ub9c8\ud3ec\ub300\ub85c1\uae38 19", "lat": "37.539442", "lng": "126.943054"}, {"statNm": "\ud648\ud50c\ub7ec\uc2a4 \ubaa9\ub3d9\uc810", "addr": "\uc11c\uc6b8\ud2b9\ubcc4\uc2dc \uc591\ucc9c\uad6c \ubaa9\ub3d9\uc11c\ub85c 170", "lat": "37.52992611", "lng": "126.87364033"}, {"statNm": "\ud574\ub9de\uc774\uacf5\uc601\uc8fc\ucc28\uc7a5", "addr": "\uc11c\uc6b8\ud2b9\ubcc4\uc2dc \uc591\ucc9c\uad6c \uc9c0\uc591\ub85c 47", "lat": "37.520062", "lng": "126.834854"}, {"statNm": "\ud648\ud50c\ub7ec\uc2a4 \uac00\uc591\uc810", "addr": "\uc11c\uc6b8\ud2b9\ubcc4\uc2dc \uac15\uc11c\uad6c \uc591\ucc9c\ub85c 431", "lat": "37.56401856", "lng": "126.85059572"}, {"statNm": "\ub86f\ub370\ub9c8\ud2b8 \uae40\ud3ec\uacf5\ud56d\uc810", "addr": "\uc11c\uc6b8\ud2b9\ubcc4\uc2dc \uac15\uc11c\uad6c \ud558\ub298\uae38 77", "lat": "37.563453", "lng": "126.803539"}, {"statNm": "\uba54\uc774\ud544\ub4dc\ud638\ud154", "addr": "\uc11c\uc6b8\ud2b9\ubcc4\uc2dc \uac15\uc11c\uad6c \ubc29\ud654\ub300\ub85c 94", "lat": "37.546851", "lng": "126.818613"}, {"statNm": "\ucc9c\uc655\uc5ed \ud658\uc2b9\uc8fc\ucc28\uc7a5", "addr": "\uc11c\uc6b8\ud2b9\ubcc4\uc2dc \uad6c\ub85c\uad6c \uc624\ub958\ub3d9 174-10", "lat": "37.487234", "lng": "126.839153"}, {"statNm": "\uad6c\ub85c\ub9ac\uacf5\uc6d0 \uc55e(\uacf5\uc911\uc804\ud654\ubd80\uc2a4)", "addr": "\uc11c\uc6b8\ud2b9\ubcc4\uc2dc \uad6c\ub85c\uad6c \uad6c\ub85c\ub3d9 136-14", "lat": "37.4912466", "lng": "126.8919514"}, {"statNm": "\ud648\ud50c\ub7ec\uc2a4 \uc2dc\ud765\uc810", "addr": "\uc11c\uc6b8\ud2b9\ubcc4\uc2dc \uae08\ucc9c\uad6c \uc2dc\ud765\ub300\ub85c 201", "lat": "37.45222814", "lng": "126.90093936"}, {"statNm": "\uc81c\uc77c\ubaa8\uc9c1\uc544\uc6b8\ub81b \uac74\ub108\ud3b8(\uacf5\uc911\uc804\ud654\ubd80\uc2a4)", "addr": "\uc11c\uc6b8\ud2b9\ubcc4\uc2dc \uae08\ucc9c\uad6c \uac00\uc0b0\ub3d9 239-27", "lat": "37.4744454", "lng": "126.8867302"}, {"statNm": "\uc601\ub4f1\ud3ec\uad6c \ub300\uc2e0\uc2dc\uc7a5(\uacf5\uc911\uc804\ud654\ubd80\uc2a4)", "addr": "\uc11c\uc6b8\ud2b9\ubcc4\uc2dc \uc601\ub4f1\ud3ec\uad6c \uc2e0\uae381\ub3d9 116-15", "lat": "37.5113404", "lng": "126.9176919"}, {"statNm": "\ub3d9\uc791\uc8fc\ucc28\uacf5\uc6d0 \uacf5\uc601\uc8fc\ucc28\uc7a5", "addr": "\uc11c\uc6b8\ud2b9\ubcc4\uc2dc \ub3d9\uc791\uad6c \ud604\ucda9\ub85c 213", "lat": "37.503803", "lng": "126.976775"}, {"statNm": "\uc870\uc6d0\ub3d9 \uc81c1\uacf5\uc601\uc8fc\ucc28\uc7a5", "addr": "\uc11c\uc6b8\ud2b9\ubcc4\uc2dc \uad00\uc545\uad6c \uc2e0\ub9bc\ub3d9 571-6", "lat": "37.481069", "lng": "126.905703"}, {"statNm": "\uc0ac\ub2f9\uc5ed \uacf5\uc601\uc8fc\ucc28\uc7a5", "addr": "\uc11c\uc6b8\ud2b9\ubcc4\uc2dc \uc11c\ucd08\uad6c \uacfc\ucc9c\ub300\ub85c 950-18", "lat": "37.475256", "lng": "126.982638"}, {"statNm": "\uc774\ub9c8\ud2b8 \uc591\uc7ac\uc810", "addr": "\uc11c\uc6b8\ud2b9\ubcc4\uc2dc \uc11c\ucd08\uad6c \ub9e4\ud5cc\ub85c 16", "lat": "37.463293", "lng": "127.036812"}, {"statNm": "\uc218\uc11c\uc5ed \uacf5\uc601\uc8fc\ucc28\uc7a5", "addr": "\uc11c\uc6b8\ud2b9\ubcc4\uc2dc \uac15\ub0a8\uad6c \uc218\uc11c\ub3d9 735", "lat": "37.487569", "lng": "127.101016"}, {"statNm": "\ud559\uc5ec\uc6b8\uc5ed \uacf5\uc601\uc8fc\ucc28\uc7a5", "addr": "\uc11c\uc6b8\ud2b9\ubcc4\uc2dc \uac15\ub0a8\uad6c \ub0a8\ubd80\uc21c\ud658\ub85c 3104", "lat": "37.496722", "lng": "127.070444"}, {"statNm": "\ub86f\ub370\ub9c8\ud2b8 \uc7a0\uc2e4\uc810", "addr": "\uc11c\uc6b8\ud2b9\ubcc4\uc2dc \uc1a1\ud30c\uad6c \uc62c\ub9bc\ud53d\ub85c 240", "lat": "37.511818", "lng": "127.096321"}, {"statNm": "\uc774\ub9c8\ud2b8 \uba85\uc77c\uc810", "addr": "\uc11c\uc6b8\ud2b9\ubcc4\uc2dc \uac15\ub3d9\uad6c \uace0\ub355\ub85c 276", "lat": "37.554606", "lng": "127.155966"}, {"statNm": "\ub178\ubcf4\ud154", "addr": "\uc11c\uc6b8\ud2b9\ubcc4\uc2dc \uac15\ub0a8\uad6c \ubd09\uc740\uc0ac\ub85c 130", "lat": "37.5052721", "lng": "127.0289991"}, {"statNm": "\uc554\uc0ac1\ub3d9 \uacf5\uc601\uc8fc\ucc28\uc7a5", "addr": "\uc11c\uc6b8\ud2b9\ubcc4\uc2dc \uac15\ub3d9\uad6c \uace0\ub355\ub85c28\uae38 36", "lat": "37.5529087", "lng": "127.1372547"}, {"statNm": "\ucc9c\ud638\uc720\uc218\uc9c0 \uacf5\uc601\uc8fc\ucc28\uc7a5", "addr": "\uc11c\uc6b8\ud2b9\ubcc4\uc2dc \uac15\ub3d9\uad6c \uc120\uc0ac\ub85c 70", "lat": "37.5448122", "lng": "127.1218396"}, {"statNm": "\ucc9c\ud6383\ub3d9 \uc81c1\uacf5\uc601\uc8fc\ucc28\uc7a5", "addr": "\uc11c\uc6b8\ud2b9\ubcc4\uc2dc \uac15\ub3d9\uad6c \uc9c4\ud669\ub3c4\ub85c29\uae38 34", "lat": "37.5387951", "lng": "127.1333987"}, {"statNm": "\uac00\ub85c\uacf5\uc6d0\ub85c \uc9c0\ud558\uacf5\uc601\uc8fc\ucc28\uc7a5", "addr": "\uc11c\uc6b8\ud2b9\ubcc4\uc2dc \uac15\uc11c\uad6c \uac00\ub85c\uacf5\uc6d0\ub85c 189", "lat": "37.5372628", "lng": "126.8383789"}, {"statNm": "\uacf0\ub2ec\ub798\ubb38\ud654\ubcf5\uc9c0\uc13c\ud130 \uacf5\uc601\uc8fc\ucc28\uc7a5", "addr": "\uc11c\uc6b8\ud2b9\ubcc4\uc2dc \uac15\uc11c\uad6c \uac15\uc11c\ub85c5\uae38 50", "lat": "37.5289561", "lng": "126.8490887"}, {"statNm": "\ubccf\uace8\uacf5\uc6d0 \uc9c0\ud558\uacf5\uc601\uc8fc\ucc28\uc7a5", "addr": "\uc11c\uc6b8\ud2b9\ubcc4\uc2dc \uac15\uc11c\uad6c \uae4c\uce58\uc0b0\ub85c4\uae38 22", "lat": "37.5419747", "lng": "126.8444499"}, {"statNm": "\ud654\uace16-1 \uacf5\uc601\uc8fc\ucc28\uc7a5", "addr": "\uc11c\uc6b8\ud2b9\ubcc4\uc2dc \uac15\uc11c\uad6c \uc6b0\uc7a5\uc0b0\ub85c 114", "lat": "37.5530457", "lng": "126.8488169"}, {"statNm": "\ud648\ud50c\ub7ec\uc2a4 \uac15\uc11c\uc810", "addr": "\uc11c\uc6b8\ud2b9\ubcc4\uc2dc \uac15\uc11c\uad6c \ud654\uace1\ub85c 398", "lat": "37.5591218", "lng": "126.8549199"}, {"statNm": "\uc2e0\ub9bc\ub3d9 \uc81c1\uacf5\uc601\uc8fc\ucc28\uc7a5", "addr": "\uc11c\uc6b8\ud2b9\ubcc4\uc2dc \uad00\uc545\uad6c \uad00\ucc9c\ub85c 98", "lat": "37.4874046", "lng": "126.9235075"}, {"statNm": "\ub09c\uace1\ub3d9 \uc81c1\uacf5\uc601\uc8fc\ucc28\uc7a5", "addr": "\uc11c\uc6b8\ud2b9\ubcc4\uc2dc \uad00\uc545\uad6c \ub09c\uace1\ub85c34\ub098\uae38 14", "lat": "37.4722977", "lng": "126.9231169"}, {"statNm": "\ub099\uc131\ub300\ub3d9\uc8fc\ubbfc\uc13c\ud130", "addr": "\uc11c\uc6b8\ud2b9\ubcc4\uc2dc \uad00\uc545\uad6c \ub099\uc131\ub300\ub85c4\uac00\uae38 5", "lat": "37.476296", "lng": "126.9583876"}, {"statNm": "\ub099\uc131\ub300\ub3d9\uc8fc\ubbfc\uc13c\ud130", "addr": "\uc11c\uc6b8\ud2b9\ubcc4\uc2dc \uad00\uc545\uad6c \ub099\uc131\ub300\ub85c4\uac00\uae38 5", "lat": "37.476296", "lng": "126.9583876"}, {"statNm": "\ubcf4\ub77c\ub9e4 \uc81c1\uacf5\uc601\uc8fc\ucc28\uc7a5", "addr": "\uc11c\uc6b8\ud2b9\ubcc4\uc2dc \uad00\uc545\uad6c \ubd09\ucc9c\ub85c21\uae38 38", "lat": "37.488301", "lng": "126.9346119"}, {"statNm": "\ubcf4\ub77c\ub9e4 \uc81c1\uacf5\uc601\uc8fc\ucc28\uc7a5", "addr": "\uc785\uad6c\uc88c\uce21, \uc9c0\ud558 \uac01 1\uae30", "lat": "37.488301", "lng": "126.9346119"}, {"statNm": "\uc6d0\uc2e0 \uacf5\uc601\uc8fc\ucc28\uc7a5", "addr": "\uc11c\uc6b8\ud2b9\ubcc4\uc2dc \uad00\uc545\uad6c \uc591\uc9c0\uae38 63", "lat": "37.470038", "lng": "126.9292421"}, {"statNm": "\uc5b4\ub9b0\uc774\ub300\uacf5\uc6d0 \ud6c4\ubb38\uc8fc\ucc28\uc7a5", "addr": "\uc11c\uc6b8\ud2b9\ubcc4\uc2dc \uad11\uc9c4\uad6c \ub2a5\ub3d9\ub85c 216", "lat": "37.5515067", "lng": "127.0869275"}, {"statNm": "\ud648\ud50c\ub7ec\uc2a4 \uc2e0\ub3c4\ub9bc\uc810", "addr": "\uc11c\uc6b8\ud2b9\ubcc4\uc2dc \uad6c\ub85c\uad6c \uacbd\uc778\ub85c 661", "lat": "37.5099693", "lng": "126.888413"}, {"statNm": "\ub86f\ub370\ub9c8\ud2b8 \uc911\uacc4\uc810", "addr": "\uc11c\uc6b8\ud2b9\ubcc4\uc2dc \ub178\uc6d0\uad6c \ub178\uc6d0\ub85c 330", "lat": "37.6466673", "lng": "127.0715514"}, {"statNm": "\ud648\ud50c\ub7ec\uc2a4 \uc911\uacc4\uc810", "addr": "\uc11c\uc6b8\ud2b9\ubcc4\uc2dc \ub178\uc6d0\uad6c \ub3d9\uc77c\ub85c204\uac00\uae38 12", "lat": "37.6400856", "lng": "127.0685413"}, {"statNm": "\uc2e4\uc99d\uc6a9 Mock-up \uc8fc\ud0dd \ud64d\ubcf4\uad00", "addr": "\uc11c\uc6b8\ud2b9\ubcc4\uc2dc \ub178\uc6d0\uad6c \ud558\uacc4\ub3d9 251-8", "lat": "37.6381803", "lng": "127.0737876"}, {"statNm": "\uc2e4\uc99d\uc6a9 Mock-up \uc8fc\ud0dd \ud64d\ubcf4\uad00", "addr": "\uc11c\uc6b8\ud2b9\ubcc4\uc2dc \ub178\uc6d0\uad6c \ud558\uacc4\ub3d9 251-8", "lat": "37.6381803", "lng": "127.0737876"}, {"statNm": "\ub3d9\ub300\ubb38\uad6c\uccad", "addr": "\uc11c\uc6b8\ud2b9\ubcc4\uc2dc \ub3d9\ub300\ubb38\uad6c \ucc9c\ud638\ub300\ub85c 145", "lat": "37.5746807", "lng": "127.0401814"}, {"statNm": "\uc911\uc559\ub300\ud559\uad50\ubcd1\uc6d0 \ub2e4\uc815\uad00 \uc8fc\ucc28\uc7a5", "addr": "\uc11c\uc6b8\ud2b9\ubcc4\uc2dc \ub3d9\uc791\uad6c \ud751\uc11d\ub85c 102", "lat": "37.5055471", "lng": "126.9607195"}, {"statNm": "\uc591\ud654\uc9c4\uacf5\uc601\uc8fc\ucc28\uc7a5", "addr": "\uc11c\uc6b8\ud2b9\ubcc4\uc2dc \ub9c8\ud3ec\uad6c \ud1a0\uc815\ub85c 2", "lat": "37.5457992", "lng": "126.9117265"}, {"statNm": "\uacf5\ub3551-1\uacf5\uc601\uc8fc\ucc28\uc7a5", "addr": "\uc625\uc0c1", "lat": "37.5471234", "lng": "126.9612454"}, {"statNm": "\ud64d\uc81c\uacac\uc778\ucc28\ub7c9\ubcf4\uad00\uc18c \uc8fc\ucc28\uc7a5", "addr": "\uc11c\uc6b8\ud2b9\ubcc4\uc2dc \uc11c\ub300\ubb38\uad6c \ud64d\uc81c\ub0b4\uae38 227", "lat": "37.5905929", "lng": "126.9407564"}, {"statNm": "\ud64d\uc81c\uacac\uc778\ucc28\ub7c9\ubcf4\uad00\uc18c \uc8fc\ucc28\uc7a5", "addr": "\uc11c\uc6b8\ud2b9\ubcc4\uc2dc \uc11c\ub300\ubb38\uad6c \ud64d\uc81c\ub0b4\uae38 227", "lat": "37.5905929", "lng": "126.9407564"}, {"statNm": "\uc11c\uc6b8\uc2dc\uc778\uc7ac\uac1c\ubc1c\uc6d0", "addr": "\uc11c\uc6b8\ud2b9\ubcc4\uc2dc \uc11c\ucd08\uad6c \ub0a8\ubd80\uc21c\ud658\ub85c 340\uae38 58", "lat": "37.481369", "lng": "127.0238502"}, {"statNm": "\uc11c\uc6b8\ucd94\ubaa8\uacf5\uc6d0", "addr": "\uc11c\uc6b8\ud2b9\ubcc4\uc2dc \uc11c\ucd08\uad6c \uc591\uc7ac\ub300\ub85c12\uae38 74", "lat": "37.4536062", "lng": "127.0428005"}, {"statNm": "\uc544\uc2dc\uc544\uacf5\uc6d0 \uacf5\uc601\uc8fc\ucc28\uc7a5", "addr": "\uc11c\uc6b8\ud2b9\ubcc4\uc2dc \uc1a1\ud30c\uad6c \uc7a0\uc2e4\ub3d9 84", "lat": "37.5102969", "lng": "127.0788121"}, {"statNm": "\uc544\uc2dc\uc544\uacf5\uc6d0 \uacf5\uc601\uc8fc\ucc28\uc7a5", "addr": "\uc11c\uc6b8\ud2b9\ubcc4\uc2dc \uc1a1\ud30c\uad6c \uc7a0\uc2e4\ub3d9 84", "lat": "37.5102969", "lng": "127.0788121"}, {"statNm": "\uc544\uc2dc\uc544\uacf5\uc6d0 \uacf5\uc601\uc8fc\ucc28\uc7a5", "addr": "\uc11c\uc6b8\ud2b9\ubcc4\uc2dc \uc1a1\ud30c\uad6c \uc7a0\uc2e4\ub3d9 84", "lat": "37.5102969", "lng": "127.0788121"}, {"statNm": "\ub86f\ub370\ub9c8\ud2b8 \uc1a1\ud30c\uc810", "addr": "\uc11c\uc6b8\ud2b9\ubcc4\uc2dc \uc1a1\ud30c\uad6c \uc911\ub300\ub85c 80", "lat": "37.4918392", "lng": "127.1178931"}, {"statNm": "\ud648\ud50c\ub7ec\uc2a4 \uc601\ub4f1\ud3ec\uc810", "addr": "\uc11c\uc6b8\ud2b9\ubcc4\uc2dc \uc601\ub4f1\ud3ec\uad6c \ub2f9\uc0b0\ub85c 42", "lat": "37.5190208", "lng": "126.8957999"}, {"statNm": "\uc2e0\uae386\ub3d9 \uacf5\uc601\ub178\uc678\uc8fc\ucc28\uc7a5(\uad6c \uc2e0\uae38 \uc81c5\ub3d9 \uc8fc\ubbfc\uc13c\ud130)", "addr": "\uc11c\uc6b8\ud2b9\ubcc4\uc2dc \uc601\ub4f1\ud3ec\uad6c \uc2e0\uae38\ub3d9 3203", "lat": "37.502512989", "lng": "126.9110497"}, {"statNm": "\uc2e0\uae384\ub3d91\ub9c8\uc744\uacf5\uc6d0 \uacf5\uc601\uc8fc\ucc28\uc7a5", "addr": "\uc11c\uc6b8\ud2b9\ubcc4\uc2dc \uc601\ub4f1\ud3ec\uad6c \uc2e0\uae38\ub85c40\uae38 5", "lat": "37.507122", "lng": "126.9116817"}, {"statNm": "\ub2f9\uc0b0\uc5d0\uc2a4\uc5d0\uc774\uce58\ube4c \uc544\ud30c\ud2b8 \uc55e", "addr": "\uc11c\uc6b8\ud2b9\ubcc4\uc2dc \uc601\ub4f1\ud3ec\uad6c \uc601\uc2e0\ub85c 183", "lat": "37.524217", "lng": "126.9019801"}, {"statNm": "\uc601\ub4f1\ud3ec \uc81c3\uacf5\uc601", "addr": "\uc11c\uc6b8\ud2b9\ubcc4\uc2dc \uc601\ub4f1\ud3ec\uad6c \uc601\uc911\ub85c3\uae38 7", "lat": "37.5180087", "lng": "126.9030865"}, {"statNm": "\uc2e0\ucc3d\ub3d9 \uacf5\uc601\uc8fc\ucc28\uc7a5", "addr": "\uc11c\uc6b8\ud2b9\ubcc4\uc2dc \uc6a9\uc0b0\uad6c \uc6d0\ud6a8\ub85c35\uae38 53", "lat": "37.5353568", "lng": "126.9552587"}, {"statNm": "\ud55c\ub0a8\ub3d9 \uacf5\uc601\uc8fc\ucc28\uc7a5", "addr": "\uc11c\uc6b8\ud2b9\ubcc4\uc2dc \uc6a9\uc0b0\uad6c \uc774\ud0dc\uc6d0\ub85c 224-19", "lat": "37.5349284", "lng": "127.0002489"}, {"statNm": "\ud604\ub300\uc790\ub3d9\ucc28 \uc218\uc0c9\ub300\ub9ac\uc810", "addr": "\uc11c\uc6b8\ud2b9\ubcc4\uc2dc \uc740\ud3c9\uad6c \uc218\uc0c9\ub85c 342-1", "lat": "37.5867665", "lng": "126.8880299"}, {"statNm": "\uc740\ud3c9\uad6c\ubbfc\uccb4\uc721\uc13c\ud130", "addr": "\uc11c\uc6b8\ud2b9\ubcc4\uc2dc \uc740\ud3c9\uad6c \uc9c4\uad001\ub85c 40", "lat": "37.6310603", "lng": "126.9246413"}, {"statNm": "\ud0dc\ud654\ube4c\ub529", "addr": "\uc11c\uc6b8\ud2b9\ubcc4\uc2dc \uc885\ub85c\uad6c \uc778\uc0ac\ub3d95\uae38 29", "lat": "37.5718148", "lng": "126.9850443"}, {"statNm": "\ud55c\uad6d\uc608\uc220\uc885\ud569\ud559\uad50(\uc885\ub85c)", "addr": "\uc11c\uc6b8\ud2b9\ubcc4\uc2dc \uc885\ub85c\uad6c \ucc3d\uacbd\uad81\ub85c 215", "lat": "37.5824318", "lng": "126.9974047"}, {"statNm": "\uad6d\ub9bd\uadf9\uc7a5", "addr": "\uad6d\ub9bd\uadf9\uc7a5 \uc88c\uce21 \ucd9c\uad6c \uc8fc\ucc28\uc7a5", "lat": "37.5517908", "lng": "127.0002167"}, {"statNm": "\uad6d\ub9bd\uadf9\uc7a5", "addr": "\uad6d\ub9bd\uadf9\uc7a5 \uc88c\uce21 \ucd9c\uad6c \uc8fc\ucc28\uc7a5", "lat": "37.5517908", "lng": "127.0002167"}, {"statNm": "\ud648\ud50c\ub7ec\uc2a4 \uc0c1\ubd09\uc810", "addr": "\uc11c\uc6b8\ud2b9\ubcc4\uc2dc \uc911\ub791\uad6c \ub9dd\uc6b0\ub85c 353", "lat": "37.5983156", "lng": "127.0905669"}, {"statNm": "\ud648\ud50c\ub7ec\uc2a4 \uc2e0\ub0b4\uc810", "addr": "\uc11c\uc6b8\ud2b9\ubcc4\uc2dc \uc911\ub791\uad6c \uc2e0\ub0b4\ub85c 201", "lat": "37.6159847", "lng": "127.0939656"}, {"statNm": "\uc6a9\ub9c8\ud3ed\ud3ec\uacf5\uc6d0 \uacf5\uc601\uc8fc\ucc28\uc7a5", "addr": "\uc11c\uc6b8\ud2b9\ubcc4\uc2dc \uc911\ub791\uad6c \uc6a9\ub9c8\uc0b0\ub85c 250-12", "lat": "37.5745068", "lng": "127.089592"}, {"statNm": "\uc11c\uc6b8\ub9cc\ub0a8\ud734\uac8c\uc18c(\ubd80\uc0b0\ubc29\ud5a5)", "addr": "\uc11c\uc6b8\ud2b9\ubcc4\uc2dc \uc11c\ucd08\uad6c \uc591\uc7ac\ub300\ub85c12\uae38 73-71 (\uc6d0\uc9c0\ub3d9)", "lat": "37.4600218", "lng": "127.0420378"}, {"statNm": "\uc11c\uc6b8\ub9cc\ub0a8\ud734\uac8c\uc18c(\ubd80\uc0b0\ubc29\ud5a5)", "addr": "\uc11c\uc6b8\ud2b9\ubcc4\uc2dc \uc11c\ucd08\uad6c \uc591\uc7ac\ub300\ub85c12\uae38 73-71 (\uc6d0\uc9c0\ub3d9)", "lat": "37.4600218", "lng": "127.0420378"}, {"statNm": "\ud30c\ud06c\ud558\uc58f\ud2b8\uc11c\uc6b8\ud638\ud154", "addr": "\uc11c\uc6b8\ud2b9\ubcc4\uc2dc \uac15\ub0a8\uad6c \ud14c\ud5e4\ub780\ub85c606", "lat": "37.508834", "lng": "127.064114"}, {"statNm": "\uc2a4\uc704\uc2a4\uadf8\ub79c\ub4dc\ud638\ud154(\uad6c \uadf8\ub79c\ub4dc\ud790\ud2bc\ud638\ud154)", "addr": "\uc11c\uc6b8\ud2b9\ubcc4\uc2dc \uc11c\ub300\ubb38\uad6c \uc5f0\ud76c\ub85c 353", "lat": "37.590003", "lng": "126.934744"}, {"statNm": "\ub86f\ub370 VIC\ub9c8\ucf13 \uae08\ucc9c\uc810", "addr": "null", "lat": "37.470581", "lng": "126.895698"}, {"statNm": "\ub86f\ub370 VIC\ub9c8\ucf13 \uae08\ucc9c\uc810", "addr": "null", "lat": "37.470581", "lng": "126.895698"}, {"statNm": "\uc6b0\ub9ac\uc740\ud589\ubcf8\uc810", "addr": "\uc11c\uc6b8\ud2b9\ubcc4\uc2dc \uc911\uad6c \uc18c\uacf5\ub85c 51\ubc88\uc9c0", "lat": "37.559534", "lng": "126.981817"}, {"statNm": "\uc6b0\ub9ac\uc740\ud589\ubcf8\uc810", "addr": "\uc11c\uc6b8\ud2b9\ubcc4\uc2dc \uc911\uad6c \uc18c\uacf5\ub85c 51\ubc88\uc9c0", "lat": "37.559534", "lng": "126.981817"}, {"statNm": "\ub9c8\uace1\ub808\ud3ec\uce20\uc13c\ud130", "addr": "\uc11c\uc6b8\ud2b9\ubcc4\uc2dc \uac15\uc11c\uad6c \uc591\ucc9c\ub85c 251, \uc785\uad6c \uc6b0\uce21", "lat": "37.5728411", "lng": "126.8323738"}, {"statNm": "\ucc3d2\ub3d9 \uc81c4\uacf5\uc601\uc8fc\ucc28\uc7a5", "addr": "\uc11c\uc6b8\ud2b9\ubcc4\uc2dc \ub3c4\ubd09\uad6c \ucc3d2\ub3d9 582-22", "lat": "37.6413031", "lng": "127.0364035"}, {"statNm": "\ucc3d3\ub3d9 \uc81c1\uacf5\uc601\uc8fc\ucc28\uc7a5", "addr": "\uc11c\uc6b8\ud2b9\ubcc4\uc2dc \ub3c4\ubd09\uad6c \ucc3d3\ub3d9 504-21, \uc88c\uce21 \uc548\ucabd", "lat": "37.6332558", "lng": "127.0412125"}, {"statNm": "\ucc3d\ucc9c\uacf5\uc601\uc8fc\ucc28\uc7a5", "addr": "\uc11c\uc6b8\ud2b9\ubcc4\uc2dc \ub9c8\ud3ec\uad6c \ub178\uace0\uc0b0\ub3d9 33-1, B3 28", "lat": "37.55493", "lng": "126.9389738"}, {"statNm": "\ubc88\ub3d9\ud587\uc0b4 \uacf5\uc601\uc8fc\ucc28\uc7a5", "addr": "\uc11c\uc6b8\ud2b9\ubcc4\uc2dc \uac15\ubd81\uad6c \uc624\ud604\ub85c 21\uae38 84, \uc625\uc0c1 \uc8fc\ucc28\uc7a5", "lat": "37.6249449", "lng": "127.0334805"}, {"statNm": "\ub09c\ud5a5\ub3d9 \uc8fc\ubbfc\uc13c\ud130", "addr": "\uc11c\uc6b8\ud2b9\ubcc4\uc2dc \uad00\uc545\uad6c \ub09c\uace1\ub85c 67", "lat": "37.4616153", "lng": "126.9189711"}, {"statNm": "\uc2dc\ud765\uc81c4\ub3d9\uacf5\uc601\uc8fc\ucc28\uc7a5", "addr": "\uc11c\uc6b8\ud2b9\ubcc4\uc2dc \uae08\ucc9c\uad6c \ub3c5\uc0b0\ub85c 36\ub098\uae38 21, B1 18", "lat": "37.4589664", "lng": "126.9084827"}, {"statNm": "\uc30d\ubb383\ub3d9 \uc81c2\uacf5\uc601\uc8fc\ucc28\uc7a5", "addr": "\uc11c\uc6b8\ud2b9\ubcc4\uc2dc \ub3c4\ubd09\uad6c \uc30d\ubb383\ub3d9 315-62, \uc9c0\ud558 1\uce35 \uc548\ucabd", "lat": "37.6493531", "lng": "127.0293841"}, {"statNm": "\uc2a4\ud0e0\ud3ec\ub4dc\ud638\ud154\ucf54\ub9ac\uc544", "addr": "\uc11c\uc6b8\ud2b9\ubcc4\uc2dc \ub9c8\ud3ec\uad6c \uc0c1\uc554\ub3d9 \uc6d4\ub4dc\ucef5\ubd81\ub85c 58\uae38 15, \uc9c0\ud5584\uce35 18", "lat": "37.5823581", "lng": "126.886648"}, {"statNm": "\uc885\ubb18 \uacf5\uc601\uc8fc\ucc28\uc7a5", "addr": "\uc11c\uc6b8\ud2b9\ubcc4\uc2dc \uc885\ub85c\uad6c \uc885\ub85c 157", "lat": "37.571076", "lng": "126.99588"}, {"statNm": "\uc138\uc885\ub85c \uacf5\uc601\uc8fc\ucc28\uc7a5", "addr": "\uc11c\uc6b8\ud2b9\ubcc4\uc2dc \uc885\ub85c\uad6c \uc138\uc885\ub300\ub85c 189", "lat": "37.573611", "lng": "126.976011"}, {"statNm": "\uadf8\ub79c\ub4dc\uc570\ubc30\uc11c\ub354 \uc11c\uc6b8", "addr": "\uc11c\uc6b8\ud2b9\ubcc4\uc2dc \uc911\uad6c \ub3d9\ud638\ub85c 287", "lat": "37.559352", "lng": "127.002350"},