[{"statNm": "\uc774\ub9c8\ud2b8 \ubb38\ud604\uc810", "statId": "ME000048", "addr": "\ubd80\uc0b0\uad11\uc5ed\uc2dc \ub0a8\uad6c \uc804\ud3ec\ub300\ub85c91\ubc88\uae38 47", "lat": "35.144356", "lng": "129.064256"}, {"statNm": "\uc774\ub9c8\ud2b8 \uae08\uc815\uc810", "statId": "ME000052", "addr": "\ubd80\uc0b0\uad11\uc5ed\uc2dc \uae08\uc815\uad6c \uc911\uc559\ub300\ub85c1841\ubc88\uae38 24", "lat": "35.24975906", "lng": "129.0901501"}, {"statNm": "\ud648\ud50c\ub7ec\uc2a4 \uc544\uc2dc\uc544\ub4dc\uc810", "statId": "ME000055", "addr": "\ubd80\uc0b0\uad11\uc5ed\uc2dc \uc5f0\uc81c\uad6c \uc885\ud569\uc6b4\ub3d9\uc7a5\ub85c 7", "lat": "35.19104755", "lng": "129.06250571"}, {"statNm": "\uc774\ub9c8\ud2b8 \uc5f0\uc81c\uc810", "statId": "ME000056", "addr": "\ubd80\uc0b0\uad11\uc5ed\uc2dc \uc5f0\uc81c\uad6c \uc5f0\uc218\ub85c 89", "lat": "35.176147", "lng": "129.081345"}, {"statNm": "\uae30\uc7a5\uad70\uccad", "statId": "ME000061", "addr": "\ubd80\uc0b0\uad11\uc5ed\uc2dc \uae30\uc7a5\uad70 \uae30\uc7a5\uc74d \uae30\uc7a5\ub300\ub85c 560", "lat": "35.2443", "lng": "129.2232"}, {"statNm": "\uc7a5\uc804\uc5ed \uacf5\uc601\uc8fc\ucc28\uc7a5", "statId": "ME174104", "addr": "\ubd80\uc0b0\uad11\uc5ed\uc2dc \uae08\uc815\uad6c \uc7a5\uc8041\ub3d9 242", "lat": "35.239348", "lng": "129.0876819"}, {"statNm": "\ub3d9\ub798\uc5ed \uacf5\uc601\uc8fc\ucc28\uc7a5", "statId": "ME174105", "addr": "\ubd80\uc0b0\uad11\uc5ed\uc2dc \ub3d9\ub798\uad6c \uc911\uc559\ub300\ub85c 1324", "lat": "35.206922", "lng": "129.0786666"}, {"statNm": "\ubd80\uc0b0\uc9c4\uad6c\uccad \uc9c0\ud5581\uce35 \uc8fc\ucc28\uc7a5", "statId": "ME174106", "addr": "\ubd80\uc0b0\uad11\uc5ed\uc2dc \ubd80\uc0b0\uc9c4\uad6c \uc2dc\ubbfc\uacf5\uc6d0\ub85c 30", "lat": "35.162892", "lng": "129.0530287"}, {"statNm": "\ubd80\uc0b0\uc2dc\ubbfc\uacf5\uc6d0 \uc9c0\ud558 \uc8fc\ucc28\uc7a5", "statId": "ME174107", "addr": "\ubd80\uc0b0\uad11\uc5ed\uc2dc \ubd80\uc0b0\uc9c4\uad6c \uc2dc\ubbfc\uacf5\uc6d0\ub85c 73", "lat": "35.1651212", "lng": "129.0562968"}, {"statNm": "\uc0bc\ub77d\uc7ac\ucca9\uac70\ub9ac", "statId": "ME174108", "addr": "\ubd80\uc0b0\uad11\uc5ed\uc2dc \uc0ac\uc0c1\uad6c \ub099\ub3d9\ub300\ub85c 1518\ubc88\uae38 26", "lat": "35.1930058", "lng": "128.985466"}, {"statNm": "\ub9dd\ubbf8\ub3d9 \uacf5\uc601\uc8fc\ucc28\uc7a5", "statId": "ME174109", "addr": "\ubd80\uc0b0\uad11\uc5ed\uc2dc \uc218\uc601\uad6c \ub9dd\ubbf8\ub3d9 979-73", "lat": "35.1701378", "lng": "129.096877"}, {"statNm": "\uc218\ubcc0\uacf5\uc6d0", "statId": "ME174110", "addr": "\ubd80\uc0b0\uad11\uc5ed\uc2dc \uc218\uc601\uad6c \ubbfc\ub77d\uc218\ubcc0\ub85c 95", "lat": "35.1547999", "lng": "129.1318417"}, {"statNm": "\ubd80\uc0b0\uc9c0\ubc29\uacbd\ucc30\uccad \uc55e \ubbfc\uc6d0\uc778 \uc8fc\ucc28\uc7a5", "statId": "ME174111", "addr": "\ubd80\uc0b0\uad11\uc5ed\uc2dc \uc5f0\uc81c\uad6c \uc911\uc559\ub300\ub85c 999", "lat": "35.1794806", "lng": "129.0734269"}, {"statNm": "\ubd80\uc0b0\ud14c\ud06c\ub178\ud30c\ud06c \uc885\ud569\ubb3c\ub958\uacbd\uc601\uae30\uc220\uc9c0\uc6d0\uc13c\ud130", "statId": "ME174112", "addr": "\ubd80\uc0b0\uad11\uc5ed\uc2dc \uc601\ub3c4\uad6c \ud574\uc591\ub85c 435-1", "lat": "35.0729995", "lng": "129.080228"}, {"statNm": "\uc6a9\ub450\uc0b0 \uacf5\uc601\uc8fc\ucc28\uc7a5", "statId": "ME174113", "addr": "\ubd80\uc0b0\uad11\uc5ed\uc2dc \uc911\uad6c \ub300\uccad\ub85c 116\ubc88\uae38 3", "lat": "35.1023192", "lng": "129.0326838"}, {"statNm": "\uc911\ub3d9\uc5ed \uacf5\uc601\uc8fc\ucc28\uc7a5", "statId": "ME174114", "addr": "\ubd80\uc0b0\uad11\uc5ed\uc2dc \ud574\uc6b4\ub300\uad6c \ud574\uc6b4\ub300\ub85c 731", "lat": "35.1668257", "lng": "129.1699787"}, {"statNm": "\ud55c\uad6d\ub9c8\uc0ac\ud68c \ubd80\uc0b0\uacbd\ub0a8\uc9c0\uc5ed\ubcf8\ubd80", "statId": "ME181206", "addr": "\ubd80\uc0b0\uad11\uc5ed\uc2dc \uac15\uc11c\uad6c \uac00\ub77d\ub300\ub85c 929", "lat": "35.15158", "lng": "128.872972"}, {"statNm": "\ubd80\uc0b0 \uc5b4\ub9b0\uc774 \ub300\uacf5\uc6d0", "statId": "ME181207", "addr": "\ubd80\uc0b0\uad11\uc5ed\uc2dc \ubd80\uc0b0\uc9c4\uad6c \uc131\uc9c0\uace1\ub85c 3", "lat": "35.184608", "lng": "129.04349"}, {"statNm": "\ubd80\uc0b0\uc2dc \uad50\uc721\uccad", "statId": "ME181208", "addr": "\ubd80\uc0b0\uad11\uc5ed\uc2dc \ubd80\uc0b0\uc9c4\uad6c \ud654\uc9c0\ub85c 12", "lat": "35.176287", "lng": "129.064777"}, {"statNm": "\ubd80\uc0b0\uc544\uc2dc\uc544\ub4dc\ubcf4\uc870\uacbd\uae30\uc7a5VIP\uc8fc\ucc28\uc7a5", "statId": "ME181210", "addr": "\ubd80\uc0b0\uad11\uc5ed\uc2dc \uc5f0\uc81c\uad6c \uac70\uc81c\ub3d9 1312", "lat": "35.188449", "lng": "129.055808"}, {"statNm": "\ubd80\uc0b0\uc544\uc2dc\uc544\ub4dc\ubcf4\uc870\uacbd\uae30\uc7a5VIP\uc8fc\ucc28\uc7a5", "statId": "ME181210", "addr": "\ubd80\uc0b0\uad11\uc5ed\uc2dc \uc5f0\uc81c\uad6c \uac70\uc81c\ub3d9 1312", "lat": "35.188449", "lng": "129.055808"}, {"statNm": "\ubd80\uc0b0\uc544\uc2dc\uc544\ub4dc\ubcf4\uc870\uacbd\uae30\uc7a5VIP\uc8fc\ucc28\uc7a5", "statId": "ME181210", "addr": "\ubd80\uc0b0\uad11\uc5ed\uc2dc \uc5f0\uc81c\uad6c \uac70\uc81c\ub3d9 1312", "lat": "35.188449", "lng": "129.055808"}, {"statNm": "\ubd80\uc0b0\uc544\uc2dc\uc544\ub4dc\ubcf4\uc870\uacbd\uae30\uc7a5VIP\uc8fc\ucc28\uc7a5", "statId": "ME181210", "addr": "\ubd80\uc0b0\uad11\uc5ed\uc2dc \uc5f0\uc81c\uad6c \uac70\uc81c\ub3d9 1312", "lat": "35.188449", "lng": "129.055808"}, {"statNm": "\ubd80\uc0b0\uc544\uc2dc\uc544\ub4dc\ubcf4\uc870\uacbd\uae30\uc7a5VIP\uc8fc\ucc28\uc7a5", "statId": "ME181210", "addr": "\ubd80\uc0b0\uad11\uc5ed\uc2dc \uc5f0\uc81c\uad6c \uac70\uc81c\ub3d9 1312", "lat": "35.188449", "lng": "129.055808"}, {"statNm": "\ubd80\uc0b0\uc544\uc2dc\uc544\ub4dc\ubcf4\uc870\uacbd\uae30\uc7a5VIP\uc8fc\ucc28\uc7a5", "statId": "ME181210", "addr": "\ubd80\uc0b0\uad11\uc5ed\uc2dc \uc5f0\uc81c\uad6c \uac70\uc81c\ub3d9 1312", "lat": "35.188449", "lng": "129.055808"}, {"statNm": "\ub86f\ub370\ub9c8\ud2b8 \uc0ac\uc0c1\uc810", "statId": "ME181223", "addr": "\ubd80\uc0b0\uad11\uc5ed\uc2dc \uc0ac\uc0c1\uad6c \ub099\ub3d9\ub300\ub85c 733 (\uc5c4\uad81\ub3d9)", "lat": "35.127586", "lng": "128.968375"}, {"statNm": "\ub86f\ub370\ub9c8\ud2b8 \ub3d9\ub798\uc810", "statId": "ME181224", "addr": "\ubd80\uc0b0\uad11\uc5ed\uc2dc \ub3d9\ub798\uad6c \uc911\uc559\ub300\ub85c 1393 (\uc628\ucc9c\ub3d9)", "lat": "35.212005", "lng": "129.077246"}, {"statNm": "\ub86f\ub370\ub9c8\ud2b8 \uad11\ubcf5\uc810", "statId": "ME181225", "addr": "\ubd80\uc0b0\uad11\uc5ed\uc2dc \uc911\uad6c \uc911\uc559\ub300\ub85c2 (\uc911\uc559\ub3d97\uac00)", "lat": "35.097858", "lng": "129.036146"}, {"statNm": "\uae40\ud574\uacf5\ud56d", "statId": "ME181250", "addr": "\ubd80\uc0b0\uad11\uc5ed\uc2dc \uac15\uc11c\uad6c \uacf5\ud56d\uc9c4\uc785\ub85c 108", "lat": "35.173216", "lng": "128.946465"}, {"statNm": "\uae40\ud574\uacf5\ud56d", "statId": "ME181250", "addr": "\ubd80\uc0b0\uad11\uc5ed\uc2dc \uac15\uc11c\uad6c \uacf5\ud56d\uc9c4\uc785\ub85c 108", "lat": "35.173216", "lng": "128.946465"}, {"statNm": "\ucca0\ub9c8\uba74\uc0ac\ubb34\uc18c", "statId": "ME183023", "addr": "\ubd80\uc0b0\uad11\uc5ed\uc2dc \uae30\uc7a5\uad70 \ucca0\ub9c8\uba74 \ucca0\ub9c8\uba74 485", "lat": "35.2746745", "lng": "129.1496941"}, {"statNm": "\uc7a5\uc548\uc74d\uc0ac\ubb34\uc18c", "statId": "ME183024", "addr": "\ubd80\uc0b0\uad11\uc5ed\uc2dc \uae30\uc7a5\uad70 \uc7a5\uc548\uc74d \uc88c\ubc29\uae38 5", "lat": "35.3138644", "lng": "129.2440318"}, {"statNm": "\uc815\uad00\uc74d\uc0ac\ubb34\uc18c", "statId": "ME183076", "addr": "\ubd80\uc0b0\uad11\uc5ed\uc2dc \uae30\uc7a5\uad70 \uc815\uad00\uc74d \uc6a9\uc218\ub85c 4, \uc785\uad6c \uc6b0\uce21", "lat": "35.3254808", "lng": "129.1803974"}, {"statNm": "\ub86f\ub370\ub9c8\ud2b8 \uc0ac\ud558\uc810", "statId": "ME184073", "addr": "\ubd80\uc0b0\uad11\uc5ed\uc2dc \uc0ac\ud558\uad6c \uc744\uc219\ub3c4\ub300\ub85c 610", "lat": "35.084840", "lng": "128.971577"}, {"statNm": "\uc774\ub9c8\ud2b8 \ud574\uc6b4\ub300\uc810", "statId": "ME184074", "addr": "\ubd80\uc0b0\uad11\uc5ed\uc2dc \ud574\uc6b4\ub300\uad6c \uc88c\ub3d9\uc21c\ud658\ub85c 511", "lat": "35.165994", "lng": "129.167388"}, {"statNm": "\ub3d9\uc6d0 \uacf5\uc601\uc8fc\ucc28\uc7a5", "statId": "ME18C179", "addr": "\ubd80\uc0b0\uad11\uc5ed\uc2dc \ubd81\uad6c \ub9cc\ub355\ub3d9 934", "lat": "35.210513", "lng": "129.030131"}, {"statNm": "\ub86f\ub370\ub9c8\ud2b8 \ud654\uba85\uc810", "statId": "ME18C180", "addr": "\ubd80\uc0b0\uad11\uc5ed\uc2dc \ubd81\uad6c \ud654\uba85\ub300\ub85c 47(\ud654\uba85\ub3d9)", "lat": "35.235202", "lng": "129.013075"}, {"statNm": "\uc5c4\uad81\ucd08\ub4f1\ud559\uad50\uc9c0\ud558 \uacf5\uc601\uc8fc\ucc28\uc7a5", "statId": "ME18C181", "addr": "\ubd80\uc0b0\uad11\uc5ed\uc2dc \uc0ac\uc0c1\uad6c \uc5c4\uad81\ub85c191\ubc88\uae38 23(\uc5c4\uad81\ub3d9)", "lat": "35.128337", "lng": "128.973424"}, {"statNm": "\uc0ac\ud558\uacbd\ucc30\uc11c", "statId": "ME18C182", "addr": "\ubd80\uc0b0\uad11\uc5ed\uc2dc \uc0ac\ud558\uad6c \uc744\uc219\ub3c4\ub300\ub85c 665", "lat": "35.085868", "lng": "128.978159"}, {"statNm": "\ub86f\ub370\ub9c8\ud2b8 \ubd80\uc0b0\uc810", "statId": "ME18C183", "addr": "\ubd80\uc0b0\uad11\uc5ed\uc2dc \ubd80\uc0b0\uc9c4\uad6c \uc2e0\ucc9c\ub300\ub85c 241", "lat": "35.163297", "lng": "129.049257"}, {"statNm": "\ubd80\uc0b0\uc870\uc120\ud574\uc591\uae30\uc790\uc7ac\uacf5\uc5c5\ud611\ub3d9\uc870\ud569", "statId": "ME18C184", "addr": "\ubd80\uc0b0\uad11\uc5ed\uc2dc \uac15\uc11c\uad6c \ubbf8\uc74c\uc0b0\ub2e8\ub85c295\ubc88\uae38 10", "lat": "35.150386", "lng": "128.860380"}, {"statNm": "\uae30\uc7a5\uc2dc\uc7a5 \uacf5\uc601\uc8fc\ucc28\uc7a5", "statId": "ME18C185", "addr": "\ubd80\uc0b0\uad11\uc5ed\uc2dc \uae30\uc7a5\uad70 \ub300\ub77c\ub9ac 70-1", "lat": "35.244240", "lng": "129.214857"}, {"statNm": "\ucca0\ub9c8\uccb4\uc721\uc2dc\uc124", "statId": "ME18C186", "addr": "\ubd80\uc0b0\uad11\uc5ed\uc2dc \uae30\uc7a5\uad70 \ucca0\ub9c8\uba74 \ucca0\ub9c8\ub85c 543", "lat": "35.272592", "lng": "129.154704"}, {"statNm": "\uc7a5\uc548\ucc9c\uc57c\uad6c\uc7a5", "statId": "ME18C187", "addr": "\ubd80\uc0b0\uad11\uc5ed\uc2dc \uae30\uc7a5\uad70 \uc7a5\uc548\uc74d \uace0\ubb34\ub85c 294", "lat": "35.331684", "lng": "129.279689"}, {"statNm": "\uc885\ud569\uc0ac\ud68c\ubcf5\uc9c0\uad00", "statId": "ME18C188", "addr": "\ubd80\uc0b0\uad11\uc5ed\uc2dc \uae30\uc7a5\uad70 \uae30\uc7a5\uc74d \ucc28\uc131\ub85c 206", "lat": "35.235986", "lng": "129.213519"}, {"statNm": "\ub355\ucc9c \uacf5\uc601\uc8fc\ucc28\uc7a5", "statId": "ME18C189", "addr": "\ubd80\uc0b0\uad11\uc5ed\uc2dc \ubd81\uad6c \ub355\ucc9c\ub3d9 457-1", "lat": "35.214847", "lng": "129.009685"}, {"statNm": "\uc601\ub3c4\uad6c\uccad", "statId": "ME18C266", "addr": "\ubd80\uc0b0\uad11\uc5ed\uc2dc \uc601\ub3c4\uad6c \ud0dc\uc885\ub85c 423", "lat": "35.090361", "lng": "129.067457"}, {"statNm": "\uc601\ub3c4\uad6c\uccad", "statId": "ME18C266", "addr": "\ubd80\uc0b0\uad11\uc5ed\uc2dc \uc601\ub3c4\uad6c \ud0dc\uc885\ub85c 423", "lat": "35.090361", "lng": "129.067457"}, {"statNm": "\uc815\uad00\ub178\uc778\ubcf5\uc9c0\uad00", "statId": "ME18C267", "addr": "\ubd80\uc0b0\uad11\uc5ed\uc2dc \uae30\uc7a5\uad70 \uc815\uad00\uc74d \uc815\uad00\uc911\uc559\ub85c 83-14", "lat": "35.324964", "lng": "129.178665"}, {"statNm": "\uc815\uad00\ub178\uc778\ubcf5\uc9c0\uad00", "statId": "ME18C267", "addr": "\ubd80\uc0b0\uad11\uc5ed\uc2dc \uae30\uc7a5\uad70 \uc815\uad00\uc74d \uc815\uad00\uc911\uc559\ub85c 83-14", "lat": "35.324964", "lng": "129.178665"}, {"statNm": "\uc815\uad00\ubcf4\uac74\uc9c0\uc18c", "statId": "ME18C268", "addr": "\ubd80\uc0b0\uad11\uc5ed\uc2dc \uae30\uc7a5\uad70 \uc815\uad00\uc74d \uc6a9\uc218\ub85c 11", "lat": "35.325185", "lng": "129.178786"}, {"statNm": "\uc815\uad00\ubcf4\uac74\uc9c0\uc18c", "statId": "ME18C268", "addr": "\ubd80\uc0b0\uad11\uc5ed\uc2dc \uae30\uc7a5\uad70 \uc815\uad00\uc74d \uc6a9\uc218\ub85c 11", "lat": "35.325185", "lng": "129.178786"}, {"statNm": "kbs \ubd80\uc0b0\ubc29\uc1a1\ucd1d\uad6d", "statId": "ME18C306", "addr": "\ubd80\uc0b0\uad11\uc5ed\uc2dc \uc218\uc601\uad6c \uc218\uc601\ub85c 429", "lat": "35.145000", "lng": "129.107728"}, {"statNm": "kbs \ubd80\uc0b0\ubc29\uc1a1\ucd1d\uad6d", "statId": "ME18C306", "addr": "\ubd80\uc0b0\uad11\uc5ed\uc2dc \uc218\uc601\uad6c \uc218\uc601\ub85c 429", "lat": "35.145000", "lng": "129.107728"}, {"statNm": "kbs \ubd80\uc0b0\ubc29\uc1a1\ucd1d\uad6d", "statId": "ME18C306", "addr": "\ubd80\uc0b0\uad11\uc5ed\uc2dc \uc218\uc601\uad6c \uc218\uc601\ub85c 429", "lat": "35.145000", "lng": "129.107728"}, {"statNm": "\uae30\uc7a5\ud604\ub300\ub4dc\ub9bc\ubcfc\ud30c\ud06c", "statId": "ME18C307", "addr": "\ubd80\uc0b0\uad11\uc5ed\uc2dc \uae30\uc7a5\uad70 \uc77c\uad11\uba74 \ub3d9\ubc31\ub9ac 409", "lat": "35.297079", "lng": "129.240358"}, {"statNm": "\uae30\uc7a5\ud604\ub300\ub4dc\ub9bc\ubcfc\ud30c\ud06c", "statId": "ME18C307", "addr": "\ubd80\uc0b0\uad11\uc5ed\uc2dc \uae30\uc7a5\uad70 \uc77c\uad11\uba74 \ub3d9\ubc31\ub9ac 409", "lat": "35.297079", "lng": "129.240358"}, {"statNm": "\uae30\uc7a5\ud604\ub300\ub4dc\ub9bc\ubcfc\ud30c\ud06c", "statId": "ME18C307", "addr": "\ubd80\uc0b0\uad11\uc5ed\uc2dc \uae30\uc7a5\uad70 \uc77c\uad11\uba74 \ub3d9\ubc31\ub9ac 409", "lat": "35.297079", "lng": "129.240358"}, {"statNm": "\uad6d\ub9bd\ubd80\uc0b0\uacfc\ud559\uad00", "statId": "ME19C144", "addr": "\ubd80\uc0b0\uad11\uc5ed\uc2dc \uae30\uc7a5\uad70 \uae30\uc7a5\uc74d \uc11d\uc0b0\ub9ac 293", "lat": "35.205239", "lng": "129.212284"}, {"statNm": "\uad6d\ub9bd\ubd80\uc0b0\uacfc\ud559\uad00", "statId": "ME19C144", "addr": "\ubd80\uc0b0\uad11\uc5ed\uc2dc \uae30\uc7a5\uad70 \uae30\uc7a5\uc74d \uc11d\uc0b0\ub9ac 293", "lat": "35.205239", "lng": "129.212284"}, {"statNm": "\uba85\uc7a5\ub3d9 \uacf5\uc601\uc8fc\ucc28\uc7a5", "statId": "ME19C145", "addr": "\ubd80\uc0b0\uad11\uc5ed\uc2dc \ub3d9\ub798\uad6c \uba85\uc7a5\ub3d9 538", "lat": "35.210417", "lng": "129.098028"}, {"statNm": "\ubd80\uc804\uc5ed \uacf5\uc601\uc8fc\ucc28\uc7a5", "statId": "ME19C146", "addr": "\ubd80\uc0b0\uad11\uc5ed\uc2dc \ubd80\uc0b0\uc9c4\uad6c \ubd80\uc8041\ub3d9 46", "lat": "35.163250", "lng": "129.061667"}, {"statNm": "\ubd80\uc804\uc5ed \uacf5\uc601\uc8fc\ucc28\uc7a5", "statId": "ME19C146", "addr": "\ubd80\uc0b0\uad11\uc5ed\uc2dc \ubd80\uc0b0\uc9c4\uad6c \ubd80\uc8041\ub3d9 46", "lat": "35.163250", "lng": "129.061667"}, {"statNm": "\uc554\ub0a8\ub3d9\uc8fc\ubbfc\uc13c\ud130", "statId": "ME19C147", "addr": "\ubd80\uc0b0\uad11\uc5ed\uc2dc \uc11c\uad6c \uc554\ub0a8\ub3d9 89-1", "lat": "35.079833", "lng": "129.021333"}, {"statNm": "\ud55c\uad6d\uc218\ub825\uc6d0\uc790\ub825 \uace0\ub9ac\uc6d0\uc790\ub825\ubcf8\ubd80", "statId": "ME19C228", "addr": "\ubd80\uc0b0\uad11\uc5ed\uc2dc \uae30\uc7a5\uad70 \uc7a5\uc548\uc74d \uae38\ucc9c\ub9ac 300", "lat": "35.330056", "lng": "129.286083"}, {"statNm": "\ud55c\uad6d\uc218\ub825\uc6d0\uc790\ub825 \uace0\ub9ac\uc6d0\uc790\ub825\ubcf8\ubd80", "statId": "ME19C228", "addr": "\ubd80\uc0b0\uad11\uc5ed\uc2dc \uae30\uc7a5\uad70 \uc7a5\uc548\uc74d \uae38\ucc9c\ub9ac 300", "lat": "35.330056", "lng": "129.286083"}, {"statNm": "\ubd80\uc0b0\ub3c4\uc2dc\uacf5\uc0ac", "statId": "ME19C229", "addr": "\ubd80\uc0b0\uad11\uc5ed\uc2dc \ubd80\uc0b0\uc9c4\uad6c \uc2e0\ucc9c\ub300\ub85c 156", "lat": "35.155737", "lng": "129.051412"}, {"statNm": "\ubd80\uc0b0\ub3c4\uc2dc\uacf5\uc0ac", "statId": "ME19C229", "addr": "\ubd80\uc0b0\uad11\uc5ed\uc2dc \ubd80\uc0b0\uc9c4\uad6c \uc2e0\ucc9c\ub300\ub85c 156", "lat": "35.155737", "lng": "129.051412"}, {"statNm": "\ud55c\uad6d\uacf5\ud56d\uacf5\uc0ac \ubd80\uc0b0\uc9c0\uc5ed\ubcf8\ubd80 \uae40\ud574\uacf5\ud56d \uc8fc\ucc28\ube4c\ub529", "statId": "ME19C406", "addr": "\ubd80\uc0b0\uad11\uc5ed\uc2dc \uac15\uc11c\uad6c \ub300\uc8002\ub3d9 2764", "lat": "35.171012", "lng": "128.950692"}, {"statNm": "\ud55c\uad6d\uacf5\ud56d\uacf5\uc0ac \ubd80\uc0b0\uc9c0\uc5ed\ubcf8\ubd80 \uae40\ud574\uacf5\ud56d \uc8fc\ucc28\ube4c\ub529", "statId": "ME19C406", "addr": "\ubd80\uc0b0\uad11\uc5ed\uc2dc \uac15\uc11c\uad6c \ub300\uc8002\ub3d9 2764", "lat": "35.171012", "lng": "128.950692"}, {"statNm": "\ud55c\uad6d\uacf5\ud56d\uacf5\uc0ac \ubd80\uc0b0\uc9c0\uc5ed\ubcf8\ubd80 \uae40\ud574\uacf5\ud56d \uc8fc\ucc28\ube4c\ub529", "statId": "ME19C406", "addr": "\ubd80\uc0b0\uad11\uc5ed\uc2dc \uac15\uc11c\uad6c \ub300\uc8002\ub3d9 2764", "lat": "35.171012", "lng": "128.950692"}, {"statNm": "\ud55c\uad6d\uacf5\ud56d\uacf5\uc0ac \ubd80\uc0b0\uc9c0\uc5ed\ubcf8\ubd80 \uae40\ud574\uacf5\ud56d \uc8fc\ucc28\ube4c\ub529", "statId": "ME19C406", "addr": "\ubd80\uc0b0\uad11\uc5ed\uc2dc \uac15\uc11c\uad6c \ub300\uc8002\ub3d9 2764", "lat": "35.171012", "lng": "128.950692"}, {"statNm": "\ud55c\uad6d\uacf5\ud56d\uacf5\uc0ac \ubd80\uc0b0\uc9c0\uc5ed\ubcf8\ubd80 \uae40\ud574\uacf5\ud56d \uc625\uc678\uc8fc\ucc28\uc7a5", "statId": "ME19C408", "addr": "\ubd80\uc0b0\uad11\uc5ed\uc2dc \uac15\uc11c\uad6c \uacf5\ud56d\uc9c4\uc785\ub85c 108", "lat": "35.171750", "lng": "128.950861"}, {"statNm": "\ud55c\uad6d\uacf5\ud56d\uacf5\uc0ac \ubd80\uc0b0\uc9c0\uc5ed\ubcf8\ubd80 \uae40\ud574\uacf5\ud56d \uc625\uc678\uc8fc\ucc28\uc7a5", "statId": "ME19C408", "addr": "\ubd80\uc0b0\uad11\uc5ed\uc2dc \uac15\uc11c\uad6c \uacf5\ud56d\uc9c4\uc785\ub85c 108", "lat": "35.171750", "lng": "128.950861"}, {"statNm": "\ud55c\uad6d\uacf5\ud56d\uacf5\uc0ac \ubd80\uc0b0\uc9c0\uc5ed\ubcf8\ubd80 \uae40\ud574\uacf5\ud56d \uc625\uc678\uc8fc\ucc28\uc7a5", "statId": "ME19C408", "addr": "\ubd80\uc0b0\uad11\uc5ed\uc2dc \uac15\uc11c\uad6c \uacf5\ud56d\uc9c4\uc785\ub85c 108", "lat": "35.171750", "lng": "128.950861"}, {"statNm": "\ud55c\uad6d\uacf5\ud56d\uacf5\uc0ac \ubd80\uc0b0\uc9c0\uc5ed\ubcf8\ubd80 \uae40\ud574\uacf5\ud56d \uc625\uc678\uc8fc\ucc28\uc7a5", "statId": "ME19C408", "addr": "\ubd80\uc0b0\uad11\uc5ed\uc2dc \uac15\uc11c\uad6c \uacf5\ud56d\uc9c4\uc785\ub85c 108", "lat": "35.171750", "lng": "128.950861"}, {"statNm": "\uc7a5\uc548\ud734\uac8c\uc18c(\ubd80\uc0b0\ubc29\ud5a5)", "statId": "ME19D110", "addr": "\ubd80\uc0b0\uad11\uc5ed\uc2dc \uae30\uc7a5\uad70 \uc7a5\uc548\uc74d \ub3d9\ud574\uace0\uc18d\ub3c4\ub85c 25", "lat": "35.37808076", "lng": "129.24623603"}, {"statNm": "\uc7a5\uc548\ud734\uac8c\uc18c(\uc6b8\uc0b0\ubc29\ud5a5)", "statId": "ME19D111", "addr": "\ubd80\uc0b0\uad11\uc5ed\uc2dc \uae30\uc7a5\uad70 \uc7a5\uc548\uc74d \ub3d9\ud574\uace0\uc18d\ub3c4\ub85c 26", "lat": "35.38195967", "lng": "129.24867346"}, {"statNm": "\ubd80\uc0b0 \ud574\uad70\ud68c\uad00", "statId": "ME19D117", "addr": "\ubd80\uc0b0\uad11\uc5ed\uc2dc \ub0a8\uad6c \uc6a9\ud638\ub3d9 947-1", "lat": "35.10504679", "lng": "129.11624615"}, {"statNm": "\ubc14\ub2e4\ubcc4 \uc5b4\ub9b0\uc774\uc9d1", "statId": "ME19D211", "addr": "\ubd80\uc0b0\uad11\uc5ed\uc2dc \ub0a8\uad6c \uc6a9\ub2f9\ub3d9 454-2", "lat": "35.12019375", "lng": "129.09663534"}, {"statNm": "\ubc14\ub2e4\ubcc4 \uc5b4\ub9b0\uc774\uc9d1", "statId": "ME19D211", "addr": "\ubd80\uc0b0\uad11\uc5ed\uc2dc \ub0a8\uad6c \uc6a9\ub2f9\ub3d9 454-2", "lat": "35.12019375", "lng": "129.09663534"}, {"statNm": "\ud574\uc131\uc2a4\ud3ec\ub809\uc2a4 \uc8fc\ucc28\uc7a5", "statId": "ME19D215", "addr": "\ubd80\uc0b0\uad11\uc5ed\uc2dc \uac15\uc11c\uad6c \uacf5\ud56d\uc9c4\uc785\ub85c42\ubc88\uae3820", "lat": "35.18264211", "lng": "128.95286651"}, {"statNm": "\ud574\uc131\uc2a4\ud3ec\ub809\uc2a4 \uc8fc\ucc28\uc7a5", "statId": "ME19D215", "addr": "\ubd80\uc0b0\uad11\uc5ed\uc2dc \uac15\uc11c\uad6c \uacf5\ud56d\uc9c4\uc785\ub85c42\ubc88\uae3820", "lat": "35.18264211", "lng": "128.95286651"}, {"statNm": "\uc2e0\ud574\uc6b4\ub300\uc5ed(\uc81c7508\ubd80\ub300 \uba74\ud68c\uc2e4)", "statId": "ME19D221", "addr": "\ubd80\uc0b0\uad11\uc5ed\uc2dc \ud574\uc6b4\ub300\uad6c \uc88c\ub3d9 \uc0ac\uc11c\ud568 321-16\ud638", "lat": "35.1813107", "lng": "129.17902065"}, {"statNm": "\uc2e0\ud574\uc6b4\ub300\uc5ed(\uc81c7508\ubd80\ub300 \uba74\ud68c\uc2e4)", "statId": "ME19D221", "addr": "\ubd80\uc0b0\uad11\uc5ed\uc2dc \ud574\uc6b4\ub300\uad6c \uc88c\ub3d9 \uc0ac\uc11c\ud568 321-16\ud638", "lat": "35.1813107", "lng": "129.17902065"}, {"statNm": "\ud574\uc6b4\ub300\uc790\ub3d9\ucc28\uac80\uc0ac\uc18c", "statId": "ME19F209", "addr": "\ubd80\uc0b0\uad11\uc5ed\uc2dc \ud574\uc6b4\ub300\uad6c \uc13c\ud140\ub3d9\ub85c 201", "lat": "35.1840451", "lng": "129.1197533"}, {"statNm": "\ud574\uc6b4\ub300\uc790\ub3d9\ucc28\uac80\uc0ac\uc18c", "statId": "ME19F209", "addr": "\ubd80\uc0b0\uad11\uc5ed\uc2dc \ud574\uc6b4\ub300\uad6c \uc13c\ud140\ub3d9\ub85c 201", "lat": "35.1840451", "lng": "129.1197533"}, {"statNm": "\uae30\uc7a5\ud604\ub300\ucc28\ub4dc\ub9bc\ubcfc\ud30c\ud06c", "statId": "ME19F226", "addr": "\ubd80\uc0b0\uad11\uc5ed\uc2dc \uae30\uc7a5\uad70 \uc77c\uad11\uba74 \ub3d9\ubc31\ub9ac 425-1", "lat": "35.2968649", "lng": "129.2431714"}, {"statNm": "\uae30\uc7a5\ud604\ub300\ucc28\ub4dc\ub9bc\ubcfc\ud30c\ud06c", "statId": "ME19F226", "addr": "\ubd80\uc0b0\uad11\uc5ed\uc2dc \uae30\uc7a5\uad70 \uc77c\uad11\uba74 \ub3d9\ubc31\ub9ac 425-1", "lat": "35.2968649", "lng": "129.2431714"}, {"statNm": "\uc774\ub9c8\ud2b8 T\uba85\uc9c0S\uc810", "statId": "ME19Z221", "addr": "\ubd80\uc0b0\uad11\uc5ed\uc2dc \uac15\uc11c\uad6c \uba85\uc9c0\uad6d\uc81c6\ub85c 168", "lat": "35.092899", "lng": "128.918406"}, {"statNm": "\uc774\ub9c8\ud2b8 T\uba85\uc9c0S\uc810", "statId": "ME19Z221", "addr": "\ubd80\uc0b0\uad11\uc5ed\uc2dc \uac15\uc11c\uad6c \uba85\uc9c0\uad6d\uc81c6\ub85c 168", "lat": "35.092899", "lng": "128.918406"}, {"statNm": "\ub300\uc800\uc5ed (\ub300\uc800\ucc28\ub7c9\uae30\uc9c0)", "statId": "ME20C190", "addr": "\ubd80\uc0b0\uad11\uc5ed\uc2dc \uac15\uc11c\uad6c \ub300\uc8001\ub3d9 1619", "lat": "35.2132197", "lng": "128.9542429"}, {"statNm": "\ubd80\uc0b0\ud658\uacbd\uacf5\ub2e8 \uba85\uc9c0\uc0ac\uc5c5\uc18c", "statId": "ME20C191", "addr": "\ubd80\uc0b0\uad11\uc5ed\uc2dc \uac15\uc11c\uad6c \uba85\uc9c0\uc624\uc158\uc2dc\ud2f0 13\ub85c 12-11", "lat": "35.0907501", "lng": "128.8980436"}, {"statNm": "\uc624\uc77c\ub9c8\ud2b8\uc8fc\uc720\uc18c", "statId": "ME20C192", "addr": "null", "lat": "35.086253", "lng": "128.988857"}, {"statNm": "\uc6a9\ud638\ub9cc\uc720\ub78c\uc120\ud130\ubbf8\ub110", "statId": "ME20C289", "addr": "\ubd80\uc0b0\uad11\uc5ed\uc2dc \ub0a8\uad6c \ubd84\ud3ec\ub85c 101", "lat": "35.1323819", "lng": "129.1154628"}, {"statNm": "\uc6a9\ud638\ub9cc\uc720\ub78c\uc120\ud130\ubbf8\ub110", "statId": "ME20C289", "addr": "\ubd80\uc0b0\uad11\uc5ed\uc2dc \ub0a8\uad6c \ubd84\ud3ec\ub85c 101", "lat": "35.1323819", "lng": "129.1154628"}, {"statNm": "\ubd80\uc0b0\ub3c4\uc11c\uad00", "statId": "ME20C290", "addr": "\ubd80\uc0b0\uad11\uc5ed\uc2dc \uc0ac\uc0c1\uad6c \ub355\ud3ec\ub3d9 415-2", "lat": "35.1731802", "lng": "128.9849642"}, {"statNm": "\ubd80\uc0b0\ub3c4\uc11c\uad00", "statId": "ME20C290", "addr": "\ubd80\uc0b0\uad11\uc5ed\uc2dc \uc0ac\uc0c1\uad6c \ub355\ud3ec\ub3d9 415-2", "lat": "35.1731802", "lng": "128.9849642"}, {"statNm": "\ubd80\uc0b0\ub3d9\ubd80\uacbd\ucc30\uc11c", "statId": "ME21B158", "addr": "\ubd80\uc0b0\uad11\uc5ed\uc2dc \ub3d9\uad6c \uc911\uc559\ub300\ub85c 387", "lat": "35.1298626", "lng": "129.0494392"}, {"statNm": "\ubd80\uc0b0\uc601\ub3c4\uacbd\ucc30\uc11c", "statId": "ME21B172", "addr": "\ubd80\uc0b0\uad11\uc5ed\uc2dc \uc601\ub3c4\uad6c \ud0dc\uc885\ub85c 46", "lat": "35.0942458", "lng": "129.0367729"}, {"statNm": "\ubd80\uc0b0\ud604\ub300\ubbf8\uc220\uad00", "statId": "ME21B307", "addr": "\ubd80\uc0b0\uad11\uc5ed\uc2dc \uc0ac\ud558\uad6c \ub099\ub3d9\ub0a8\ub85c 1191", "lat": "35.1090599", "lng": "128.9435435"}, {"statNm": "\ubd80\uc0b0\ud604\ub300\ubbf8\uc220\uad00", "statId": "ME21B307", "addr": "\ubd80\uc0b0\uad11\uc5ed\uc2dc \uc0ac\ud558\uad6c \ub099\ub3d9\ub0a8\ub85c 1191", "lat": "35.1090599", "lng": "128.9435435"}, {"statNm": "\ubd80\uc0b0\ud604\ub300\ubbf8\uc220\uad00", "statId": "ME21B307", "addr": "\ubd80\uc0b0\uad11\uc5ed\uc2dc \uc0ac\ud558\uad6c \ub099\ub3d9\ub0a8\ub85c 1191", "lat": "35.1090599", "lng": "128.9435435"}, {"statNm": "\ubd80\uc0b0\uc138\uad00 \uc2e0\ud56d\uccad\uc0ac", "statId": "BNOA0301", "addr": "\ubd80\uc0b0\uad11\uc5ed\uc2dc \uac15\uc11c\uad6c \ub179\uc0b0\uc0b0\ub2e8178\ub85c 37-17", "lat": "35.086015", "lng": "128.838608"}, {"statNm": "\ubd80\uc0b0\uc138\uad00 \uc2e0\ud56d\uccad\uc0ac", "statId": "BNOA0301", "addr": "\ubd80\uc0b0\uad11\uc5ed\uc2dc \uac15\uc11c\uad6c \ub179\uc0b0\uc0b0\ub2e8178\ub85c 37-17", "lat": "35.086015", "lng": "128.838608"}, {"statNm": "\ubd80\uc0b0 \ub2f9\ub9ac\ub3d9 \uc0db\ubcc4\uacf5\uc6d0 \uacf5\uc601\uc8fc\ucc28\uc7a5", "statId": "BNOB0501", "addr": "\ubd80\uc0b0\uad11\uc5ed\uc2dc \uc0ac\ud558\uad6c \ub099\ub3d9\ub300\ub85c356\ubc88\uae38 55", "lat": "35.102413", "lng": "128.981557"}, {"statNm": "\ubd80\uc0b0 \ub2f9\ub9ac\ub3d9 \uc0db\ubcc4\uacf5\uc6d0 \uacf5\uc601\uc8fc\ucc28\uc7a5", "statId": "BNOB0501", "addr": "\ubd80\uc0b0\uad11\uc5ed\uc2dc \uc0ac\ud558\uad6c \ub099\ub3d9\ub300\ub85c356\ubc88\uae38 55", "lat": "35.102413", "lng": "128.981557"}, {"statNm": "\ubd80\uc0b0 \ubd09\ub798\uc0b0 \uc5ed\uc0ac\ud14c\ub9c8\uacf5\uc6d0 \uacf5\uc601\uc8fc\ucc28\uc7a5", "statId": "BNOB0502", "addr": "\ubd80\uc0b0\uad11\uc5ed\uc2dc \uc601\ub3c4\uad6c \uccad\ud559\ub3d9 483-6", "lat": "35.086012", "lng": "129.059829"}, {"statNm": "\ubd80\uc0b0 \ubd09\ub798\uc0b0 \uc5ed\uc0ac\ud14c\ub9c8\uacf5\uc6d0 \uacf5\uc601\uc8fc\ucc28\uc7a5", "statId": "BNOB0502", "addr": "\ubd80\uc0b0\uad11\uc5ed\uc2dc \uc601\ub3c4\uad6c \uccad\ud559\ub3d9 483-6", "lat": "35.086012", "lng": "129.059829"}, {"statNm": "\ubd80\uc0b0 \ubd09\ub798\uc0b0 \uc5ed\uc0ac\ud14c\ub9c8\uacf5\uc6d0 \uacf5\uc601\uc8fc\ucc28\uc7a5", "statId": "BNOB0502", "addr": "\ubd80\uc0b0\uad11\uc5ed\uc2dc \uc601\ub3c4\uad6c \uccad\ud559\ub3d9 483-6", "lat": "35.086012", "lng": "129.059829"}, {"statNm": "\ubd80\uc0b0 \ubd09\ub798\uc0b0 \uc5ed\uc0ac\ud14c\ub9c8\uacf5\uc6d0 \uacf5\uc601\uc8fc\ucc28\uc7a5", "statId": "BNOB0502", "addr": "\ubd80\uc0b0\uad11\uc5ed\uc2dc \uc601\ub3c4\uad6c \uccad\ud559\ub3d9 483-6", "lat": "35.086012", "lng": "129.059829"}, {"statNm": "\ub3d9\ub798\ub798\ubbf8\uc548\uc544\uc774\ud30c\ud06c 1\ub2e8\uc9c0", "statId": "BNOG3201", "addr": "\ubd80\uc0b0\uad11\uc5ed\uc2dc \ub3d9\ub798\uad6c \uae08\uc815\ub9c8\uc744\ub85c 147", "lat": "35.213019", "lng": "129.0695122"}, {"statNm": "\ub3d9\ub798 \ub798\ubbf8\uc548\uc544\uc774\ud30c\ud06c 2\ub2e8\uc9c0", "statId": "BNOG3202", "addr": "\ubd80\uc0b0\uad11\uc5ed\uc2dc \ub3d9\ub798\uad6c \uae08\uc815\ub9c8\uc744\ub85c 150", "lat": "35.211490065", "lng": "129.06900962"}, {"statNm": "\ub3d9\ub798 \ub798\ubbf8\uc548\uc544\uc774\ud30c\ud06c 2\ub2e8\uc9c0", "statId": "BNOG3202", "addr": "\ubd80\uc0b0\uad11\uc5ed\uc2dc \ub3d9\ub798\uad6c \uae08\uc815\ub9c8\uc744\ub85c 150", "lat": "35.211490065", "lng": "129.06900962"}, {"statNm": "\ub3d9\ub798 \ub798\ubbf8\uc548\uc544\uc774\ud30c\ud06c 3\ub2e8\uc9c0", "statId": "BNOG3203", "addr": "\ubd80\uc0b0\uad11\uc5ed\uc2dc \ub3d9\ub798\uad6c \ucda9\ub82c\ub300\ub85c107\ubc88\uae38 65", "lat": "35.210858829", "lng": "129.07193399"}, {"statNm": "\ub3d9\ub798 \ub798\ubbf8\uc548\uc544\uc774\ud30c\ud06c 3\ub2e8\uc9c0", "statId": "BNOG3203", "addr": "\ubd80\uc0b0\uad11\uc5ed\uc2dc \ub3d9\ub798\uad6c \ucda9\ub82c\ub300\ub85c107\ubc88\uae38 65", "lat": "35.210858829", "lng": "129.07193399"}, {"statNm": "\uce74\ud398\uc9c0\uc218", "statId": "CSCPC001", "addr": "\ubd80\uc0b0\uad11\uc5ed\uc2dc \uae08\uc815\uad6c \uc0b0\uc131\ub85c 428", "lat": "35.251213", "lng": "129.053825"}, {"statNm": "\ub2c8\uc988\ud638\ud154", "statId": "CSNSH001", "addr": "\ubd80\uc0b0\uad11\uc5ed\uc2dc \uae08\uc815\uad6c \ud314\uc1a1\ub85c24\ubc88\uae38 52", "lat": "35.274506", "lng": "129.089965"}, {"statNm": "\ub3d9\uc758\ub300\ud559\uad50 \uac00\uc57c\ucea0\ud37c\uc2a4", "statId": "CU510001", "addr": "\ubd80\uc0b0\uad11\uc5ed\uc2dc \ubd80\uc0b0\uc9c4\uad6c \uc5c4\uad11\ub85c 176", "lat": "35.1459356", "lng": "129.035277"}, {"statNm": "\uc704\ud074\ub9ac\uc2a4\ud0c0", "statId": "CU510002", "addr": "\ubd80\uc0b0\uad11\uc5ed\uc2dc \ubd80\uc0b0\uc9c4\uad6c \uc911\uc559\ub300\ub85c680\ubc88\uae38 22", "lat": "35.153393", "lng": "129.060425"}, {"statNm": "GS\uc218\ud37c\ub9c8\ucf13 \uba85\uc7a5\uc810", "statId": "CV000036", "addr": "\ubd80\uc0b0\uad11\uc5ed\uc2dc \ub3d9\ub798\uad6c \ubc18\uc1a1\ub85c 291", "lat": "35.2063539999", "lng": "129.1018410000"}, {"statNm": "GS\uc218\ud37c\ub9c8\ucf13 \uad6c\ud3ec\uc810", "statId": "CV000041", "addr": "\ubd80\uc0b0\uad11\uc5ed\uc2dc \ubd81\uad6c \uad6c\ud3ec\ub3d9", "lat": "35.2057270000", "lng": "129.0033249999"}, {"statNm": "\uae30\uc544\uc624\ud1a0Q \ud611\uc2e0\uc790\ub3d9\ucc28\uc11c\ube44\uc2a4", "statId": "CV000095", "addr": "\ubd80\uc0b0\uad11\uc5ed\uc2dc \uc5f0\uc81c\uad6c \uc6d4\ub4dc\ucef5\ub300\ub85c 180", "lat": "35.187937000", "lng": "129.07716699"}, {"statNm": "\uae08\uace1\uc8fc\uacf56\ub2e8\uc9c0", "statId": "CV000133", "addr": "\ubd80\uc0b0\uad11\uc5ed\uc2dc \ubd81\uad6c \ud6a8\uc5f4\ub85c 40", "lat": "35.2488869", "lng": "129.0153981"}, {"statNm": "\uae08\uace1\uc8fc\uacf56\ub2e8\uc9c0", "statId": "CV000133", "addr": "\ubd80\uc0b0\uad11\uc5ed\uc2dc \ubd81\uad6c \ud6a8\uc5f4\ub85c 40", "lat": "35.2488869", "lng": "129.0153981"}, {"statNm": "\ubd80\uc0b0\uc0b0\uc5c5\uc6a9\ud488\uc720\ud1b5\ub2e8\uc9c0", "statId": "CV000147", "addr": "\ubd80\uc0b0\uad11\uc5ed\uc2dc \uc0ac\uc0c1\uad6c \uad18\uac10\ub85c 37", "lat": "35.160019", "lng": "128.979548"}, {"statNm": "\ubd80\uc0b0\uc0b0\uc5c5\uc6a9\ud488\uc720\ud1b5\ub2e8\uc9c0", "statId": "CV000147", "addr": "\ubd80\uc0b0\uad11\uc5ed\uc2dc \uc0ac\uc0c1\uad6c \uad18\uac10\ub85c 37", "lat": "35.160019", "lng": "128.979548"}, {"statNm": "\ubd80\uc0b0\uc0b0\uc5c5\uc6a9\ud488\uc720\ud1b5\ub2e8\uc9c0", "statId": "CV000147", "addr": "\ubd80\uc0b0\uad11\uc5ed\uc2dc \uc0ac\uc0c1\uad6c \uad18\uac10\ub85c 37", "lat": "35.160019", "lng": "128.979548"}, {"statNm": "\ubd80\uc0b0\uc0b0\uc5c5\uc6a9\ud488\uc720\ud1b5\ub2e8\uc9c0", "statId": "CV000147", "addr": "\ubd80\uc0b0\uad11\uc5ed\uc2dc \uc0ac\uc0c1\uad6c \uad18\uac10\ub85c 37", "lat": "35.160019", "lng": "128.979548"}, {"statNm": "\ubd80\uc0b0\uc0b0\uc5c5\uc6a9\ud488\uc720\ud1b5\ub2e8\uc9c0", "statId": "CV000147", "addr": "\ubd80\uc0b0\uad11\uc5ed\uc2dc \uc0ac\uc0c1\uad6c \uad18\uac10\ub85c 37", "lat": "35.160019", "lng": "128.979548"}, {"statNm": "\ubd80\uc0b0\uc0b0\uc5c5\uc6a9\ud488\uc720\ud1b5\ub2e8\uc9c0", "statId": "CV000147", "addr": "\ubd80\uc0b0\uad11\uc5ed\uc2dc \uc0ac\uc0c1\uad6c \uad18\uac10\ub85c 37", "lat": "35.160019", "lng": "128.979548"}, {"statNm": "\ube14\ub8e8\ud578\uc988 \ud604\ub300\uae30\uc544 \ub0a8\uad6c\uc815\ube44\uc11c\ube44\uc2a4", "statId": "CV000177", "addr": "\ubd80\uc0b0\uad11\uc5ed\uc2dc \ub0a8\uad6c \uc2e0\uc120\ub85c 340", "lat": "35.1166211", "lng": "129.0957107"}, {"statNm": "\ube14\ub8e8\ud578\uc988 \ud604\ub300\uae30\uc544 \ub0a8\uad6c\uc815\ube44\uc11c\ube44\uc2a4", "statId": "CV000177", "addr": "\ubd80\uc0b0\uad11\uc5ed\uc2dc \ub0a8\uad6c \uc2e0\uc120\ub85c 340", "lat": "35.1166211", "lng": "129.0957107"}, {"statNm": "\ud55c\uad6d\uc804\uae30\uc548\uc804\uacf5\uc0ac \ubd80\uc0b0\uc6b8\uc0b0\uc9c0\uc5ed\ubcf8\ubd80", "statId": "CV000241", "addr": "\ubd80\uc0b0\uad11\uc5ed\uc2dc \uc911\uad6c \ud574\uad00\ub85c 27", "lat": "35.101373", "lng": "129.035528"}, {"statNm": "\ud55c\uad6d\uc804\uae30\uc548\uc804\uacf5\uc0ac \ubd80\uc0b0\uc6b8\uc0b0\uc9c0\uc5ed\ubcf8\ubd80", "statId": "CV000241", "addr": "\ubd80\uc0b0\uad11\uc5ed\uc2dc \uc911\uad6c \ud574\uad00\ub85c 27", "lat": "35.101373", "lng": "129.035528"}, {"statNm": "\uba85\uc9c0 KB\ud0c0\uc6cc", "statId": "CV000266", "addr": "\ubd80\uc0b0\uad11\uc5ed\uc2dc \uac15\uc11c\uad6c \uba85\uc9c0\uad6d\uc81c8\ub85c10\ubc88\uae38 16", "lat": "35.092099", "lng": "128.9027619"}, {"statNm": "\uc601\uc0b0\ub300\ud559\uad50 \ud574\uc6b4\ub300\ucea0\ud37c\uc2a4", "statId": "CV000291", "addr": "\ubd80\uc0b0\uad11\uc5ed\uc2dc \ud574\uc6b4\ub300\uad6c \ubc18\uc1a1\uc21c\ud658\ub85c 142", "lat": "35.2244112", "lng": "129.1558623"}, {"statNm": "\uc601\uc0b0\ub300\ud559\uad50 \ud574\uc6b4\ub300\ucea0\ud37c\uc2a4", "statId": "CV000291", "addr": "\ubd80\uc0b0\uad11\uc5ed\uc2dc \ud574\uc6b4\ub300\uad6c \ubc18\uc1a1\uc21c\ud658\ub85c 142", "lat": "35.2244112", "lng": "129.1558623"}, {"statNm": "\ubb38\ud604 \ubc94\uc591\ub808\uc6b0\uc2a4 \uc544\ud30c\ud2b8", "statId": "CV000359", "addr": "\ubd80\uc0b0\uad11\uc5ed\uc2dc \ub0a8\uad6c \ud669\ub839\ub300\ub85c90\ubc88\uae38 55", "lat": "35.1479667", "lng": "129.0701715"}, {"statNm": "\ubb38\ud604 \ubc94\uc591\ub808\uc6b0\uc2a4 \uc544\ud30c\ud2b8", "statId": "CV000359", "addr": "\ubd80\uc0b0\uad11\uc5ed\uc2dc \ub0a8\uad6c \ud669\ub839\ub300\ub85c90\ubc88\uae38 55", "lat": "35.1479667", "lng": "129.0701715"}, {"statNm": "\uc624\ud1a0\ud14c\ud06c\uc544\ud2b8", "statId": "CV000408", "addr": "\ubd80\uc0b0\uad11\uc5ed\uc2dc \uc218\uc601\uad6c \uad11\ub0a8\ub85c 177", "lat": "35.156934", "lng": "129.119311"}, {"statNm": "\ud574\uc6b4\ub300 \uc628\ucc9c\uc13c\ud130 \uc8fc\ucc28\ube4c\ub529", "statId": "CV000484", "addr": "\ubd80\uc0b0\uad11\uc5ed\uc2dc \ud574\uc6b4\ub300\uad6c \uc911\ub3d92\ub85c10\ubc88\uae38 21", "lat": "35.163468192738", "lng": "129.1655011521"}, {"statNm": "\ubd80\uc0b0 \uba85\uc9c0 \uc6b0\ubc29\uc544\uc774\uc720\uc258", "statId": "CV000485", "addr": "\ubd80\uc0b0\uad11\uc5ed\uc2dc \uac15\uc11c\uad6c \ud654\uc804\uc0b0\ub2e86\ub85c136\ubc88\uae38 31", "lat": "35.110043590384", "lng": "128.8865150725"}, {"statNm": "\ubd80\uc0b0 \uba85\uc9c0 \uc6b0\ubc29\uc544\uc774\uc720\uc258", "statId": "CV000485", "addr": "\ubd80\uc0b0\uad11\uc5ed\uc2dc \uac15\uc11c\uad6c \ud654\uc804\uc0b0\ub2e86\ub85c136\ubc88\uae38 31", "lat": "35.110043590384", "lng": "128.8865150725"}, {"statNm": "\ubd80\uc0b0 \uba85\uc9c0 \uc6b0\ubc29\uc544\uc774\uc720\uc258", "statId": "CV000485", "addr": "\ubd80\uc0b0\uad11\uc5ed\uc2dc \uac15\uc11c\uad6c \ud654\uc804\uc0b0\ub2e86\ub85c136\ubc88\uae38 31", "lat": "35.110043590384", "lng": "128.8865150725"}, {"statNm": "\ubd80\uc0b0 \uba85\uc9c0 \uc6b0\ubc29\uc544\uc774\uc720\uc258", "statId": "CV000485", "addr": "\ubd80\uc0b0\uad11\uc5ed\uc2dc \uac15\uc11c\uad6c \ud654\uc804\uc0b0\ub2e86\ub85c136\ubc88\uae38 31", "lat": "35.110043590384", "lng": "128.8865150725"}, {"statNm": "\ubd80\uc0b0 \uba85\uc9c0 \uc6b0\ubc29\uc544\uc774\uc720\uc258", "statId": "CV000485", "addr": "\ubd80\uc0b0\uad11\uc5ed\uc2dc \uac15\uc11c\uad6c \ud654\uc804\uc0b0\ub2e86\ub85c136\ubc88\uae38 31", "lat": "35.110043590384", "lng": "128.8865150725"}, {"statNm": "\ubd80\uc0b0 \uba85\uc9c0 \uc6b0\ubc29\uc544\uc774\uc720\uc258", "statId": "CV000485", "addr": "\ubd80\uc0b0\uad11\uc5ed\uc2dc \uac15\uc11c\uad6c \ud654\uc804\uc0b0\ub2e86\ub85c136\ubc88\uae38 31", "lat": "35.110043590384", "lng": "128.8865150725"}, {"statNm": "\ubd80\uc0b0 \uba85\uc9c0 \uc6b0\ubc29\uc544\uc774\uc720\uc258", "statId": "CV000485", "addr": "\ubd80\uc0b0\uad11\uc5ed\uc2dc \uac15\uc11c\uad6c \ud654\uc804\uc0b0\ub2e86\ub85c136\ubc88\uae38 31", "lat": "35.110043590384", "lng": "128.8865150725"}, {"statNm": "\ubd80\uc0b0 \uba85\uc9c0 \uc6b0\ubc29\uc544\uc774\uc720\uc258", "statId": "CV000485", "addr": "\ubd80\uc0b0\uad11\uc5ed\uc2dc \uac15\uc11c\uad6c \ud654\uc804\uc0b0\ub2e86\ub85c136\ubc88\uae38 31", "lat": "35.110043590384", "lng": "128.8865150725"}, {"statNm": "\ubd80\uc0b0 \uba85\uc9c0 \uc6b0\ubc29\uc544\uc774\uc720\uc258", "statId": "CV000485", "addr": "\ubd80\uc0b0\uad11\uc5ed\uc2dc \uac15\uc11c\uad6c \ud654\uc804\uc0b0\ub2e86\ub85c136\ubc88\uae38 31", "lat": "35.110043590384", "lng": "128.8865150725"}, {"statNm": "GS25 \ub300\uc800\ud504\ub808\uc26c\uc810", "statId": "CV000588", "addr": "\ubd80\uc0b0\uad11\uc5ed\uc2dc \uac15\uc11c\uad6c \ub300\uc800\ub85c 153", "lat": "35.215068", "lng": "128.96955"}, {"statNm": "E\ud3b8\ud55c\uc138\uc0c1\uad11\uc548\ube44\uce58\uc544\ud30c\ud2b8", "statId": "CV000602", "addr": "\ubd80\uc0b0\uad11\uc5ed\uc2dc \uc218\uc601\uad6c \ubbfc\ub77d\uc218\ubcc0\ub85c7\ubc88\uae38 60", "lat": "35.155075", "lng": "129.1258407"}, {"statNm": "\ubd80\uc0b0\ud56d\ub9cc\uacf5\uc0ac", "statId": "CV000608", "addr": "\ubd80\uc0b0\uad11\uc5ed\uc2dc \uc911\uad6c \ub300\uad50\ub85c 122", "lat": "35.100957", "lng": "129.0385959"}, {"statNm": "\ubd80\uc0b0\ud56d\ub9cc\uacf5\uc0ac", "statId": "CV000608", "addr": "\ubd80\uc0b0\uad11\uc5ed\uc2dc \uc911\uad6c \ub300\uad50\ub85c 122", "lat": "35.100957", "lng": "129.0385959"}, {"statNm": "\uc88b\uc740\uac15\uc548\ubcd1\uc6d0(\uad11\uc740\ube4c\ub529)", "statId": "CV000650", "addr": "\ubd80\uc0b0\uad11\uc5ed\uc2dc \uc218\uc601\uad6c \uc218\uc601\ub85c 480", "lat": "35.148660000000", "lng": "129.1110579999"}, {"statNm": "\ubd80\uc0b0\ub300\ud559\uad50", "statId": "CV000666", "addr": "\ubd80\uc0b0\uad11\uc5ed\uc2dc \uae08\uc815\uad6c \ubd80\uc0b0\ub300\ud559\ub85c63\ubc88\uae38 2", "lat": "35.236359561709", "lng": "129.0824122823"}, {"statNm": "\ubd80\uc0b0\ub300\ud559\uad50", "statId": "CV000666", "addr": "\ubd80\uc0b0\uad11\uc5ed\uc2dc \uae08\uc815\uad6c \ubd80\uc0b0\ub300\ud559\ub85c63\ubc88\uae38 2", "lat": "35.236359561709", "lng": "129.0824122823"}, {"statNm": "\uc544\uc6b0\ub514_\uc0ac\uc0c1 \uc11c\ube44\uc2a4\uc13c\ud130 150KW", "statId": "CV000768", "addr": "\ubd80\uc0b0\uad11\uc5ed\uc2dc \uc0ac\uc0c1\uad6c \ud559\uac10\ub300\ub85c191\ubc88\uae38 19", "lat": "35.147728000000", "lng": "128.9879539999"}, {"statNm": "\uc544\uc6b0\ub514_\ud574\uc6b4\ub300 \uc804\uc2dc\uc7a5", "statId": "CV000771", "addr": "\ubd80\uc0b0\uad11\uc5ed\uc2dc \ud574\uc6b4\ub300\uad6c \ud574\uc6b4\ub300\ud574\ubcc0\ub85c 305", "lat": "35.161617999999", "lng": "129.1639430000"}, {"statNm": "\uc544\uc6b0\ub514_\ubd80\uc0b0\uc2dc \uc804\uc2dc\uc7a5", "statId": "CV000780", "addr": "\ubd80\uc0b0\uad11\uc5ed\uc2dc \uae08\uc815\uad6c \uc911\uc559\ub300\ub85c 1661", "lat": "35.23253300000", "lng": "129.09151700000"}, {"statNm": "\ud574\uc591\ud50c\ub79c\ud2b8\uace0\uae09\uae30\uc220\uc5d4\uc9c0\ub2c8\uc5b4\ub9c1\uc13c\ud130", "statId": "CV000786", "addr": "\ubd80\uc0b0\uad11\uc5ed\uc2dc \uac15\uc11c\uad6c \uc0dd\uace1\ub85c189\ubc88\uae38 10", "lat": "35.134454206433", "lng": "128.8947973723"}, {"statNm": "\uc544\uc6b0\ub514_\ub0a8\ucc9c \uc804\uc2dc\uc7a5", "statId": "CV000819", "addr": "\ubd80\uc0b0\uad11\uc5ed\uc2dc \uc218\uc601\uad6c \ud669\ub839\ub300\ub85c 501", "lat": "35.137865000000", "lng": "129.1088100000"}, {"statNm": "\uc544\uc6b0\ub514_\ub0a8\ucc9c \uc804\uc2dc\uc7a5", "statId": "CV000819", "addr": "\ubd80\uc0b0\uad11\uc5ed\uc2dc \uc218\uc601\uad6c \ud669\ub839\ub300\ub85c 501", "lat": "35.137865000000", "lng": "129.1088100000"}, {"statNm": "\uc11c\ub3d9 \ubbf8\ub85c\uc2dc\uc7a5 \uacf5\uc601\uc8fc\ucc28\uc7a5", "statId": "CV000821", "addr": "\ubd80\uc0b0\uad11\uc5ed\uc2dc \uae08\uc815\uad6c \uc11c\ubd80\ub85c16\ubc88\uae38 13-3", "lat": "35.216226400655", "lng": "129.1043931220"}, {"statNm": "\ud604\ub300\uc5d4\uc9c0\ub2c8\uc5b4\ub9c1 \uace0\ub824\uc81c\uac15 \uc81c 1\uc8fc\ucc28\uc7a5", "statId": "CV000861", "addr": "\ubd80\uc0b0\uad11\uc5ed\uc2dc \uc218\uc601\uad6c \uad6c\ub77d\ub85c 150", "lat": "35.180812", "lng": "129.1159369"}, {"statNm": "\ud604\ub300\uc5d4\uc9c0\ub2c8\uc5b4\ub9c1 \uace0\ub824\uc81c\uac15 \uc81c 1\uc8fc\ucc28\uc7a5", "statId": "CV000861", "addr": "\ubd80\uc0b0\uad11\uc5ed\uc2dc \uc218\uc601\uad6c \uad6c\ub77d\ub85c 150", "lat": "35.180812", "lng": "129.1159369"}, {"statNm": "\ubd80\uc0b0\ubaa8\ud130\uc2a4\ud29c\ub514\uc624(\uace0\ub824\uc81c\uac15)", "statId": "CV000862", "addr": "\ubd80\uc0b0\uad11\uc5ed\uc2dc \uc218\uc601\uad6c \uad6c\ub77d\ub85c 147-6", "lat": "35.1794062", "lng": "129.1144143"}, {"statNm": "\ubd80\uc0b0\ubaa8\ud130\uc2a4\ud29c\ub514\uc624(\uace0\ub824\uc81c\uac15)", "statId": "CV000862", "addr": "\ubd80\uc0b0\uad11\uc5ed\uc2dc \uc218\uc601\uad6c \uad6c\ub77d\ub85c 147-6", "lat": "35.1794062", "lng": "129.1144143"}, {"statNm": "\ud574\uc6b4\ub300 \uacbd\ubcf4\uc774\ub9ac\uc2a4\uc624\uc158", "statId": "CV000867", "addr": "\ubd80\uc0b0\uad11\uc5ed\uc2dc \ud574\uc6b4\ub300\uad6c \uc911\ub3d91\ub85c19\ubc88\uae38 24", "lat": "35.163542525", "lng": "129.16294710"}, {"statNm": "\ud3ec\ub974\uc250 HPC \ub370\uc2a4\ud2f0\ub124\uc774\uc158 \ubd80\uc0b0 \uc6e8\uc2a4\ud2f4 \uc870\uc120 \ud638\ud154", "statId": "CV000877", "addr": "\ubd80\uc0b0\uad11\uc5ed\uc2dc \ud574\uc6b4\ub300\uad6c \ub3d9\ubc31\ub85c 67", "lat": "35.155973", "lng": "129.154037"}, {"statNm": "\ud3ec\ub974\uc250 HPC \ub370\uc2a4\ud2f0\ub124\uc774\uc158 \ubd80\uc0b0 \uc6e8\uc2a4\ud2f4 \uc870\uc120 \ud638\ud154", "statId": "CV000877", "addr": "\ubd80\uc0b0\uad11\uc5ed\uc2dc \ud574\uc6b4\ub300\uad6c \ub3d9\ubc31\ub85c 67", "lat": "35.155973", "lng": "129.154037"}, {"statNm": "\ud648\ud50c\ub7ec\uc2a4 \uc544\uc2dc\uc544\ub4dc\uc810", "statId": "CV000916", "addr": "\ubd80\uc0b0\uad11\uc5ed\uc2dc \uc5f0\uc81c\uad6c \uc885\ud569\uc6b4\ub3d9\uc7a5\ub85c 7", "lat": "35.191247", "lng": "129.061989"}, {"statNm": "\ud648\ud50c\ub7ec\uc2a4 \uc544\uc2dc\uc544\ub4dc\uc810", "statId": "CV000916", "addr": "\ubd80\uc0b0\uad11\uc5ed\uc2dc \uc5f0\uc81c\uad6c \uc885\ud569\uc6b4\ub3d9\uc7a5\ub85c 7", "lat": "35.191247", "lng": "129.061989"}, {"statNm": "\ud648\ud50c\ub7ec\uc2a4 \uc544\uc2dc\uc544\ub4dc\uc810", "statId": "CV000916", "addr": "\ubd80\uc0b0\uad11\uc5ed\uc2dc \uc5f0\uc81c\uad6c \uc885\ud569\uc6b4\ub3d9\uc7a5\ub85c 7", "lat": "35.191247", "lng": "129.061989"}, {"statNm": "\ud648\ud50c\ub7ec\uc2a4 \uc544\uc2dc\uc544\ub4dc\uc810", "statId": "CV000916", "addr": "\ubd80\uc0b0\uad11\uc5ed\uc2dc \uc5f0\uc81c\uad6c \uc885\ud569\uc6b4\ub3d9\uc7a5\ub85c 7", "lat": "35.191247", "lng": "129.061989"}, {"statNm": "\ud648\ud50c\ub7ec\uc2a4 \uc544\uc2dc\uc544\ub4dc\uc810", "statId": "CV000916", "addr": "\ubd80\uc0b0\uad11\uc5ed\uc2dc \uc5f0\uc81c\uad6c \uc885\ud569\uc6b4\ub3d9\uc7a5\ub85c 7", "lat": "35.191247", "lng": "129.061989"}, {"statNm": "\ud648\ud50c\ub7ec\uc2a4 \uc544\uc2dc\uc544\ub4dc\uc810", "statId": "CV000916", "addr": "\ubd80\uc0b0\uad11\uc5ed\uc2dc \uc5f0\uc81c\uad6c \uc885\ud569\uc6b4\ub3d9\uc7a5\ub85c 7", "lat": "35.191247", "lng": "129.061989"}, {"statNm": "\ud648\ud50c\ub7ec\uc2a4 \uc544\uc2dc\uc544\ub4dc\uc810", "statId": "CV000916", "addr": "\ubd80\uc0b0\uad11\uc5ed\uc2dc \uc5f0\uc81c\uad6c \uc885\ud569\uc6b4\ub3d9\uc7a5\ub85c 7", "lat": "35.191247", "lng": "129.061989"}, {"statNm": "\ud3ec\ub974\uc250 \ub370\uc2a4\ud2f0\ub124\uc774\uc158 \ud648\ud50c\ub7ec\uc2a4 \ubd80\uc0b0\uc544\uc2dc\uc544\ub4dc\uc810", "statId": "CV000917", "addr": "\ubd80\uc0b0\uad11\uc5ed\uc2dc \uc5f0\uc81c\uad6c \uc885\ud569\uc6b4\ub3d9\uc7a5\ub85c 7", "lat": "35.1913128", "lng": "129.0621768"}, {"statNm": "\ud3ec\ub974\uc250 \ub370\uc2a4\ud2f0\ub124\uc774\uc158 \ud648\ud50c\ub7ec\uc2a4 \ubd80\uc0b0\uc544\uc2dc\uc544\ub4dc\uc810", "statId": "CV000917", "addr": "\ubd80\uc0b0\uad11\uc5ed\uc2dc \uc5f0\uc81c\uad6c \uc885\ud569\uc6b4\ub3d9\uc7a5\ub85c 7", "lat": "35.1913128", "lng": "129.0621768"}, {"statNm": "\ud3ec\ub974\uc250 \ub370\uc2a4\ud2f0\ub124\uc774\uc158 \ud648\ud50c\ub7ec\uc2a4 \ubd80\uc0b0\uc544\uc2dc\uc544\ub4dc\uc810", "statId": "CV000917", "addr": "\ubd80\uc0b0\uad11\uc5ed\uc2dc \uc5f0\uc81c\uad6c \uc885\ud569\uc6b4\ub3d9\uc7a5\ub85c 7", "lat": "35.1913128", "lng": "129.0621768"}, {"statNm": "\uc624\uc2dc\ub9ac\uc544 \uad00\uad11\ub2e8\uc9c0 \ub8e8\uc9c0 \uc8fc\ucc28\uc7a5", "statId": "CV000923", "addr": "\ubd80\uc0b0\uad11\uc5ed\uc2dc \uae30\uc7a5\uad70 \uae30\uc7a5\uc74d \uae30\uc7a5\ud574\uc548\ub85c 205", "lat": "35.194075777", "lng": "129.2194779"}, {"statNm": "\uc624\uc2dc\ub9ac\uc544 \uad00\uad11\ub2e8\uc9c0 \ub8e8\uc9c0 \uc8fc\ucc28\uc7a5", "statId": "CV000923", "addr": "\ubd80\uc0b0\uad11\uc5ed\uc2dc \uae30\uc7a5\uad70 \uae30\uc7a5\uc74d \uae30\uc7a5\ud574\uc548\ub85c 205", "lat": "35.194075777", "lng": "129.2194779"}, {"statNm": "\uac00\uc57c\ub204\ub9ac\uc560\ub354\uc13c\ud2b8\ub9ac\uc988", "statId": "CV000971", "addr": "\ubd80\uc0b0\uad11\uc5ed\uc2dc \ubd80\uc0b0\uc9c4\uad6c \ubc94\ucc9c\ub85c 16", "lat": "35.14814000", "lng": "129.05621200"}, {"statNm": "\uac00\uc57c\ub204\ub9ac\uc560\ub354\uc13c\ud2b8\ub9ac\uc988", "statId": "CV000971", "addr": "\ubd80\uc0b0\uad11\uc5ed\uc2dc \ubd80\uc0b0\uc9c4\uad6c \ubc94\ucc9c\ub85c 16", "lat": "35.14814000", "lng": "129.05621200"}, {"statNm": "\uac00\uc57c\ub204\ub9ac\uc560\ub354\uc13c\ud2b8\ub9ac\uc988", "statId": "CV000971", "addr": "\ubd80\uc0b0\uad11\uc5ed\uc2dc \ubd80\uc0b0\uc9c4\uad6c \ubc94\ucc9c\ub85c 16", "lat": "35.14814000", "lng": "129.05621200"}, {"statNm": "\uc778\ud30c\ud06c\uc5d0\ube44\ub274 \uc11c\uba74", "statId": "CV000996", "addr": "\ubd80\uc0b0\uad11\uc5ed\uc2dc \ubd80\uc0b0\uc9c4\uad6c \uc11c\uc804\ub85c9\ubc88\uae38 20", "lat": "35.158516999", "lng": "129.06101200"}, {"statNm": "\uc778\ud30c\ud06c\uc5d0\ube44\ub274 \uc11c\uba74", "statId": "CV000996", "addr": "\ubd80\uc0b0\uad11\uc5ed\uc2dc \ubd80\uc0b0\uc9c4\uad6c \uc11c\uc804\ub85c9\ubc88\uae38 20", "lat": "35.158516999", "lng": "129.06101200"}, {"statNm": "\uae08\uc0d8\ub3c4\uc11c\uad00", "statId": "CV001074", "addr": "\ubd80\uc0b0\uad11\uc5ed\uc2dc \uae08\uc815\uad6c \uae30\ucc30\ub85c 94", "lat": "35.238990999", "lng": "129.09409600"}, {"statNm": "\uae08\uc0d8\ub3c4\uc11c\uad00", "statId": "CV001074", "addr": "\ubd80\uc0b0\uad11\uc5ed\uc2dc \uae08\uc815\uad6c \uae30\ucc30\ub85c 94", "lat": "35.238990999", "lng": "129.09409600"}, {"statNm": "\uac70\uc81c4\ub3d9 \ubcf5\ud569\uc13c\ud130", "statId": "CV001080", "addr": "\ubd80\uc0b0\uad11\uc5ed\uc2dc \uc5f0\uc81c\uad6c \ud654\uc9c0\ub85c52\ubc88\uae38 33", "lat": "35.179970000", "lng": "129.06590499"}, {"statNm": "\uad6c\ud3ec\uc2dc\uc7a5 \uacf5\uc601\uc8fc\ucc28\uc7a5", "statId": "CV001107", "addr": "\ubd80\uc0b0\uad11\uc5ed\uc2dc \ubd81\uad6c \ub099\ub3d9\ub300\ub85c1780\ubc88\uae38 46", "lat": "35.207467000", "lng": "129.00435500"}, {"statNm": "\uae30\uc220\ubcf4\uc99d\uae30\uae08", "statId": "CV001116", "addr": "\ubd80\uc0b0\uad11\uc5ed\uc2dc \ub0a8\uad6c \ubb38\ud604\uae08\uc735\ub85c 33", "lat": "35.146168", "lng": "129.064072"}, {"statNm": "\uae30\uc220\ubcf4\uc99d\uae30\uae08", "statId": "CV001116", "addr": "\ubd80\uc0b0\uad11\uc5ed\uc2dc \ub0a8\uad6c \ubb38\ud604\uae08\uc735\ub85c 33", "lat": "35.146168", "lng": "129.064072"}, {"statNm": "\uad6d\ud68c\ubd80\uc0b0\ub3c4\uc11c\uad00 \uc804\uae30\ucc28 \ucda9\uc804\uc18c", "statId": "CV001159", "addr": "\ubd80\uc0b0\uad11\uc5ed\uc2dc \uac15\uc11c\uad6c \uba85\uc9c0\uad6d\uc81c1\ub85c 161", "lat": "35.103504999", "lng": "128.904392"}, {"statNm": "\uad6d\ud68c\ubd80\uc0b0\ub3c4\uc11c\uad00 \uc804\uae30\ucc28 \ucda9\uc804\uc18c", "statId": "CV001159", "addr": "\ubd80\uc0b0\uad11\uc5ed\uc2dc \uac15\uc11c\uad6c \uba85\uc9c0\uad6d\uc81c1\ub85c 161", "lat": "35.103504999", "lng": "128.904392"}, {"statNm": "\ub0a8\ucc9c\ucf54\uc624\ub871\ud558\ub298\ucc44\uace8\ub4e0\ube44\uce58", "statId": "EC000008", "addr": "\ubd80\uc0b0\uad11\uc5ed\uc2dc \uc218\uc601\uad6c \ub0a8\ucc9c\ub3d9\ub85c 41", "lat": "35.1414337", "lng": "129.1124672"}, {"statNm": "\ub0a8\ucc9c\ucf54\uc624\ub871\ud558\ub298\ucc44\uace8\ub4e0\ube44\uce58", "statId": "EC000008", "addr": "\ubd80\uc0b0\uad11\uc5ed\uc2dc \uc218\uc601\uad6c \ub0a8\ucc9c\ub3d9\ub85c 41", "lat": "35.1414337", "lng": "129.1124672"}, {"statNm": "\ub0a8\ucc9c\ucf54\uc624\ub871\ud558\ub298\ucc44\uace8\ub4e0\ube44\uce58", "statId": "EC000008", "addr": "\ubd80\uc0b0\uad11\uc5ed\uc2dc \uc218\uc601\uad6c \ub0a8\ucc9c\ub3d9\ub85c 41", "lat": "35.1414337", "lng": "129.1124672"}, {"statNm": "\ub0a8\ucc9c\ucf54\uc624\ub871\ud558\ub298\ucc44\uace8\ub4e0\ube44\uce58", "statId": "EC000008", "addr": "\ubd80\uc0b0\uad11\uc5ed\uc2dc \uc218\uc601\uad6c \ub0a8\ucc9c\ub3d9\ub85c 41", "lat": "35.1414337", "lng": "129.1124672"}, {"statNm": "\ub0a8\ucc9c\ucf54\uc624\ub871\ud558\ub298\ucc44\uace8\ub4e0\ube44\uce58", "statId": "EC000008", "addr": "\ubd80\uc0b0\uad11\uc5ed\uc2dc \uc218\uc601\uad6c \ub0a8\ucc9c\ub3d9\ub85c 41", "lat": "35.1414337", "lng": "129.1124672"}, {"statNm": "\ub0a8\ucc9c\ucf54\uc624\ub871\ud558\ub298\ucc44\uace8\ub4e0\ube44\uce58", "statId": "EC000008", "addr": "\ubd80\uc0b0\uad11\uc5ed\uc2dc \uc218\uc601\uad6c \ub0a8\ucc9c\ub3d9\ub85c 41", "lat": "35.1414337", "lng": "129.1124672"}, {"statNm": "\ub0a8\ucc9c\ucf54\uc624\ub871\ud558\ub298\ucc44\uace8\ub4e0\ube44\uce58", "statId": "EC000008", "addr": "\ubd80\uc0b0\uad11\uc5ed\uc2dc \uc218\uc601\uad6c \ub0a8\ucc9c\ub3d9\ub85c 41", "lat": "35.1414337", "lng": "129.1124672"}, {"statNm": "\ub0a8\ucc9c\ucf54\uc624\ub871\ud558\ub298\ucc44\uace8\ub4e0\ube44\uce58", "statId": "EC000008", "addr": "\ubd80\uc0b0\uad11\uc5ed\uc2dc \uc218\uc601\uad6c \ub0a8\ucc9c\ub3d9\ub85c 41", "lat": "35.1414337", "lng": "129.1124672"}, {"statNm": "\ub0a8\ucc9c\ucf54\uc624\ub871\ud558\ub298\ucc44\uace8\ub4e0\ube44\uce58", "statId": "EC000008", "addr": "\ubd80\uc0b0\uad11\uc5ed\uc2dc \uc218\uc601\uad6c \ub0a8\ucc9c\ub3d9\ub85c 41", "lat": "35.1414337", "lng": "129.1124672"}, {"statNm": "\ub0a8\ucc9c\ucf54\uc624\ub871\ud558\ub298\ucc44\uace8\ub4e0\ube44\uce58", "statId": "EC000008", "addr": "\ubd80\uc0b0\uad11\uc5ed\uc2dc \uc218\uc601\uad6c \ub0a8\ucc9c\ub3d9\ub85c 41", "lat": "35.1414337", "lng": "129.1124672"}, {"statNm": "\uad6c\ud3ec\ud611\uc9c4\ud0dc\uc591\uc544\ud30c\ud2b8", "statId": "EC000010", "addr": "\ubd80\uc0b0\uad11\uc5ed\uc2dc \ubd81\uad6c \ubc31\uc591\ub300\ub85c 1025", "lat": "35.1973483", "lng": "128.9950732"}, {"statNm": "\uad6c\ud3ec\ud611\uc9c4\ud0dc\uc591\uc544\ud30c\ud2b8", "statId": "EC000010", "addr": "\ubd80\uc0b0\uad11\uc5ed\uc2dc \ubd81\uad6c \ubc31\uc591\ub300\ub85c 1025", "lat": "35.1973483", "lng": "128.9950732"}, {"statNm": "\uad6c\ud3ec\ud611\uc9c4\ud0dc\uc591\uc544\ud30c\ud2b8", "statId": "EC000010", "addr": "\ubd80\uc0b0\uad11\uc5ed\uc2dc \ubd81\uad6c \ubc31\uc591\ub300\ub85c 1025", "lat": "35.1973483", "lng": "128.9950732"}, {"statNm": "\uad6c\ud3ec\ud611\uc9c4\ud0dc\uc591\uc544\ud30c\ud2b8", "statId": "EC000010", "addr": "\ubd80\uc0b0\uad11\uc5ed\uc2dc \ubd81\uad6c \ubc31\uc591\ub300\ub85c 1025", "lat": "35.1973483", "lng": "128.9950732"}, {"statNm": "\uad6c\ud3ec\ud611\uc9c4\ud0dc\uc591\uc544\ud30c\ud2b8", "statId": "EC000010", "addr": "\ubd80\uc0b0\uad11\uc5ed\uc2dc \ubd81\uad6c \ubc31\uc591\ub300\ub85c 1025", "lat": "35.1973483", "lng": "128.9950732"}, {"statNm": "\ub798\ubbf8\uc548\ud574\uc6b4\ub300", "statId": "EC000011", "addr": "\ubd80\uc0b0\uad11\uc5ed\uc2dc \ud574\uc6b4\ub300\uad6c \uc88c\ub3d9\uc21c\ud658\ub85c 402", "lat": "35.1628829", "lng": "129.1767799"}, {"statNm": "\ub798\ubbf8\uc548\ud574\uc6b4\ub300", "statId": "EC000011", "addr": "\ubd80\uc0b0\uad11\uc5ed\uc2dc \ud574\uc6b4\ub300\uad6c \uc88c\ub3d9\uc21c\ud658\ub85c 402", "lat": "35.1628829", "lng": "129.1767799"}, {"statNm": "\ub798\ubbf8\uc548\ud574\uc6b4\ub300", "statId": "EC000011", "addr": "\ubd80\uc0b0\uad11\uc5ed\uc2dc \ud574\uc6b4\ub300\uad6c \uc88c\ub3d9\uc21c\ud658\ub85c 402", "lat": "35.1628829", "lng": "129.1767799"}, {"statNm": "\ub798\ubbf8\uc548\ud574\uc6b4\ub300", "statId": "EC000011", "addr": "\ubd80\uc0b0\uad11\uc5ed\uc2dc \ud574\uc6b4\ub300\uad6c \uc88c\ub3d9\uc21c\ud658\ub85c 402", "lat": "35.1628829", "lng": "129.1767799"}, {"statNm": "\ub798\ubbf8\uc548\ud574\uc6b4\ub300", "statId": "EC000011", "addr": "\ubd80\uc0b0\uad11\uc5ed\uc2dc \ud574\uc6b4\ub300\uad6c \uc88c\ub3d9\uc21c\ud658\ub85c 402", "lat": "35.1628829", "lng": "129.1767799"}, {"statNm": "\ub798\ubbf8\uc548\ud574\uc6b4\ub300", "statId": "EC000011", "addr": "\ubd80\uc0b0\uad11\uc5ed\uc2dc \ud574\uc6b4\ub300\uad6c \uc88c\ub3d9\uc21c\ud658\ub85c 402", "lat": "35.1628829", "lng": "129.1767799"}, {"statNm": "\ub798\ubbf8\uc548\ud574\uc6b4\ub300", "statId": "EC000011", "addr": "\ubd80\uc0b0\uad11\uc5ed\uc2dc \ud574\uc6b4\ub300\uad6c \uc88c\ub3d9\uc21c\ud658\ub85c 402", "lat": "35.1628829", "lng": "129.1767799"}, {"statNm": "\ub798\ubbf8\uc548\ud574\uc6b4\ub300", "statId": "EC000011", "addr": "\ubd80\uc0b0\uad11\uc5ed\uc2dc \ud574\uc6b4\ub300\uad6c \uc88c\ub3d9\uc21c\ud658\ub85c 402", "lat": "35.1628829", "lng": "129.1767799"}, {"statNm": "\uc30d\uc6a9\ub354\ud50c\ub798\ud2f0\ub118\uc0ac\uc9c1\uc544\uc2dc\uc544\ub4dc", "statId": "EC000028", "addr": "\ubd80\uc0b0\uad11\uc5ed\uc2dc \ub3d9\ub798\uad6c \uc544\uc2dc\uc544\ub4dc\ub300\ub85c134\ubc88\uae38 14", "lat": "35.196472843", "lng": "129.06676315"}, {"statNm": "\uc30d\uc6a9\ub354\ud50c\ub798\ud2f0\ub118\uc0ac\uc9c1\uc544\uc2dc\uc544\ub4dc", "statId": "EC000028", "addr": "\ubd80\uc0b0\uad11\uc5ed\uc2dc \ub3d9\ub798\uad6c \uc544\uc2dc\uc544\ub4dc\ub300\ub85c134\ubc88\uae38 14", "lat": "35.196472843", "lng": "129.06676315"}, {"statNm": "\uc30d\uc6a9\ub354\ud50c\ub798\ud2f0\ub118\uc0ac\uc9c1\uc544\uc2dc\uc544\ub4dc", "statId": "EC000028", "addr": "\ubd80\uc0b0\uad11\uc5ed\uc2dc \ub3d9\ub798\uad6c \uc544\uc2dc\uc544\ub4dc\ub300\ub85c134\ubc88\uae38 14", "lat": "35.196472843", "lng": "129.06676315"}, {"statNm": "\uc30d\uc6a9\ub354\ud50c\ub798\ud2f0\ub118\uc0ac\uc9c1\uc544\uc2dc\uc544\ub4dc", "statId": "EC000028", "addr": "\ubd80\uc0b0\uad11\uc5ed\uc2dc \ub3d9\ub798\uad6c \uc544\uc2dc\uc544\ub4dc\ub300\ub85c134\ubc88\uae38 14", "lat": "35.196472843", "lng": "129.06676315"}, {"statNm": "\uc30d\uc6a9\ub354\ud50c\ub798\ud2f0\ub118\uc0ac\uc9c1\uc544\uc2dc\uc544\ub4dc", "statId": "EC000028", "addr": "\ubd80\uc0b0\uad11\uc5ed\uc2dc \ub3d9\ub798\uad6c \uc544\uc2dc\uc544\ub4dc\ub300\ub85c134\ubc88\uae38 14", "lat": "35.196472843", "lng": "129.06676315"}, {"statNm": "\uc30d\uc6a9\ub354\ud50c\ub798\ud2f0\ub118\uc0ac\uc9c1\uc544\uc2dc\uc544\ub4dc", "statId": "EC000028", "addr": "\ubd80\uc0b0\uad11\uc5ed\uc2dc \ub3d9\ub798\uad6c \uc544\uc2dc\uc544\ub4dc\ub300\ub85c134\ubc88\uae38 14", "lat": "35.196472843", "lng": "129.06676315"}, {"statNm": "\uc30d\uc6a9\ub354\ud50c\ub798\ud2f0\ub118\uc0ac\uc9c1\uc544\uc2dc\uc544\ub4dc", "statId": "EC000028", "addr": "\ubd80\uc0b0\uad11\uc5ed\uc2dc \ub3d9\ub798\uad6c \uc544\uc2dc\uc544\ub4dc\ub300\ub85c134\ubc88\uae38 14", "lat": "35.196472843", "lng": "129.06676315"}, {"statNm": "\uc30d\uc6a9\ub354\ud50c\ub798\ud2f0\ub118\uc0ac\uc9c1\uc544\uc2dc\uc544\ub4dc", "statId": "EC000028", "addr": "\ubd80\uc0b0\uad11\uc5ed\uc2dc \ub3d9\ub798\uad6c \uc544\uc2dc\uc544\ub4dc\ub300\ub85c134\ubc88\uae38 14", "lat": "35.196472843", "lng": "129.06676315"}, {"statNm": "\uc30d\uc6a9\ub354\ud50c\ub798\ud2f0\ub118\uc0ac\uc9c1\uc544\uc2dc\uc544\ub4dc", "statId": "EC000028", "addr": "\ubd80\uc0b0\uad11\uc5ed\uc2dc \ub3d9\ub798\uad6c \uc544\uc2dc\uc544\ub4dc\ub300\ub85c134\ubc88\uae38 14", "lat": "35.196472843", "lng": "129.06676315"}, {"statNm": "\uc30d\uc6a9\ub354\ud50c\ub798\ud2f0\ub118\uc0ac\uc9c1\uc544\uc2dc\uc544\ub4dc", "statId": "EC000028", "addr": "\ubd80\uc0b0\uad11\uc5ed\uc2dc \ub3d9\ub798\uad6c \uc544\uc2dc\uc544\ub4dc\ub300\ub85c134\ubc88\uae38 14", "lat": "35.196472843", "lng": "129.06676315"}, {"statNm": "\uc628\ucc9c\ub3d9\ubc18\ub3c4\ubcf4\ub77c\uc2a4\uce74\uc774\ubdf0", "statId": "EC000030", "addr": "\ubd80\uc0b0\uad11\uc5ed\uc2dc \ub3d9\ub798\uad6c \uc544\uc2dc\uc544\ub4dc\ub300\ub85c 234", "lat": "35.204613162", "lng": "129.06789490"}, {"statNm": "\uc628\ucc9c\ub3d9\ubc18\ub3c4\ubcf4\ub77c\uc2a4\uce74\uc774\ubdf0", "statId": "EC000030", "addr": "\ubd80\uc0b0\uad11\uc5ed\uc2dc \ub3d9\ub798\uad6c \uc544\uc2dc\uc544\ub4dc\ub300\ub85c 234", "lat": "35.204613162", "lng": "129.06789490"}, {"statNm": "\uc628\ucc9c\ub3d9\ubc18\ub3c4\ubcf4\ub77c\uc2a4\uce74\uc774\ubdf0", "statId": "EC000030", "addr": "\ubd80\uc0b0\uad11\uc5ed\uc2dc \ub3d9\ub798\uad6c \uc544\uc2dc\uc544\ub4dc\ub300\ub85c 234", "lat": "35.204613162", "lng": "129.06789490"}, {"statNm": "\uc628\ucc9c\ub3d9\ubc18\ub3c4\ubcf4\ub77c\uc2a4\uce74\uc774\ubdf0", "statId": "EC000030", "addr": "\ubd80\uc0b0\uad11\uc5ed\uc2dc \ub3d9\ub798\uad6c \uc544\uc2dc\uc544\ub4dc\ub300\ub85c 234", "lat": "35.204613162", "lng": "129.06789490"}, {"statNm": "\uc628\ucc9c\ub3d9\ubc18\ub3c4\ubcf4\ub77c\uc2a4\uce74\uc774\ubdf0", "statId": "EC000030", "addr": "\ubd80\uc0b0\uad11\uc5ed\uc2dc \ub3d9\ub798\uad6c \uc544\uc2dc\uc544\ub4dc\ub300\ub85c 234", "lat": "35.204613162", "lng": "129.06789490"}, {"statNm": "\uc628\ucc9c\ub3d9\ubc18\ub3c4\ubcf4\ub77c\uc2a4\uce74\uc774\ubdf0", "statId": "EC000030", "addr": "\ubd80\uc0b0\uad11\uc5ed\uc2dc \ub3d9\ub798\uad6c \uc544\uc2dc\uc544\ub4dc\ub300\ub85c 234", "lat": "35.204613162", "lng": "129.06789490"}, {"statNm": "\uc628\ucc9c\ub3d9\ubc18\ub3c4\ubcf4\ub77c\uc2a4\uce74\uc774\ubdf0", "statId": "EC000030", "addr": "\ubd80\uc0b0\uad11\uc5ed\uc2dc \ub3d9\ub798\uad6c \uc544\uc2dc\uc544\ub4dc\ub300\ub85c 234", "lat": "35.204613162", "lng": "129.06789490"}, {"statNm": "\uc628\ucc9c\ub3d9\ubc18\ub3c4\ubcf4\ub77c\uc2a4\uce74\uc774\ubdf0", "statId": "EC000030", "addr": "\ubd80\uc0b0\uad11\uc5ed\uc2dc \ub3d9\ub798\uad6c \uc544\uc2dc\uc544\ub4dc\ub300\ub85c 234", "lat": "35.204613162", "lng": "129.06789490"}, {"statNm": "\uc8fc\ub840\uccad\uad6c\uc544\ud30c\ud2b8", "statId": "EC000033", "addr": "\ubd80\uc0b0\uad11\uc5ed\uc2dc \uc0ac\uc0c1\uad6c \ubc31\uc591\ub300\ub85c494\ubc88\uae38 38", "lat": "35.155170512", "lng": "128.99903749"}, {"statNm": "\uc8fc\ub840\uccad\uad6c\uc544\ud30c\ud2b8", "statId": "EC000033", "addr": "\ubd80\uc0b0\uad11\uc5ed\uc2dc \uc0ac\uc0c1\uad6c \ubc31\uc591\ub300\ub85c494\ubc88\uae38 38", "lat": "35.155170512", "lng": "128.99903749"}, {"statNm": "\uc8fc\ub840\uccad\uad6c\uc544\ud30c\ud2b8", "statId": "EC000033", "addr": "\ubd80\uc0b0\uad11\uc5ed\uc2dc \uc0ac\uc0c1\uad6c \ubc31\uc591\ub300\ub85c494\ubc88\uae38 38", "lat": "35.155170512", "lng": "128.99903749"}, {"statNm": "\uc8fc\ub840\uccad\uad6c\uc544\ud30c\ud2b8", "statId": "EC000033", "addr": "\ubd80\uc0b0\uad11\uc5ed\uc2dc \uc0ac\uc0c1\uad6c \ubc31\uc591\ub300\ub85c494\ubc88\uae38 38", "lat": "35.155170512", "lng": "128.99903749"}, {"statNm": "\uc8fc\ub840\uccad\uad6c\uc544\ud30c\ud2b8", "statId": "EC000033", "addr": "\ubd80\uc0b0\uad11\uc5ed\uc2dc \uc0ac\uc0c1\uad6c \ubc31\uc591\ub300\ub85c494\ubc88\uae38 38", "lat": "35.155170512", "lng": "128.99903749"}, {"statNm": "\uc8fc\ub840\uccad\uad6c\uc544\ud30c\ud2b8", "statId": "EC000033", "addr": "\ubd80\uc0b0\uad11\uc5ed\uc2dc \uc0ac\uc0c1\uad6c \ubc31\uc591\ub300\ub85c494\ubc88\uae38 38", "lat": "35.155170512", "lng": "128.99903749"}, {"statNm": "\uc8fc\ub840\uccad\uad6c\uc544\ud30c\ud2b8", "statId": "EC000033", "addr": "\ubd80\uc0b0\uad11\uc5ed\uc2dc \uc0ac\uc0c1\uad6c \ubc31\uc591\ub300\ub85c494\ubc88\uae38 38", "lat": "35.155170512", "lng": "128.99903749"}, {"statNm": "\uc8fc\ub840\uccad\uad6c\uc544\ud30c\ud2b8", "statId": "EC000033", "addr": "\ubd80\uc0b0\uad11\uc5ed\uc2dc \uc0ac\uc0c1\uad6c \ubc31\uc591\ub300\ub85c494\ubc88\uae38 38", "lat": "35.155170512", "lng": "128.99903749"}, {"statNm": "\ub300\uc5f0SKView\ud790\uc2a4", "statId": "EC000044", "addr": "\ubd80\uc0b0\uad11\uc5ed\uc2dc \ub0a8\uad6c \uc218\uc601\ub85c 261", "lat": "35.136708716", "lng": "129.09507345"}, {"statNm": "\ub300\uc5f0SKView\ud790\uc2a4", "statId": "EC000044", "addr": "\ubd80\uc0b0\uad11\uc5ed\uc2dc \ub0a8\uad6c \uc218\uc601\ub85c 261", "lat": "35.136708716", "lng": "129.09507345"}, {"statNm": "\ub300\uc5f0SKView\ud790\uc2a4", "statId": "EC000044", "addr": "\ubd80\uc0b0\uad11\uc5ed\uc2dc \ub0a8\uad6c \uc218\uc601\ub85c 261", "lat": "35.136708716", "lng": "129.09507345"}, {"statNm": "\ub300\uc5f0SKView\ud790\uc2a4", "statId": "EC000044", "addr": "\ubd80\uc0b0\uad11\uc5ed\uc2dc \ub0a8\uad6c \uc218\uc601\ub85c 261", "lat": "35.136708716", "lng": "129.09507345"}, {"statNm": "\ub300\uc5f0SKView\ud790\uc2a4", "statId": "EC000044", "addr": "\ubd80\uc0b0\uad11\uc5ed\uc2dc \ub0a8\uad6c \uc218\uc601\ub85c 261", "lat": "35.136708716", "lng": "129.09507345"}, {"statNm": "\ubd80\ubbfce\ud3b8\ud55c\uc138\uc0c1", "statId": "EC000055", "addr": "\ubd80\uc0b0\uad11\uc5ed\uc2dc \uc11c\uad6c \ud574\ub3cb\uc774\ub85c 313", "lat": "35.104269796", "lng": "129.01693398"}, {"statNm": "\ubd80\ubbfce\ud3b8\ud55c\uc138\uc0c1", "statId": "EC000055", "addr": "\ubd80\uc0b0\uad11\uc5ed\uc2dc \uc11c\uad6c \ud574\ub3cb\uc774\ub85c 313", "lat": "35.104269796", "lng": "129.01693398"}, {"statNm": "\ubd80\ubbfce\ud3b8\ud55c\uc138\uc0c1", "statId": "EC000055", "addr": "\ubd80\uc0b0\uad11\uc5ed\uc2dc \uc11c\uad6c \ud574\ub3cb\uc774\ub85c 313", "lat": "35.104269796", "lng": "129.01693398"}, {"statNm": "\ubd80\ubbfce\ud3b8\ud55c\uc138\uc0c1", "statId": "EC000055", "addr": "\ubd80\uc0b0\uad11\uc5ed\uc2dc \uc11c\uad6c \ud574\ub3cb\uc774\ub85c 313", "lat": "35.104269796", "lng": "129.01693398"}, {"statNm": "\ud55c\uc194\ud3f4\ub77c\ub9ac\uc2a4", "statId": "EC000057", "addr": "\ubd80\uc0b0\uad11\uc5ed\uc2dc \ubd80\uc0b0\uc9c4\uad6c \uac00\uc57c\ub300\ub85c 754", "lat": "35.157107197", "lng": "129.05386635"}, {"statNm": "\ud55c\uc194\ud3f4\ub77c\ub9ac\uc2a4", "statId": "EC000057", "addr": "\ubd80\uc0b0\uad11\uc5ed\uc2dc \ubd80\uc0b0\uc9c4\uad6c \uac00\uc57c\ub300\ub85c 754", "lat": "35.157107197", "lng": "129.05386635"}, {"statNm": "\ud55c\uc194\ud3f4\ub77c\ub9ac\uc2a4", "statId": "EC000057", "addr": "\ubd80\uc0b0\uad11\uc5ed\uc2dc \ubd80\uc0b0\uc9c4\uad6c \uac00\uc57c\ub300\ub85c 754", "lat": "35.157107197", "lng": "129.05386635"}, {"statNm": "\ud55c\uc194\ud3f4\ub77c\ub9ac\uc2a4", "statId": "EC000057", "addr": "\ubd80\uc0b0\uad11\uc5ed\uc2dc \ubd80\uc0b0\uc9c4\uad6c \uac00\uc57c\ub300\ub85c 754", "lat": "35.157107197", "lng": "129.05386635"}, {"statNm": "\ubb38\ud604\uc774\uc548\uc544\ud30c\ud2b8", "statId": "EC000058", "addr": "\ubd80\uc0b0\uad11\uc5ed\uc2dc \ub0a8\uad6c \uc804\ud3ec\ub300\ub85c 16", "lat": "35.138367397", "lng": "129.06801577"}, {"statNm": "\ubb38\ud604\uc774\uc548\uc544\ud30c\ud2b8", "statId": "EC000058", "addr": "\ubd80\uc0b0\uad11\uc5ed\uc2dc \ub0a8\uad6c \uc804\ud3ec\ub300\ub85c 16", "lat": "35.138367397", "lng": "129.06801577"}, {"statNm": "\ubb38\ud604\uc774\uc548\uc544\ud30c\ud2b8", "statId": "EC000058", "addr": "\ubd80\uc0b0\uad11\uc5ed\uc2dc \ub0a8\uad6c \uc804\ud3ec\ub300\ub85c 16", "lat": "35.138367397", "lng": "129.06801577"}, {"statNm": "\ubb38\ud604\uc774\uc548\uc544\ud30c\ud2b8", "statId": "EC000058", "addr": "\ubd80\uc0b0\uad11\uc5ed\uc2dc \ub0a8\uad6c \uc804\ud3ec\ub300\ub85c 16", "lat": "35.138367397", "lng": "129.06801577"}, {"statNm": "\uc9c4\ud765\ub9c8\uc81c\uc2a4\ud0c0\uc6cc\ubc94\uc77c", "statId": "EC000059", "addr": "\ubd80\uc0b0\uad11\uc5ed\uc2dc \ub3d9\uad6c \uc790\uc131\ub85c133\ubc88\uae38 6", "lat": "35.137746707", "lng": "129.06491850"}, {"statNm": "\uc9c4\ud765\ub9c8\uc81c\uc2a4\ud0c0\uc6cc\ubc94\uc77c", "statId": "EC000059", "addr": "\ubd80\uc0b0\uad11\uc5ed\uc2dc \ub3d9\uad6c \uc790\uc131\ub85c133\ubc88\uae38 6", "lat": "35.137746707", "lng": "129.06491850"}, {"statNm": "\uc9c4\ud765\ub9c8\uc81c\uc2a4\ud0c0\uc6cc\ubc94\uc77c", "statId": "EC000059", "addr": "\ubd80\uc0b0\uad11\uc5ed\uc2dc \ub3d9\uad6c \uc790\uc131\ub85c133\ubc88\uae38 6", "lat": "35.137746707", "lng": "129.06491850"}, {"statNm": "\uc9c4\ud765\ub9c8\uc81c\uc2a4\ud0c0\uc6cc\ubc94\uc77c", "statId": "EC000059", "addr": "\ubd80\uc0b0\uad11\uc5ed\uc2dc \ub3d9\uad6c \uc790\uc131\ub85c133\ubc88\uae38 6", "lat": "35.137746707", "lng": "129.06491850"}, {"statNm": "\ub86f\ub370\uce90\uc2ac\uc544\uc778\uc2a4", "statId": "EC000060", "addr": "\ubd80\uc0b0\uad11\uc5ed\uc2dc \ub0a8\uad6c \uc6a9\ud638\ub85c231\ubc88\uae38 62", "lat": "35.111873645", "lng": "129.11448659"}, {"statNm": "\ub86f\ub370\uce90\uc2ac\uc544\uc778\uc2a4", "statId": "EC000060", "addr": "\ubd80\uc0b0\uad11\uc5ed\uc2dc \ub0a8\uad6c \uc6a9\ud638\ub85c231\ubc88\uae38 62", "lat": "35.111873645", "lng": "129.11448659"}, {"statNm": "\ub86f\ub370\uce90\uc2ac\uc544\uc778\uc2a4", "statId": "EC000060", "addr": "\ubd80\uc0b0\uad11\uc5ed\uc2dc \ub0a8\uad6c \uc6a9\ud638\ub85c231\ubc88\uae38 62", "lat": "35.111873645", "lng": "129.11448659"}, {"statNm": "\ub86f\ub370\uce90\uc2ac\uc544\uc778\uc2a4", "statId": "EC000060", "addr": "\ubd80\uc0b0\uad11\uc5ed\uc2dc \ub0a8\uad6c \uc6a9\ud638\ub85c231\ubc88\uae38 62", "lat": "35.111873645", "lng": "129.11448659"}, {"statNm": "\ud558\ubaa8\ub2c8\ud0c0\uc6cc\ub9c8\ube0c\ub7ec\uc2a4", "statId": "EC000077", "addr": "\ubd80\uc0b0\uad11\uc5ed\uc2dc \ud574\uc6b4\ub300\uad6c \ud574\uc6b4\ub300\ub85c 723", "lat": "35.166998919", "lng": "129.16917307"}, {"statNm": "\ud558\ubaa8\ub2c8\ud0c0\uc6cc\ub9c8\ube0c\ub7ec\uc2a4", "statId": "EC000077", "addr": "\ubd80\uc0b0\uad11\uc5ed\uc2dc \ud574\uc6b4\ub300\uad6c \ud574\uc6b4\ub300\ub85c 723", "lat": "35.166998919", "lng": "129.16917307"}, {"statNm": "\ub2e4\ub300\ud604\ub300\uc544\ud30c\ud2b8", "statId": "EC000081", "addr": "\ubd80\uc0b0\uad11\uc5ed\uc2dc \uc0ac\ud558\uad6c \ub2e4\ub300\ub85c 473", "lat": "35.061792149", "lng": "128.97709179"}, {"statNm": "\ub2e4\ub300\ud604\ub300\uc544\ud30c\ud2b8", "statId": "EC000081", "addr": "\ubd80\uc0b0\uad11\uc5ed\uc2dc \uc0ac\ud558\uad6c \ub2e4\ub300\ub85c 473", "lat": "35.061792149", "lng": "128.97709179"}, {"statNm": "\ub2e4\ub300\ud604\ub300\uc544\ud30c\ud2b8", "statId": "EC000081", "addr": "\ubd80\uc0b0\uad11\uc5ed\uc2dc \uc0ac\ud558\uad6c \ub2e4\ub300\ub85c 473", "lat": "35.061792149", "lng": "128.97709179"}, {"statNm": "\ub2e4\ub300\ud604\ub300\uc544\ud30c\ud2b8", "statId": "EC000081", "addr": "\ubd80\uc0b0\uad11\uc5ed\uc2dc \uc0ac\ud558\uad6c \ub2e4\ub300\ub85c 473", "lat": "35.061792149", "lng": "128.97709179"}, {"statNm": "\ub2e4\ub300\ud604\ub300\uc544\ud30c\ud2b8", "statId": "EC000081", "addr": "\ubd80\uc0b0\uad11\uc5ed\uc2dc \uc0ac\ud558\uad6c \ub2e4\ub300\ub85c 473", "lat": "35.061792149", "lng": "128.97709179"}, {"statNm": "\ub2e4\ub300\ud604\ub300\uc544\ud30c\ud2b8", "statId": "EC000081", "addr": "\ubd80\uc0b0\uad11\uc5ed\uc2dc \uc0ac\ud558\uad6c \ub2e4\ub300\ub85c 473", "lat": "35.061792149", "lng": "128.97709179"}, {"statNm": "\ub2e4\ub300\ud604\ub300\uc544\ud30c\ud2b8", "statId": "EC000081", "addr": "\ubd80\uc0b0\uad11\uc5ed\uc2dc \uc0ac\ud558\uad6c \ub2e4\ub300\ub85c 473", "lat": "35.061792149", "lng": "128.97709179"}, {"statNm": "\ub2e4\ub300\ud604\ub300\uc544\ud30c\ud2b8", "statId": "EC000081", "addr": "\ubd80\uc0b0\uad11\uc5ed\uc2dc \uc0ac\ud558\uad6c \ub2e4\ub300\ub85c 473", "lat": "35.061792149", "lng": "128.97709179"}, {"statNm": "\ub2e4\ub300\ud604\ub300\uc544\ud30c\ud2b8", "statId": "EC000081", "addr": "\ubd80\uc0b0\uad11\uc5ed\uc2dc \uc0ac\ud558\uad6c \ub2e4\ub300\ub85c 473", "lat": "35.061792149", "lng": "128.97709179"}, {"statNm": "\ub2e4\ub300\ud604\ub300\uc544\ud30c\ud2b8", "statId": "EC000081", "addr": "\ubd80\uc0b0\uad11\uc5ed\uc2dc \uc0ac\ud558\uad6c \ub2e4\ub300\ub85c 473", "lat": "35.061792149", "lng": "128.97709179"}, {"statNm": "\ud574\uc6b4\ub300\uc0bc\ud658\uc544\ud30c\ud2b8(\ubd80\uc0b0)", "statId": "EC000105", "addr": "\ubd80\uc0b0\uad11\uc5ed\uc2dc \ud574\uc6b4\ub300\uad6c \uc88c\ub3d9\uc21c\ud658\ub85c299\ubc88\uae38 22", "lat": "35.169154864", "lng": "129.18549699"}, {"statNm": "\ud574\uc6b4\ub300\uc0bc\ud658\uc544\ud30c\ud2b8(\ubd80\uc0b0)", "statId": "EC000105", "addr": "\ubd80\uc0b0\uad11\uc5ed\uc2dc \ud574\uc6b4\ub300\uad6c \uc88c\ub3d9\uc21c\ud658\ub85c299\ubc88\uae38 22", "lat": "35.169154864", "lng": "129.18549699"}, {"statNm": "\ud574\uc6b4\ub300\uc0bc\ud658\uc544\ud30c\ud2b8(\ubd80\uc0b0)", "statId": "EC000105", "addr": "\ubd80\uc0b0\uad11\uc5ed\uc2dc \ud574\uc6b4\ub300\uad6c \uc88c\ub3d9\uc21c\ud658\ub85c299\ubc88\uae38 22", "lat": "35.169154864", "lng": "129.18549699"}, {"statNm": "\ud574\uc6b4\ub300\uc0bc\ud658\uc544\ud30c\ud2b8(\ubd80\uc0b0)", "statId": "EC000105", "addr": "\ubd80\uc0b0\uad11\uc5ed\uc2dc \ud574\uc6b4\ub300\uad6c \uc88c\ub3d9\uc21c\ud658\ub85c299\ubc88\uae38 22", "lat": "35.169154864", "lng": "129.18549699"}, {"statNm": "\ud574\uc6b4\ub300\uc0bc\ud658\uc544\ud30c\ud2b8(\ubd80\uc0b0)", "statId": "EC000105", "addr": "\ubd80\uc0b0\uad11\uc5ed\uc2dc \ud574\uc6b4\ub300\uad6c \uc88c\ub3d9\uc21c\ud658\ub85c299\ubc88\uae38 22", "lat": "35.169154864", "lng": "129.18549699"}, {"statNm": "\ud574\uc6b4\ub300\uc0bc\ud658\uc544\ud30c\ud2b8(\ubd80\uc0b0)", "statId": "EC000105", "addr": "\ubd80\uc0b0\uad11\uc5ed\uc2dc \ud574\uc6b4\ub300\uad6c \uc88c\ub3d9\uc21c\ud658\ub85c299\ubc88\uae38 22", "lat": "35.169154864", "lng": "129.18549699"}, {"statNm": "\ud574\uc6b4\ub300\uc0bc\ud658\uc544\ud30c\ud2b8(\ubd80\uc0b0)", "statId": "EC000105", "addr": "\ubd80\uc0b0\uad11\uc5ed\uc2dc \ud574\uc6b4\ub300\uad6c \uc88c\ub3d9\uc21c\ud658\ub85c299\ubc88\uae38 22", "lat": "35.169154864", "lng": "129.18549699"}, {"statNm": "\ud574\uc6b4\ub300\uc0bc\ud658\uc544\ud30c\ud2b8(\ubd80\uc0b0)", "statId": "EC000105", "addr": "\ubd80\uc0b0\uad11\uc5ed\uc2dc \ud574\uc6b4\ub300\uad6c \uc88c\ub3d9\uc21c\ud658\ub85c299\ubc88\uae38 22", "lat": "35.169154864", "lng": "129.18549699"}, {"statNm": "\ud574\uc6b4\ub300\uc0bc\ud658\uc544\ud30c\ud2b8(\ubd80\uc0b0)", "statId": "EC000105", "addr": "\ubd80\uc0b0\uad11\uc5ed\uc2dc \ud574\uc6b4\ub300\uad6c \uc88c\ub3d9\uc21c\ud658\ub85c299\ubc88\uae38 22", "lat": "35.169154864", "lng": "129.18549699"}, {"statNm": "\uc5c4\uad81\ud55c\uc2e02\ucc28\uc544\ud30c\ud2b8\uc785\uc8fc\uc790\ub300\ud45c", "statId": "EC000110", "addr": "\ubd80\uc0b0\uad11\uc5ed\uc2dc \uc0ac\uc0c1\uad6c \uc5c4\uad81\ub85c 40", "lat": "35.124173", "lng": "128.9703758"}, {"statNm": "\uc5c4\uad81\ud55c\uc2e02\ucc28\uc544\ud30c\ud2b8\uc785\uc8fc\uc790\ub300\ud45c", "statId": "EC000110", "addr": "\ubd80\uc0b0\uad11\uc5ed\uc2dc \uc0ac\uc0c1\uad6c \uc5c4\uad81\ub85c 40", "lat": "35.124173", "lng": "128.9703758"}, {"statNm": "\uc5c4\uad81\ud55c\uc2e02\ucc28\uc544\ud30c\ud2b8\uc785\uc8fc\uc790\ub300\ud45c", "statId": "EC000110", "addr": "\ubd80\uc0b0\uad11\uc5ed\uc2dc \uc0ac\uc0c1\uad6c \uc5c4\uad81\ub85c 40", "lat": "35.124173", "lng": "128.9703758"}, {"statNm": "\uc5c4\uad81\ud55c\uc2e02\ucc28\uc544\ud30c\ud2b8\uc785\uc8fc\uc790\ub300\ud45c", "statId": "EC000110", "addr": "\ubd80\uc0b0\uad11\uc5ed\uc2dc \uc0ac\uc0c1\uad6c \uc5c4\uad81\ub85c 40", "lat": "35.124173", "lng": "128.9703758"}, {"statNm": "\uc5c4\uad81\ud55c\uc2e02\ucc28\uc544\ud30c\ud2b8\uc785\uc8fc\uc790\ub300\ud45c", "statId": "EC000110", "addr": "\ubd80\uc0b0\uad11\uc5ed\uc2dc \uc0ac\uc0c1\uad6c \uc5c4\uad81\ub85c 40", "lat": "35.124173", "lng": "128.9703758"}, {"statNm": "\uc5c4\uad81\ud55c\uc2e02\ucc28\uc544\ud30c\ud2b8\uc785\uc8fc\uc790\ub300\ud45c", "statId": "EC000110", "addr": "\ubd80\uc0b0\uad11\uc5ed\uc2dc \uc0ac\uc0c1\uad6c \uc5c4\uad81\ub85c 40", "lat": "35.124173", "lng": "128.9703758"}, {"statNm": "e\ud3b8\ud55c\uc138\uc0c1\ud654\uba85\ud790\uc2a4", "statId": "EC000136", "addr": "\ubd80\uc0b0\uad11\uc5ed\uc2dc \ubd81\uad6c \ud654\uba85\ub300\ub85c 68", "lat": "35.234242715", "lng": "129.01553084"}, {"statNm": "e\ud3b8\ud55c\uc138\uc0c1\ud654\uba85\ud790\uc2a4", "statId": "EC000136", "addr": "\ubd80\uc0b0\uad11\uc5ed\uc2dc \ubd81\uad6c \ud654\uba85\ub300\ub85c 68", "lat": "35.234242715", "lng": "129.01553084"}, {"statNm": "e\ud3b8\ud55c\uc138\uc0c1\ud654\uba85\ud790\uc2a4", "statId": "EC000136", "addr": "\ubd80\uc0b0\uad11\uc5ed\uc2dc \ubd81\uad6c \ud654\uba85\ub300\ub85c 68", "lat": "35.234242715", "lng": "129.01553084"}, {"statNm": "e\ud3b8\ud55c\uc138\uc0c1\ud654\uba85\ud790\uc2a4", "statId": "EC000136", "addr": "\ubd80\uc0b0\uad11\uc5ed\uc2dc \ubd81\uad6c \ud654\uba85\ub300\ub85c 68", "lat": "35.234242715", "lng": "129.01553084"}, {"statNm": "e\ud3b8\ud55c\uc138\uc0c1\ud654\uba85\ud790\uc2a4", "statId": "EC000136", "addr": "\ubd80\uc0b0\uad11\uc5ed\uc2dc \ubd81\uad6c \ud654\uba85\ub300\ub85c 68", "lat": "35.234242715", "lng": "129.01553084"}, {"statNm": "e\ud3b8\ud55c\uc138\uc0c1\ud654\uba85\ud790\uc2a4", "statId": "EC000136", "addr": "\ubd80\uc0b0\uad11\uc5ed\uc2dc \ubd81\uad6c \ud654\uba85\ub300\ub85c 68", "lat": "35.234242715", "lng": "129.01553084"}, {"statNm": "e\ud3b8\ud55c\uc138\uc0c1\ud654\uba85\ud790\uc2a4", "statId": "EC000136", "addr": "\ubd80\uc0b0\uad11\uc5ed\uc2dc \ubd81\uad6c \ud654\uba85\ub300\ub85c 68", "lat": "35.234242715", "lng": "129.01553084"}, {"statNm": "e\ud3b8\ud55c\uc138\uc0c1\ud654\uba85\ud790\uc2a4", "statId": "EC000136", "addr": "\ubd80\uc0b0\uad11\uc5ed\uc2dc \ubd81\uad6c \ud654\uba85\ub300\ub85c 68", "lat": "35.234242715", "lng": "129.01553084"}, {"statNm": "\ud574\uc6b4\ub300\ub300\ub9bc\uc544\ud06c\ub85c\ud154", "statId": "EC000175", "addr": "\ubd80\uc0b0\uad11\uc5ed\uc2dc \ud574\uc6b4\ub300\uad6c \ud574\uc6b4\ub300\ub85c 790", "lat": "35.168426703", "lng": "129.17531436"}, {"statNm": "\ud574\uc6b4\ub300\ub300\ub9bc\uc544\ud06c\ub85c\ud154", "statId": "EC000175", "addr": "\ubd80\uc0b0\uad11\uc5ed\uc2dc \ud574\uc6b4\ub300\uad6c \ud574\uc6b4\ub300\ub85c 790", "lat": "35.168426703", "lng": "129.17531436"}, {"statNm": "\ud574\uc6b4\ub300\ub300\ub9bc\uc544\ud06c\ub85c\ud154", "statId": "EC000175", "addr": "\ubd80\uc0b0\uad11\uc5ed\uc2dc \ud574\uc6b4\ub300\uad6c \ud574\uc6b4\ub300\ub85c 790", "lat": "35.168426703", "lng": "129.17531436"}, {"statNm": "\ud574\uc6b4\ub300\ub300\ub9bc\uc544\ud06c\ub85c\ud154", "statId": "EC000175", "addr": "\ubd80\uc0b0\uad11\uc5ed\uc2dc \ud574\uc6b4\ub300\uad6c \ud574\uc6b4\ub300\ub85c 790", "lat": "35.168426703", "lng": "129.17531436"}, {"statNm": "\ud574\uc6b4\ub300\ub300\ub9bc\uc544\ud06c\ub85c\ud154", "statId": "EC000175", "addr": "\ubd80\uc0b0\uad11\uc5ed\uc2dc \ud574\uc6b4\ub300\uad6c \ud574\uc6b4\ub300\ub85c 790", "lat": "35.168426703", "lng": "129.17531436"}, {"statNm": "\ub2f9\ub9ac\ub3d92\ucc28\ub3d9\uc6d0\ubca0\ub124\uc2a4\ud2b8", "statId": "EC000176", "addr": "\ubd80\uc0b0\uad11\uc5ed\uc2dc \uc0ac\ud558\uad6c \uc81c\uc11d\ub85c 171", "lat": "35.1110534", "lng": "128.9840343"}, {"statNm": "\ub2f9\ub9ac\ub3d92\ucc28\ub3d9\uc6d0\ubca0\ub124\uc2a4\ud2b8", "statId": "EC000176", "addr": "\ubd80\uc0b0\uad11\uc5ed\uc2dc \uc0ac\ud558\uad6c \uc81c\uc11d\ub85c 171", "lat": "35.1110534", "lng": "128.9840343"}, {"statNm": "\ub2f9\ub9ac\ub3d92\ucc28\ub3d9\uc6d0\ubca0\ub124\uc2a4\ud2b8", "statId": "EC000176", "addr": "\ubd80\uc0b0\uad11\uc5ed\uc2dc \uc0ac\ud558\uad6c \uc81c\uc11d\ub85c 171", "lat": "35.1110534", "lng": "128.9840343"}, {"statNm": "\ub2f9\ub9ac\ub3d92\ucc28\ub3d9\uc6d0\ubca0\ub124\uc2a4\ud2b8", "statId": "EC000176", "addr": "\ubd80\uc0b0\uad11\uc5ed\uc2dc \uc0ac\ud558\uad6c \uc81c\uc11d\ub85c 171", "lat": "35.1110534", "lng": "128.9840343"}, {"statNm": "\ub2f9\ub9ac\ub3d92\ucc28\ub3d9\uc6d0\ubca0\ub124\uc2a4\ud2b8", "statId": "EC000176", "addr": "\ubd80\uc0b0\uad11\uc5ed\uc2dc \uc0ac\ud558\uad6c \uc81c\uc11d\ub85c 171", "lat": "35.1110534", "lng": "128.9840343"}, {"statNm": "\ud654\uc2e0\uac70\ud654\uc544\ud30c\ud2b8", "statId": "EC000179", "addr": "\ubd80\uc0b0\uad11\uc5ed\uc2dc \ubd80\uc0b0\uc9c4\uad6c \uc9c4\ub0a8\ub85c 388", "lat": "35.159436749", "lng": "129.07125459"}, {"statNm": "\uc7a5\ub9bc\uc5ed\ubca0\uc2a4\ud2f0\uc6c02\ucc28", "statId": "EC000196", "addr": "\ubd80\uc0b0\uad11\uc5ed\uc2dc \uc0ac\ud558\uad6c \uc7a5\ub9bc\ubc88\uc601\ub85c 76", "lat": "35.080549660", "lng": "128.97377750"}, {"statNm": "\uc7a5\ub9bc\uc5ed\ubca0\uc2a4\ud2f0\uc6c02\ucc28", "statId": "EC000196", "addr": "\ubd80\uc0b0\uad11\uc5ed\uc2dc \uc0ac\ud558\uad6c \uc7a5\ub9bc\ubc88\uc601\ub85c 76", "lat": "35.080549660", "lng": "128.97377750"}, {"statNm": "\uc7a5\ub9bc\uc5ed\ubca0\uc2a4\ud2f0\uc6c02\ucc28", "statId": "EC000196", "addr": "\ubd80\uc0b0\uad11\uc5ed\uc2dc \uc0ac\ud558\uad6c \uc7a5\ub9bc\ubc88\uc601\ub85c 76", "lat": "35.080549660", "lng": "128.97377750"}, {"statNm": "\uc7a5\ub9bc\uc5ed\ubca0\uc2a4\ud2f0\uc6c02\ucc28", "statId": "EC000196", "addr": "\ubd80\uc0b0\uad11\uc5ed\uc2dc \uc0ac\ud558\uad6c \uc7a5\ub9bc\ubc88\uc601\ub85c 76", "lat": "35.080549660", "lng": "128.97377750"}, {"statNm": "\uc6b0\uc554\uc77c\uc2e0\ubcf4\ub77c", "statId": "EC000197", "addr": "\ubd80\uc0b0\uad11\uc5ed\uc2dc \ub0a8\uad6c \uc720\uc5d4\ub85c 15", "lat": "35.125826289", "lng": "129.07933675"}, {"statNm": "\uc6b0\uc554\uc77c\uc2e0\ubcf4\ub77c", "statId": "EC000197", "addr": "\ubd80\uc0b0\uad11\uc5ed\uc2dc \ub0a8\uad6c \uc720\uc5d4\ub85c 15", "lat": "35.125826289", "lng": "129.07933675"}, {"statNm": "\uc6b0\uc554\uc77c\uc2e0\ubcf4\ub77c", "statId": "EC000197", "addr": "\ubd80\uc0b0\uad11\uc5ed\uc2dc \ub0a8\uad6c \uc720\uc5d4\ub85c 15", "lat": "35.125826289", "lng": "129.07933675"}, {"statNm": "\uc6b0\uc554\uc77c\uc2e0\ubcf4\ub77c", "statId": "EC000197", "addr": "\ubd80\uc0b0\uad11\uc5ed\uc2dc \ub0a8\uad6c \uc720\uc5d4\ub85c 15", "lat": "35.125826289", "lng": "129.07933675"}, {"statNm": "\uc6b0\uc554\uc77c\uc2e0\ubcf4\ub77c", "statId": "EC000197", "addr": "\ubd80\uc0b0\uad11\uc5ed\uc2dc \ub0a8\uad6c \uc720\uc5d4\ub85c 15", "lat": "35.125826289", "lng": "129.07933675"}, {"statNm": "\uc6b0\uc554\uc77c\uc2e0\ubcf4\ub77c", "statId": "EC000197", "addr": "\ubd80\uc0b0\uad11\uc5ed\uc2dc \ub0a8\uad6c \uc720\uc5d4\ub85c 15", "lat": "35.125826289", "lng": "129.07933675"}, {"statNm": "\ud568\uc9c0\uadf8\ub9b0\uc544\ud30c\ud2b8", "statId": "EC000198", "addr": "\ubd80\uc0b0\uad11\uc5ed\uc2dc \uc601\ub3c4\uad6c \ud568\uc9c0\ub85c 8", "lat": "35.070956271", "lng": "129.05940358"}, {"statNm": "\ud568\uc9c0\uadf8\ub9b0\uc544\ud30c\ud2b8", "statId": "EC000198", "addr": "\ubd80\uc0b0\uad11\uc5ed\uc2dc \uc601\ub3c4\uad6c \ud568\uc9c0\ub85c 8", "lat": "35.070956271", "lng": "129.05940358"}, {"statNm": "\ud568\uc9c0\uadf8\ub9b0\uc544\ud30c\ud2b8", "statId": "EC000198", "addr": "\ubd80\uc0b0\uad11\uc5ed\uc2dc \uc601\ub3c4\uad6c \ud568\uc9c0\ub85c 8", "lat": "35.070956271", "lng": "129.05940358"}, {"statNm": "\ud568\uc9c0\uadf8\ub9b0\uc544\ud30c\ud2b8", "statId": "EC000198", "addr": "\ubd80\uc0b0\uad11\uc5ed\uc2dc \uc601\ub3c4\uad6c \ud568\uc9c0\ub85c 8", "lat": "35.070956271", "lng": "129.05940358"}, {"statNm": "\uc544\uc2dc\uc544\uc120\uc218\ucd0c\uc544\ud30c\ud2b8", "statId": "EC000200", "addr": "\ubd80\uc0b0\uad11\uc5ed\uc2dc \ud574\uc6b4\ub300\uad6c \uc120\uc218\ucd0c\ub85c 122", "lat": "35.203851429", "lng": "129.12210379"}, {"statNm": "\uc544\uc2dc\uc544\uc120\uc218\ucd0c\uc544\ud30c\ud2b8", "statId": "EC000200", "addr": "\ubd80\uc0b0\uad11\uc5ed\uc2dc \ud574\uc6b4\ub300\uad6c \uc120\uc218\ucd0c\ub85c 122", "lat": "35.203851429", "lng": "129.12210379"}, {"statNm": "\uc544\uc2dc\uc544\uc120\uc218\ucd0c\uc544\ud30c\ud2b8", "statId": "EC000200", "addr": "\ubd80\uc0b0\uad11\uc5ed\uc2dc \ud574\uc6b4\ub300\uad6c \uc120\uc218\ucd0c\ub85c 122", "lat": "35.203851429", "lng": "129.12210379"}, {"statNm": "\uc544\uc2dc\uc544\uc120\uc218\ucd0c\uc544\ud30c\ud2b8", "statId": "EC000200", "addr": "\ubd80\uc0b0\uad11\uc5ed\uc2dc \ud574\uc6b4\ub300\uad6c \uc120\uc218\ucd0c\ub85c 122", "lat": "35.203851429", "lng": "129.12210379"}, {"statNm": "\uc544\uc2dc\uc544\uc120\uc218\ucd0c\uc544\ud30c\ud2b8", "statId": "EC000200", "addr": "\ubd80\uc0b0\uad11\uc5ed\uc2dc \ud574\uc6b4\ub300\uad6c \uc120\uc218\ucd0c\ub85c 122", "lat": "35.203851429", "lng": "129.12210379"}, {"statNm": "\uc544\uc2dc\uc544\uc120\uc218\ucd0c\uc544\ud30c\ud2b8", "statId": "EC000200", "addr": "\ubd80\uc0b0\uad11\uc5ed\uc2dc \ud574\uc6b4\ub300\uad6c \uc120\uc218\ucd0c\ub85c 122", "lat": "35.203851429", "lng": "129.12210379"}, {"statNm": "\uc544\uc2dc\uc544\uc120\uc218\ucd0c\uc544\ud30c\ud2b8", "statId": "EC000200", "addr": "\ubd80\uc0b0\uad11\uc5ed\uc2dc \ud574\uc6b4\ub300\uad6c \uc120\uc218\ucd0c\ub85c 122", "lat": "35.203851429", "lng": "129.12210379"}, {"statNm": "\uc544\uc2dc\uc544\uc120\uc218\ucd0c\uc544\ud30c\ud2b8", "statId": "EC000200", "addr": "\ubd80\uc0b0\uad11\uc5ed\uc2dc \ud574\uc6b4\ub300\uad6c \uc120\uc218\ucd0c\ub85c 122", "lat": "35.203851429", "lng": "129.12210379"}, {"statNm": "\uc544\uc2dc\uc544\uc120\uc218\ucd0c\uc544\ud30c\ud2b8", "statId": "EC000200", "addr": "\ubd80\uc0b0\uad11\uc5ed\uc2dc \ud574\uc6b4\ub300\uad6c \uc120\uc218\ucd0c\ub85c 122", "lat": "35.203851429", "lng": "129.12210379"}, {"statNm": "\uae08\uc131\ud0c0\uc6b4\uc544\ud30c\ud2b8", "statId": "EC000206", "addr": "\ubd80\uc0b0\uad11\uc5ed\uc2dc \uae08\uc815\uad6c \uae08\uc0ac\ub85c 156", "lat": "35.225104996", "lng": "129.11627540"}, {"statNm": "\uac10\ub9cc\ud604\ub3001\ucc28\uc544\ud30c\ud2b8", "statId": "EC000207", "addr": "\ubd80\uc0b0\uad11\uc5ed\uc2dc \ub0a8\uad6c \uc6b0\uc554\ub85c2\ubc88\uae38 5", "lat": "35.111222816", "lng": "129.08350464"}, {"statNm": "\uac10\ub9cc\ud604\ub3001\ucc28\uc544\ud30c\ud2b8", "statId": "EC000207", "addr": "\ubd80\uc0b0\uad11\uc5ed\uc2dc \ub0a8\uad6c \uc6b0\uc554\ub85c2\ubc88\uae38 5", "lat": "35.111222816", "lng": "129.08350464"}, {"statNm": "\uac10\ub9cc\ud604\ub3001\ucc28\uc544\ud30c\ud2b8", "statId": "EC000207", "addr": "\ubd80\uc0b0\uad11\uc5ed\uc2dc \ub0a8\uad6c \uc6b0\uc554\ub85c2\ubc88\uae38 5", "lat": "35.111222816", "lng": "129.08350464"}, {"statNm": "\uac10\ub9cc\ud604\ub3001\ucc28\uc544\ud30c\ud2b8", "statId": "EC000207", "addr": "\ubd80\uc0b0\uad11\uc5ed\uc2dc \ub0a8\uad6c \uc6b0\uc554\ub85c2\ubc88\uae38 5", "lat": "35.111222816", "lng": "129.08350464"}, {"statNm": "\ud611\uc131\ud734\ud3ec\ub808\uc2dc\ud2f0\uc98c\ud30c\ud06c", "statId": "EC000228", "addr": "\ubd80\uc0b0\uad11\uc5ed\uc2dc \ubd80\uc0b0\uc9c4\uad6c \ub3d9\ud3c9\ub85c 173", "lat": "35.166273876", "lng": "129.04783683"}, {"statNm": "\ud611\uc131\ud734\ud3ec\ub808\uc2dc\ud2f0\uc98c\ud30c\ud06c", "statId": "EC000228", "addr": "\ubd80\uc0b0\uad11\uc5ed\uc2dc \ubd80\uc0b0\uc9c4\uad6c \ub3d9\ud3c9\ub85c 173", "lat": "35.166273876", "lng": "129.04783683"}, {"statNm": "\ud611\uc131\ud734\ud3ec\ub808\uc2dc\ud2f0\uc98c\ud30c\ud06c", "statId": "EC000228", "addr": "\ubd80\uc0b0\uad11\uc5ed\uc2dc \ubd80\uc0b0\uc9c4\uad6c \ub3d9\ud3c9\ub85c 173", "lat": "35.166273876", "lng": "129.04783683"}, {"statNm": "\ud611\uc131\ud734\ud3ec\ub808\uc2dc\ud2f0\uc98c\ud30c\ud06c", "statId": "EC000228", "addr": "\ubd80\uc0b0\uad11\uc5ed\uc2dc \ubd80\uc0b0\uc9c4\uad6c \ub3d9\ud3c9\ub85c 173", "lat": "35.166273876", "lng": "129.04783683"}, {"statNm": "\ud611\uc131\ud734\ud3ec\ub808\uc2dc\ud2f0\uc98c\ud30c\ud06c", "statId": "EC000228", "addr": "\ubd80\uc0b0\uad11\uc5ed\uc2dc \ubd80\uc0b0\uc9c4\uad6c \ub3d9\ud3c9\ub85c 173", "lat": "35.166273876", "lng": "129.04783683"}, {"statNm": "\ud611\uc131\ud734\ud3ec\ub808\uc2dc\ud2f0\uc98c\ud30c\ud06c", "statId": "EC000228", "addr": "\ubd80\uc0b0\uad11\uc5ed\uc2dc \ubd80\uc0b0\uc9c4\uad6c \ub3d9\ud3c9\ub85c 173", "lat": "35.166273876", "lng": "129.04783683"}, {"statNm": "(\uc8fc)\uc640\uc774\uc5d0\uc774\uce58\ubaa8\ud130\uc2a4\uc5d4\uc624\ud1a0\ud30c\uce20(enh)", "statId": "EH213025", "addr": "\ubd80\uc0b0\uad11\uc5ed\uc2dc \ub0a8\uad6c \uc2e0\uc120\ub85c 199-7", "lat": "35.1111631", "lng": "129.0857048"}, {"statNm": "(\uc8fc)\ud638\uc131\uc815\ube44(enh)", "statId": "EH213026", "addr": "\ubd80\uc0b0\uad11\uc5ed\uc2dc \ub0a8\uad6c \uc2e0\uc120\ub85c 189", "lat": "35.1115439", "lng": "129.0848552"}, {"statNm": "\ub3d9\ub0a8\ubaa8\ud130\uc2a4(enh)", "statId": "EH213028", "addr": "\ubd80\uc0b0\uad11\uc5ed\uc2dc \ub0a8\uad6c \uc2e0\uc120\ub85c 215-1", "lat": "35.111624", "lng": "129.0878302"}, {"statNm": "EV\ucda9\uc804\uc18c SK\uae08\uc0ac\uc8fc\uc720\uc18c (ev Most)", "statId": "EM000014", "addr": "\ubd80\uc0b0\uad11\uc5ed\uc2dc \uae08\uc815\uad6c \ubc18\uc1a1\ub85c 420", "lat": "35.214185", "lng": "129.110227"}, {"statNm": "\uc774\uc5d4_\ubd80\uc0b0\ubcf8\uc0ac", "statId": "EN777777", "addr": "\ubd80\uc0b0\uad11\uc5ed\uc2dc \uac15\uc11c\uad6c \ud3c9\uac15\ub85c193\ubc88\uae38 21-8", "lat": "35.20385", "lng": "128.9399"}, {"statNm": "\uc601\ub3c4 \ub0a8\ud56d\ucd08\ub4f1\ud559\uad50", "statId": "EP190037", "addr": "\ubd80\uc0b0\uad11\uc5ed\uc2dc \uc601\ub3c4\uad6c \ub0a8\ud56d\uc0c8\uc2f9\uae38 55", "lat": "35.0836684", "lng": "129.0431183"}, {"statNm": "\uc601\ub3c4 \ub0a8\ud56d\ucd08\ub4f1\ud559\uad50", "statId": "EP190037", "addr": "\ubd80\uc0b0\uad11\uc5ed\uc2dc \uc601\ub3c4\uad6c \ub0a8\ud56d\uc0c8\uc2f9\uae38 55", "lat": "35.0836684", "lng": "129.0431183"}, {"statNm": "\ubd80\uc0b0 \u321c\uc2e0\uae30\ub9bc", "statId": "EP200058", "addr": "\ubd80\uc0b0\uad11\uc5ed\uc2dc \uae08\uc815\uad6c \uacf5\ub2e8\uc11c\ub85c18\ubc88\uae38 76", "lat": "35.2168774", "lng": "129.1144889"}, {"statNm": "\ubd80\uc0b0 \u321c\uc2e0\uae30\ub9bc", "statId": "EP200058", "addr": "\ubd80\uc0b0\uad11\uc5ed\uc2dc \uae08\uc815\uad6c \uacf5\ub2e8\uc11c\ub85c18\ubc88\uae38 76", "lat": "35.2168774", "lng": "129.1144889"}, {"statNm": "\ubd80\uc0b0 \uac10\ucc9c\uc815\ube44\uacf5\uc5c5\uc0ac", "statId": "EP200059", "addr": "\ubd80\uc0b0\uad11\uc5ed\uc2dc \uc0ac\ud558\uad6c \uac10\ucc9c\ub85c42\ubc88\uae38 17", "lat": "35.0898758", "lng": "128.99665"}, {"statNm": "\ubd80\uc0b0 \uac10\ucc9c\uc815\ube44\uacf5\uc5c5\uc0ac", "statId": "EP200059", "addr": "\ubd80\uc0b0\uad11\uc5ed\uc2dc \uc0ac\ud558\uad6c \uac10\ucc9c\ub85c42\ubc88\uae38 17", "lat": "35.0898758", "lng": "128.99665"}, {"statNm": "\ubd80\uc0b0 \uae08\uc815\ub85c\uc820\ud0dd\ubc30", "statId": "EP200060", "addr": "\ubd80\uc0b0\uad11\uc5ed\uc2dc \uae30\uc7a5\uad70 \uc815\uad00\uc74d \uc815\uad00\uc0c1\uace12\uae38 59-30", "lat": "35.3216936", "lng": "129.167296"}, {"statNm": "\ubd80\uc0b0 \ub450\uc0b0\uc790\ub3d9\ucc28\uc885\ud569\uc815\ube44", "statId": "EP200062", "addr": "\ubd80\uc0b0\uad11\uc5ed\uc2dc \uac15\uc11c\uad6c \ub179\uc0b0\uc0b0\uc5c5\ubd81\ub85c 189", "lat": "35.0981682", "lng": "128.8454629"}, {"statNm": "\ubd80\uc0b0 \ub450\uc0b0\uc790\ub3d9\ucc28\uc885\ud569\uc815\ube44", "statId": "EP200062", "addr": "\ubd80\uc0b0\uad11\uc5ed\uc2dc \uac15\uc11c\uad6c \ub179\uc0b0\uc0b0\uc5c5\ubd81\ub85c 189", "lat": "35.0981682", "lng": "128.8454629"}, {"statNm": "\ubd80\uc0b0 (\uc8fc)\uc138\uc6c5\uc815\ube44(\ubcf8\uc810)", "statId": "EP200063", "addr": "\ubd80\uc0b0\uad11\uc5ed\uc2dc \uac15\uc11c\uad6c \ub179\uc0b0\uc0b0\uc5c5\ubd81\ub85c193\ubc88\uae38 35", "lat": "35.0988797", "lng": "128.8436471"}, {"statNm": "\ubd80\uc0b0 (\uc8fc)\uc138\uc6c5\uc815\ube44(\ubcf8\uc810)", "statId": "EP200063", "addr": "\ubd80\uc0b0\uad11\uc5ed\uc2dc \uac15\uc11c\uad6c \ub179\uc0b0\uc0b0\uc5c5\ubd81\ub85c193\ubc88\uae38 35", "lat": "35.0988797", "lng": "128.8436471"}, {"statNm": "\ubd80\uc0b0 (\uc8fc)\uc138\uc6c5\uc815\ube44(\uc9c0\uc810)", "statId": "EP200064", "addr": "\ubd80\uc0b0\uad11\uc5ed\uc2dc \uac15\uc11c\uad6c \ub179\uc0b0\uc0b0\uc5c5\ubd81\ub85c 171", "lat": "35.0984543", "lng": "128.8440076"}, {"statNm": "\ubd80\uc0b0 (\uc8fc)\uc138\uc6c5\uc815\ube44(\uc9c0\uc810)", "statId": "EP200064", "addr": "\ubd80\uc0b0\uad11\uc5ed\uc2dc \uac15\uc11c\uad6c \ub179\uc0b0\uc0b0\uc5c5\ubd81\ub85c 171", "lat": "35.0984543", "lng": "128.8440076"}, {"statNm": "\ubd80\uc0b0 \uc6b0\ub3d9\uc2e0\ub3d9\uc544\uc544\ud30c\ud2b8", "statId": "EP200076", "addr": "\ubd80\uc0b0\uad11\uc5ed\uc2dc \ud574\uc6b4\ub300\uad6c \uc6b0\ub3d91\ub85c 9-28", "lat": "35.1629703", "lng": "129.1550188"}, {"statNm": "\ubd80\uc0b0 \uc6b0\ub3d9\uc2e0\ub3d9\uc544\uc544\ud30c\ud2b8", "statId": "EP200076", "addr": "\ubd80\uc0b0\uad11\uc5ed\uc2dc \ud574\uc6b4\ub300\uad6c \uc6b0\ub3d91\ub85c 9-28", "lat": "35.1629703", "lng": "129.1550188"}, {"statNm": "\ubd80\uc0b0 \u321c\ub355\uc0b01\uae09\uc815\ube44", "statId": "EP200081", "addr": "\ubd80\uc0b0\uad11\uc5ed\uc2dc \uc0ac\ud558\uad6c \ud558\uc2e0\uc911\uc559\ub85c 59", "lat": "35.0843199", "lng": "128.964674"}, {"statNm": "\ubd80\uc0b0 \u321c\ub355\uc0b01\uae09\uc815\ube44", "statId": "EP200081", "addr": "\ubd80\uc0b0\uad11\uc5ed\uc2dc \uc0ac\ud558\uad6c \ud558\uc2e0\uc911\uc559\ub85c 59", "lat": "35.0843199", "lng": "128.964674"}, {"statNm": "\ubd80\uc0b0 \uc774\uc9c4\uc2a4\uce74\uc774\ube4c", "statId": "EP200082", "addr": "\ubd80\uc0b0\uad11\uc5ed\uc2dc \uae30\uc7a5\uad70 \uae30\uc7a5\uc74d \ucc28\uc131\uc11c\ub85c 158-12", "lat": "35.247233", "lng": "129.2120802"}, {"statNm": "\ubd80\uc0b0 \uc774\uc9c4\uc2a4\uce74\uc774\ube4c", "statId": "EP200082", "addr": "\ubd80\uc0b0\uad11\uc5ed\uc2dc \uae30\uc7a5\uad70 \uae30\uc7a5\uc74d \ucc28\uc131\uc11c\ub85c 158-12", "lat": "35.247233", "lng": "129.2120802"}, {"statNm": "\ubd80\uc0b0 \uc774\uc9c4\uc2a4\uce74\uc774\ube4c", "statId": "EP200082", "addr": "\ubd80\uc0b0\uad11\uc5ed\uc2dc \uae30\uc7a5\uad70 \uae30\uc7a5\uc74d \ucc28\uc131\uc11c\ub85c 158-12", "lat": "35.247233", "lng": "129.2120802"}, {"statNm": "\ubd80\uc0b0 \ubd80\uc0b0\uba85\uc9c0\ub354\uc5d0\ub4c0\ud330\ub9ac\uc2a4\ubd80\uc601", "statId": "EP200083", "addr": "\ubd80\uc0b0\uad11\uc5ed\uc2dc \uac15\uc11c\uad6c \uba85\uc9c0\uad6d\uc81c7\ub85c 110", "lat": "35.0959287", "lng": "128.9130874"}, {"statNm": "\ubd80\uc0b0 \ubd80\uc0b0\uba85\uc9c0\ub354\uc5d0\ub4c0\ud330\ub9ac\uc2a4\ubd80\uc601", "statId": "EP200083", "addr": "\ubd80\uc0b0\uad11\uc5ed\uc2dc \uac15\uc11c\uad6c \uba85\uc9c0\uad6d\uc81c7\ub85c 110", "lat": "35.0959287", "lng": "128.9130874"}, {"statNm": "\ubd80\uc0b0 \ubd80\uc0b0\uba85\uc9c0\ub354\uc5d0\ub4c0\ud330\ub9ac\uc2a4\ubd80\uc601", "statId": "EP200083", "addr": "\ubd80\uc0b0\uad11\uc5ed\uc2dc \uac15\uc11c\uad6c \uba85\uc9c0\uad6d\uc81c7\ub85c 110", "lat": "35.0959287", "lng": "128.9130874"}, {"statNm": "\ubd80\uc0b0 \ubd80\uc0b0\uba85\uc9c0\ub354\uc5d0\ub4c0\ud330\ub9ac\uc2a4\ubd80\uc601", "statId": "EP200083", "addr": "\ubd80\uc0b0\uad11\uc5ed\uc2dc \uac15\uc11c\uad6c \uba85\uc9c0\uad6d\uc81c7\ub85c 110", "lat": "35.0959287", "lng": "128.9130874"}, {"statNm": "\ubd80\uc0b0 \ubd80\uc0b0\uba85\uc9c0\ub354\uc5d0\ub4c0\ud330\ub9ac\uc2a4\ubd80\uc601", "statId": "EP200083", "addr": "\ubd80\uc0b0\uad11\uc5ed\uc2dc \uac15\uc11c\uad6c \uba85\uc9c0\uad6d\uc81c7\ub85c 110", "lat": "35.0959287", "lng": "128.9130874"}, {"statNm": "\ubd80\uc0b0 \ubd80\uc0b0\uba85\uc9c0\ub354\uc5d0\ub4c0\ud330\ub9ac\uc2a4\ubd80\uc601", "statId": "EP200083", "addr": "\ubd80\uc0b0\uad11\uc5ed\uc2dc \uac15\uc11c\uad6c \uba85\uc9c0\uad6d\uc81c7\ub85c 110", "lat": "35.0959287", "lng": "128.9130874"}, {"statNm": "\ubd80\uc0b0 \ubd80\uc0b0\uba85\uc9c0\ub354\uc5d0\ub4c0\ud330\ub9ac\uc2a4\ubd80\uc601", "statId": "EP200083", "addr": "\ubd80\uc0b0\uad11\uc5ed\uc2dc \uac15\uc11c\uad6c \uba85\uc9c0\uad6d\uc81c7\ub85c 110", "lat": "35.0959287", "lng": "128.9130874"}, {"statNm": "\ubd80\uc0b0 \ucf00\uc774\uc5d0\uc2a4\uc790\ub3d9\ucc28\uc815\ube44", "statId": "EP200085", "addr": "\ubd80\uc0b0\uad11\uc5ed\uc2dc \uc0ac\ud558\uad6c \uc744\uc219\ub3c4\ub300\ub85c677\ubc88\uae38 12", "lat": "35.086275", "lng": "128.9797058"}, {"statNm": "\ubd80\uc0b0 \ucf00\uc774\uc5d0\uc2a4\uc790\ub3d9\ucc28\uc815\ube44", "statId": "EP200085", "addr": "\ubd80\uc0b0\uad11\uc5ed\uc2dc \uc0ac\ud558\uad6c \uc744\uc219\ub3c4\ub300\ub85c677\ubc88\uae38 12", "lat": "35.086275", "lng": "128.9797058"}, {"statNm": "\ubd80\uc0b0 \uae08\uc591\ud504\ub77c\uc790", "statId": "EP200165", "addr": "\ubd80\uc0b0\uad11\uc5ed\uc2dc \uae30\uc7a5\uad70 \uc815\uad00\uc74d \uc815\uad00\ub85c 395", "lat": "35.3341514", "lng": "129.1659977"}, {"statNm": "\ubd80\uc0b0 \uae08\uc591\ud504\ub77c\uc790", "statId": "EP200165", "addr": "\ubd80\uc0b0\uad11\uc5ed\uc2dc \uae30\uc7a5\uad70 \uc815\uad00\uc74d \uc815\uad00\ub85c 395", "lat": "35.3341514", "lng": "129.1659977"}, {"statNm": "\ubd80\uc0b0 \ubb38\ud604\uc138\uc885\uadf8\ub791\uc2dc\uc544", "statId": "EP200168", "addr": "\ubd80\uc0b0\uad11\uc5ed\uc2dc \ub0a8\uad6c \uc218\uc601\ub85c 12", "lat": "35.1361956", "lng": "129.0691278"}, {"statNm": "\ubd80\uc0b0 \ubb38\ud604\uc138\uc885\uadf8\ub791\uc2dc\uc544", "statId": "EP200168", "addr": "\ubd80\uc0b0\uad11\uc5ed\uc2dc \ub0a8\uad6c \uc218\uc601\ub85c 12", "lat": "35.1361956", "lng": "129.0691278"}, {"statNm": "\ubd80\uc0b0 \ubb38\ud604\uc138\uc885\uadf8\ub791\uc2dc\uc544", "statId": "EP200168", "addr": "\ubd80\uc0b0\uad11\uc5ed\uc2dc \ub0a8\uad6c \uc218\uc601\ub85c 12", "lat": "35.1361956", "lng": "129.0691278"}, {"statNm": "\ubd80\uc0b0 \ubb38\ud604\uc138\uc885\uadf8\ub791\uc2dc\uc544", "statId": "EP200168", "addr": "\ubd80\uc0b0\uad11\uc5ed\uc2dc \ub0a8\uad6c \uc218\uc601\ub85c 12", "lat": "35.1361956", "lng": "129.0691278"}, {"statNm": "\ubd80\uc0b0 \ubb38\ud604\uc138\uc885\uadf8\ub791\uc2dc\uc544", "statId": "EP200168", "addr": "\ubd80\uc0b0\uad11\uc5ed\uc2dc \ub0a8\uad6c \uc218\uc601\ub85c 12", "lat": "35.1361956", "lng": "129.0691278"}, {"statNm": "\ubd80\uc0b0 \ubb38\ud604\uc138\uc885\uadf8\ub791\uc2dc\uc544", "statId": "EP200168", "addr": "\ubd80\uc0b0\uad11\uc5ed\uc2dc \ub0a8\uad6c \uc218\uc601\ub85c 12", "lat": "35.1361956", "lng": "129.0691278"}, {"statNm": "\ubd80\uc0b0\uae30\uacc4\uacf5\uad6c\ud310\ub9e4\uc5c5\ud611\ub3d9\uc870\ud569(\ud2f0\ud50c\ub809\uc2a41\ub2e8\uc9c0)", "statId": "EP200169", "addr": "\ubd80\uc0b0\uad11\uc5ed\uc2dc \uac15\uc11c\uad6c \uc720\ud1b5\ub2e8\uc9c01\ub85c 41", "lat": "35.1673385", "lng": "128.9558196"}, {"statNm": "\ubd80\uc0b0\uae30\uacc4\uacf5\uad6c\ud310\ub9e4\uc5c5\ud611\ub3d9\uc870\ud569(\ud2f0\ud50c\ub809\uc2a41\ub2e8\uc9c0)", "statId": "EP200169", "addr": "\ubd80\uc0b0\uad11\uc5ed\uc2dc \uac15\uc11c\uad6c \uc720\ud1b5\ub2e8\uc9c01\ub85c 41", "lat": "35.1673385", "lng": "128.9558196"}, {"statNm": "\ubd80\uc0b0\uae30\uacc4\uacf5\uad6c\ud310\ub9e4\uc5c5\ud611\ub3d9\uc870\ud569(\ud2f0\ud50c\ub809\uc2a41\ub2e8\uc9c0)", "statId": "EP200169", "addr": "\ubd80\uc0b0\uad11\uc5ed\uc2dc \uac15\uc11c\uad6c \uc720\ud1b5\ub2e8\uc9c01\ub85c 41", "lat": "35.1673385", "lng": "128.9558196"}, {"statNm": "\ubd80\uc0b0\uae30\uacc4\uacf5\uad6c\ud310\ub9e4\uc5c5\ud611\ub3d9\uc870\ud569(\ud2f0\ud50c\ub809\uc2a41\ub2e8\uc9c0)", "statId": "EP200169", "addr": "\ubd80\uc0b0\uad11\uc5ed\uc2dc \uac15\uc11c\uad6c \uc720\ud1b5\ub2e8\uc9c01\ub85c 41", "lat": "35.1673385", "lng": "128.9558196"}, {"statNm": "\ubd80\uc0b0\uae30\uacc4\uacf5\uad6c\ud310\ub9e4\uc5c5\ud611\ub3d9\uc870\ud569(\ud2f0\ud50c\ub809\uc2a41\ub2e8\uc9c0)", "statId": "EP200169", "addr": "\ubd80\uc0b0\uad11\uc5ed\uc2dc \uac15\uc11c\uad6c \uc720\ud1b5\ub2e8\uc9c01\ub85c 41", "lat": "35.1673385", "lng": "128.9558196"}, {"statNm": "\ubd80\uc0b0\uae30\uacc4\uacf5\uad6c\ud310\ub9e4\uc5c5\ud611\ub3d9\uc870\ud569(\ud2f0\ud50c\ub809\uc2a41\ub2e8\uc9c0)", "statId": "EP200169", "addr": "\ubd80\uc0b0\uad11\uc5ed\uc2dc \uac15\uc11c\uad6c \uc720\ud1b5\ub2e8\uc9c01\ub85c 41", "lat": "35.1673385", "lng": "128.9558196"}, {"statNm": "\ubd80\uc0b0\uae30\uacc4\uacf5\uad6c\ud310\ub9e4\uc5c5\ud611\ub3d9\uc870\ud569(\ud2f0\ud50c\ub809\uc2a41\ub2e8\uc9c0)", "statId": "EP200169", "addr": "\ubd80\uc0b0\uad11\uc5ed\uc2dc \uac15\uc11c\uad6c \uc720\ud1b5\ub2e8\uc9c01\ub85c 41", "lat": "35.1673385", "lng": "128.9558196"}, {"statNm": "\ubd80\uc0b0\uae30\uacc4\uacf5\uad6c\ud310\ub9e4\uc5c5\ud611\ub3d9\uc870\ud569(\ud2f0\ud50c\ub809\uc2a41\ub2e8\uc9c0)", "statId": "EP200169", "addr": "\ubd80\uc0b0\uad11\uc5ed\uc2dc \uac15\uc11c\uad6c \uc720\ud1b5\ub2e8\uc9c01\ub85c 41", "lat": "35.1673385", "lng": "128.9558196"}, {"statNm": "\ubd80\uc0b0\uae30\uacc4\uacf5\uad6c\ud310\ub9e4\uc5c5\ud611\ub3d9\uc870\ud569(\ud2f0\ud50c\ub809\uc2a42\ub2e8\uc9c0)", "statId": "EP200170", "addr": "\ubd80\uc0b0\uad11\uc5ed\uc2dc \uac15\uc11c\uad6c \uc720\ud1b5\ub2e8\uc9c01\ub85c 50", "lat": "35.1703265", "lng": "128.9541818"}, {"statNm": "\ubd80\uc0b0\uae30\uacc4\uacf5\uad6c\ud310\ub9e4\uc5c5\ud611\ub3d9\uc870\ud569(\ud2f0\ud50c\ub809\uc2a42\ub2e8\uc9c0)", "statId": "EP200170", "addr": "\ubd80\uc0b0\uad11\uc5ed\uc2dc \uac15\uc11c\uad6c \uc720\ud1b5\ub2e8\uc9c01\ub85c 50", "lat": "35.1703265", "lng": "128.9541818"}, {"statNm": "\ubd80\uc0b0\uae30\uacc4\uacf5\uad6c\ud310\ub9e4\uc5c5\ud611\ub3d9\uc870\ud569(\ud2f0\ud50c\ub809\uc2a42\ub2e8\uc9c0)", "statId": "EP200170", "addr": "\ubd80\uc0b0\uad11\uc5ed\uc2dc \uac15\uc11c\uad6c \uc720\ud1b5\ub2e8\uc9c01\ub85c 50", "lat": "35.1703265", "lng": "128.9541818"}, {"statNm": "\ubd80\uc0b0\uae30\uacc4\uacf5\uad6c\ud310\ub9e4\uc5c5\ud611\ub3d9\uc870\ud569(\ud2f0\ud50c\ub809\uc2a42\ub2e8\uc9c0)", "statId": "EP200170", "addr": "\ubd80\uc0b0\uad11\uc5ed\uc2dc \uac15\uc11c\uad6c \uc720\ud1b5\ub2e8\uc9c01\ub85c 50", "lat": "35.1703265", "lng": "128.9541818"}, {"statNm": "\ubd80\uc0b0\uae30\uacc4\uacf5\uad6c\ud310\ub9e4\uc5c5\ud611\ub3d9\uc870\ud569(\ud2f0\ud50c\ub809\uc2a42\ub2e8\uc9c0)", "statId": "EP200170", "addr": "\ubd80\uc0b0\uad11\uc5ed\uc2dc \uac15\uc11c\uad6c \uc720\ud1b5\ub2e8\uc9c01\ub85c 50", "lat": "35.1703265", "lng": "128.9541818"}, {"statNm": "\ubd80\uc0b0\uae30\uacc4\uacf5\uad6c\ud310\ub9e4\uc5c5\ud611\ub3d9\uc870\ud569(\ud2f0\ud50c\ub809\uc2a42\ub2e8\uc9c0)", "statId": "EP200170", "addr": "\ubd80\uc0b0\uad11\uc5ed\uc2dc \uac15\uc11c\uad6c \uc720\ud1b5\ub2e8\uc9c01\ub85c 50", "lat": "35.1703265", "lng": "128.9541818"}, {"statNm": "\ubd80\uc0b0\uae30\uacc4\uacf5\uad6c\ud310\ub9e4\uc5c5\ud611\ub3d9\uc870\ud569(\ud2f0\ud50c\ub809\uc2a42\ub2e8\uc9c0)", "statId": "EP200170", "addr": "\ubd80\uc0b0\uad11\uc5ed\uc2dc \uac15\uc11c\uad6c \uc720\ud1b5\ub2e8\uc9c01\ub85c 50", "lat": "35.1703265", "lng": "128.9541818"}, {"statNm": "\ubd80\uc0b0\uae30\uacc4\uacf5\uad6c\ud310\ub9e4\uc5c5\ud611\ub3d9\uc870\ud569(\ud2f0\ud50c\ub809\uc2a42\ub2e8\uc9c0)", "statId": "EP200170", "addr": "\ubd80\uc0b0\uad11\uc5ed\uc2dc \uac15\uc11c\uad6c \uc720\ud1b5\ub2e8\uc9c01\ub85c 50", "lat": "35.1703265", "lng": "128.9541818"}, {"statNm": "\ubd80\uc0b0\uae30\uacc4\uacf5\uad6c\ud310\ub9e4\uc5c5\ud611\ub3d9\uc870\ud569(\ud2f0\ud50c\ub809\uc2a42\ub2e8\uc9c0)", "statId": "EP200170", "addr": "\ubd80\uc0b0\uad11\uc5ed\uc2dc \uac15\uc11c\uad6c \uc720\ud1b5\ub2e8\uc9c01\ub85c 50", "lat": "35.1703265", "lng": "128.9541818"}, {"statNm": "\ubd80\uc0b0\uae30\uacc4\uacf5\uad6c\ud310\ub9e4\uc5c5\ud611\ub3d9\uc870\ud569(\ud2f0\ud50c\ub809\uc2a42\ub2e8\uc9c0)", "statId": "EP200170", "addr": "\ubd80\uc0b0\uad11\uc5ed\uc2dc \uac15\uc11c\uad6c \uc720\ud1b5\ub2e8\uc9c01\ub85c 50", "lat": "35.1703265", "lng": "128.9541818"}, {"statNm": "\ubd80\uc0b0 \ubb38\ud604\uc0bc\uc131\ud790\ud0c0\uc6cc", "statId": "EP200222", "addr": "\ubd80\uc0b0\uad11\uc5ed\uc2dc \ub0a8\uad6c \uc804\ud3ec\ub300\ub85c 26", "lat": "35.1393056", "lng": "129.0679906"}, {"statNm": "\ubd80\uc0b0 \ubb38\ud604\uc0bc\uc131\ud790\ud0c0\uc6cc", "statId": "EP200222", "addr": "\ubd80\uc0b0\uad11\uc5ed\uc2dc \ub0a8\uad6c \uc804\ud3ec\ub300\ub85c 26", "lat": "35.1393056", "lng": "129.0679906"}, {"statNm": "\ubd80\uc0b0 \ubb38\ud604\uc0bc\uc131\ud790\ud0c0\uc6cc", "statId": "EP200222", "addr": "\ubd80\uc0b0\uad11\uc5ed\uc2dc \ub0a8\uad6c \uc804\ud3ec\ub300\ub85c 26", "lat": "35.1393056", "lng": "129.0679906"}, {"statNm": "\ubd80\uc0b0 \ubb38\ud604\uc0bc\uc131\ud790\ud0c0\uc6cc", "statId": "EP200222", "addr": "\ubd80\uc0b0\uad11\uc5ed\uc2dc \ub0a8\uad6c \uc804\ud3ec\ub300\ub85c 26", "lat": "35.1393056", "lng": "129.0679906"}, {"statNm": "\ubd80\uc0b0 \ubb38\ud604\uc0bc\uc131\ud790\ud0c0\uc6cc", "statId": "EP200222", "addr": "\ubd80\uc0b0\uad11\uc5ed\uc2dc \ub0a8\uad6c \uc804\ud3ec\ub300\ub85c 26", "lat": "35.1393056", "lng": "129.0679906"}, {"statNm": "\ubd80\uc0b0 \ubb38\ud604\uc0bc\uc131\ud790\ud0c0\uc6cc", "statId": "EP200222", "addr": "\ubd80\uc0b0\uad11\uc5ed\uc2dc \ub0a8\uad6c \uc804\ud3ec\ub300\ub85c 26", "lat": "35.1393056", "lng": "129.0679906"}, {"statNm": "\ubd80\uc0b0 \ubb38\ud604\uc0bc\uc131\ud790\ud0c0\uc6cc", "statId": "EP200222", "addr": "\ubd80\uc0b0\uad11\uc5ed\uc2dc \ub0a8\uad6c \uc804\ud3ec\ub300\ub85c 26", "lat": "35.1393056", "lng": "129.0679906"}, {"statNm": "\ubd80\uc0b0 \ubb38\ud604\uc0bc\uc131\ud790\ud0c0\uc6cc", "statId": "EP200222", "addr": "\ubd80\uc0b0\uad11\uc5ed\uc2dc \ub0a8\uad6c \uc804\ud3ec\ub300\ub85c 26", "lat": "35.1393056", "lng": "129.0679906"}, {"statNm": "\ubd80\uc0b0 \ubb38\ud604\uc0bc\uc131\ud790\ud0c0\uc6cc", "statId": "EP200222", "addr": "\ubd80\uc0b0\uad11\uc5ed\uc2dc \ub0a8\uad6c \uc804\ud3ec\ub300\ub85c 26", "lat": "35.1393056", "lng": "129.0679906"}, {"statNm": "\ubd80\uc0b0 \ub300\uc591\ud2b9\uc7a5\uc815\ube44", "statId": "EP200257", "addr": "\ubd80\uc0b0\uad11\uc5ed\uc2dc \uc0ac\uc0c1\uad6c \ub099\ub3d9\ub300\ub85c 836", "lat": "35.1353501", "lng": "128.9719802"}, {"statNm": "\ubd80\uc0b0 \ub300\uc591\ud2b9\uc7a5\uc815\ube44", "statId": "EP200257", "addr": "\ubd80\uc0b0\uad11\uc5ed\uc2dc \uc0ac\uc0c1\uad6c \ub099\ub3d9\ub300\ub85c 836", "lat": "35.1353501", "lng": "128.9719802"}, {"statNm": "\ubd80\uc0b0 \uc0bc\ud654\uc0c1\uc0ac", "statId": "EP200258", "addr": "\ubd80\uc0b0\uad11\uc5ed\uc2dc \uae08\uc815\uad6c \ubc18\uc1a1\ub85c 461", "lat": "35.2156442", "lng": "129.1141853"}, {"statNm": "\ubd80\uc0b0 \uc2e0\uc77c\uc815\ube44", "statId": "EP200259", "addr": "\ubd80\uc0b0\uad11\uc5ed\uc2dc \ub3d9\ub798\uad6c \ubc18\uc1a1\ub85c 222", "lat": "35.2004604", "lng": "129.0983754"},