[{"statNm": "\ubd80\uc0b0\uc138\uad00 \uc2e0\ud56d\uccad\uc0ac", "statId": "BNOA0301", "addr": "\ubd80\uc0b0\uad11\uc5ed\uc2dc \uac15\uc11c\uad6c \ub179\uc0b0\uc0b0\ub2e8178\ub85c 37-17", "lat": "35.086015", "lng": "128.838608"}, {"statNm": "\ub3d9\uc758\ub300\ud559\uad50 \uac00\uc57c\ucea0\ud37c\uc2a4", "statId": "CU510001", "addr": "\ubd80\uc0b0\uad11\uc5ed\uc2dc \ubd80\uc0b0\uc9c4\uad6c \uc5c4\uad11\ub85c 176", "lat": "35.1459356", "lng": "129.035277"}, {"statNm": "\uc774\uc5d4_\ubd80\uc0b0\ubcf8\uc0ac", "statId": "EN777777", "addr": "\ubd80\uc0b0\uad11\uc5ed\uc2dc \uac15\uc11c\uad6c \ud3c9\uac15\ub85c193\ubc88\uae38 21-8", "lat": "35.20385", "lng": "128.9399"}, {"statNm": "(\uc8fc)\ub300\uc6c5\uc2dd\ud488", "statId": "EZ700001", "addr": "\ubd80\uc0b0\uad11\uc5ed\uc2dc \ub0a8\uad6c \uc6b0\uc554\ub85c 359", "lat": "35.1340154", "lng": "129.0663353"}, {"statNm": "\ubd80\uc0b0\uc6b8\uc0b0\uacbd\ub0a8\uc9c0\uc5ed\ubcf8\ubd80", "statId": "KN000001", "addr": "\ubd80\uc0b0\uad11\uc5ed\uc2dc \ubd81\uad6c \ub099\ub3d9\ubd81\ub85c681\ubc88\uae38 34", "lat": "35.20194", "lng": "129.0002"}, {"statNm": "LGL \ubd80\uc0b0\uc911\ubd80MINI Sub\ud130\ubbf8\ub110", "statId": "LDL00001", "addr": "\ubd80\uc0b0\uad11\uc5ed\uc2dc \ub0a8\uad6c \uc6b0\uc554\ub85c 307", "lat": "35.129202137", "lng": "129.06680321"}, {"statNm": "KNN\ud0c0\uc6cc", "statId": "LH800100", "addr": "\ubd80\uc0b0\uad11\uc5ed\uc2dc \ud574\uc6b4\ub300\uad6c \uc13c\ud140\uc11c\ub85c 30", "lat": "35.1720592", "lng": "129.1284326"}, {"statNm": "\uac1c\uae08\ub86f\ub370\uce90\uc2ac", "statId": "MO262307", "addr": "\ubd80\uc0b0\uad11\uc5ed\uc2dc \ubd80\uc0b0\uc9c4\uad6c \uac1c\uae08\uc628\uc815\ub85c 10", "lat": "35.154491", "lng": "129.026715"}, {"statNm": "\uc2e0\uc120\ub300 EV\ucda9\uc804\uc18c(\ub9d8\ucc28\uc9c0)", "statId": "MTSKGA01", "addr": "\ubd80\uc0b0\uad11\uc5ed\uc2dc \ub0a8\uad6c \uc2e0\uc120\ub85c 308", "lat": "35.113892", "lng": "129.096100"}, {"statNm": "\ubd80\uc0b0\uc2dc \ubd80\uc0b0\uc9c4\uad6c \uc628\ubaa8\ud154", "statId": "PI510026", "addr": "\ubd80\uc0b0\uad11\uc5ed\uc2dc \ubd80\uc0b0\uc9c4\uad6c \uc131\uc9c0\ub85c153\ubc88\uae38 16", "lat": "35.181139723737", "lng": "129.0477552775"}, {"statNm": "\uadf8\ub9b0\uce74 \ubd80\uc0b0\uc810", "statId": "TDL00001", "addr": "\ubd80\uc0b0\uad11\uc5ed\uc2dc \ubd81\uad6c \uae08\uace1\ub300\ub85c303\ubc88\uae38 80", "lat": "35.2361491", "lng": "129.0093589"}]