[{"statNm": "\ud648\ud50c\ub7ec\uc2a4 \uc601\ub3c4\uc810", "addr": "\ubd80\uc0b0\uad11\uc5ed\uc2dc \uc601\ub3c4\uad6c \ub300\uad50\ub85c14\ubc88\uae38 57", "lat": "35.095906", "lng": "129.044240"}, {"statNm": "\uc774\ub9c8\ud2b8 \ubb38\ud604\uc810", "addr": "\ubd80\uc0b0\uad11\uc5ed\uc2dc \ub0a8\uad6c \uc804\ud3ec\ub300\ub85c91\ubc88\uae38 47", "lat": "35.144356", "lng": "129.064256"}, {"statNm": "\uc774\ub9c8\ud2b8 \uae08\uc815\uc810", "addr": "\ubd80\uc0b0\uad11\uc5ed\uc2dc \uae08\uc815\uad6c \uc911\uc559\ub300\ub85c1841\ubc88\uae38 24", "lat": "35.24975906", "lng": "129.0901501"}, {"statNm": "\ud648\ud50c\ub7ec\uc2a4 \uc544\uc2dc\uc544\ub4dc\uc810", "addr": "\ubd80\uc0b0\uad11\uc5ed\uc2dc \uc5f0\uc81c\uad6c \uc885\ud569\uc6b4\ub3d9\uc7a5\ub85c 7", "lat": "35.19104755", "lng": "129.06250571"}, {"statNm": "\uc774\ub9c8\ud2b8 \uc5f0\uc81c\uc810", "addr": "\ubd80\uc0b0\uad11\uc5ed\uc2dc \uc5f0\uc81c\uad6c \uc5f0\uc218\ub85c 89", "lat": "35.176147", "lng": "129.081345"}, {"statNm": "\uae30\uc7a5\uad70\uccad", "addr": "\ubd80\uc0b0\uad11\uc5ed\uc2dc \uae30\uc7a5\uad70 \uae30\uc7a5\uc74d \uae30\uc7a5\ub300\ub85c 560", "lat": "35.2443", "lng": "129.2232"}, {"statNm": "\uc7a5\uc804\uc5ed \uacf5\uc601\uc8fc\ucc28\uc7a5", "addr": "\ubd80\uc0b0\uad11\uc5ed\uc2dc \uae08\uc815\uad6c \uc7a5\uc8041\ub3d9 242", "lat": "35.239348", "lng": "129.0876819"}, {"statNm": "\ub3d9\ub798\uc5ed \uacf5\uc601\uc8fc\ucc28\uc7a5", "addr": "\ubd80\uc0b0\uad11\uc5ed\uc2dc \ub3d9\ub798\uad6c \uc911\uc559\ub300\ub85c 1324", "lat": "35.206922", "lng": "129.0786666"}, {"statNm": "\ubd80\uc0b0\uc9c4\uad6c\uccad \uc9c0\ud5581\uce35 \uc8fc\ucc28\uc7a5", "addr": "\ubd80\uc0b0\uad11\uc5ed\uc2dc \ubd80\uc0b0\uc9c4\uad6c \uc2dc\ubbfc\uacf5\uc6d0\ub85c 30", "lat": "35.162892", "lng": "129.0530287"}, {"statNm": "\ubd80\uc0b0\uc2dc\ubbfc\uacf5\uc6d0 \uc9c0\ud558 \uc8fc\ucc28\uc7a5", "addr": "\ubd80\uc0b0\uad11\uc5ed\uc2dc \ubd80\uc0b0\uc9c4\uad6c \uc2dc\ubbfc\uacf5\uc6d0\ub85c 73", "lat": "35.1651212", "lng": "129.0562968"}, {"statNm": "\uc0bc\ub77d\uc7ac\ucca9\uac70\ub9ac", "addr": "\ubd80\uc0b0\uad11\uc5ed\uc2dc \uc0ac\uc0c1\uad6c \ub099\ub3d9\ub300\ub85c 1518\ubc88\uae38 26", "lat": "35.1930058", "lng": "128.985466"}, {"statNm": "\ub9dd\ubbf8\ub3d9 \uacf5\uc601\uc8fc\ucc28\uc7a5", "addr": "\ubd80\uc0b0\uad11\uc5ed\uc2dc \uc218\uc601\uad6c \ub9dd\ubbf8\ub3d9 979-73", "lat": "35.1701378", "lng": "129.096877"}, {"statNm": "\uc218\ubcc0\uacf5\uc6d0", "addr": "\ubd80\uc0b0\uad11\uc5ed\uc2dc \uc218\uc601\uad6c \ubbfc\ub77d\uc218\ubcc0\ub85c 95", "lat": "35.1547999", "lng": "129.1318417"}, {"statNm": "\ubd80\uc0b0\uc9c0\ubc29\uacbd\ucc30\uccad \uc55e \ubbfc\uc6d0\uc778 \uc8fc\ucc28\uc7a5", "addr": "\ubd80\uc0b0\uad11\uc5ed\uc2dc \uc5f0\uc81c\uad6c \uc911\uc559\ub300\ub85c 999", "lat": "35.1794806", "lng": "129.0734269"}, {"statNm": "\ubd80\uc0b0\ud14c\ud06c\ub178\ud30c\ud06c \uc885\ud569\ubb3c\ub958\uacbd\uc601\uae30\uc220\uc9c0\uc6d0\uc13c\ud130", "addr": "\ubd80\uc0b0\uad11\uc5ed\uc2dc \uc601\ub3c4\uad6c \ud574\uc591\ub85c 435-1", "lat": "35.0729995", "lng": "129.080228"}, {"statNm": "\uc6a9\ub450\uc0b0 \uacf5\uc601\uc8fc\ucc28\uc7a5", "addr": "\ubd80\uc0b0\uad11\uc5ed\uc2dc \uc911\uad6c \ub300\uccad\ub85c 116\ubc88\uae38 3", "lat": "35.1023192", "lng": "129.0326838"}, {"statNm": "\uc911\ub3d9\uc5ed \uacf5\uc601\uc8fc\ucc28\uc7a5", "addr": "\ubd80\uc0b0\uad11\uc5ed\uc2dc \ud574\uc6b4\ub300\uad6c \ud574\uc6b4\ub300\ub85c 731", "lat": "35.1668257", "lng": "129.1699787"}, {"statNm": "\ud55c\uad6d\ub9c8\uc0ac\ud68c \ubd80\uc0b0\uacbd\ub0a8\uc9c0\uc5ed\ubcf8\ubd80", "addr": "\ubd80\uc0b0\uad11\uc5ed\uc2dc \uac15\uc11c\uad6c \uac00\ub77d\ub300\ub85c 929", "lat": "35.15158", "lng": "128.872972"}, {"statNm": "\ubd80\uc0b0 \uc5b4\ub9b0\uc774 \ub300\uacf5\uc6d0", "addr": "\ubd80\uc0b0\uad11\uc5ed\uc2dc \ubd80\uc0b0\uc9c4\uad6c \uc131\uc9c0\uace1\ub85c 3", "lat": "35.184608", "lng": "129.04349"}, {"statNm": "\ubd80\uc0b0\uc2dc \uad50\uc721\uccad", "addr": "\ubd80\uc0b0\uad11\uc5ed\uc2dc \ubd80\uc0b0\uc9c4\uad6c \ud654\uc9c0\ub85c 12", "lat": "35.176287", "lng": "129.064777"}, {"statNm": "\ubd80\uc0b0\uc544\uc2dc\uc544\ub4dc\ubcf4\uc870\uacbd\uae30\uc7a5VIP\uc8fc\ucc28\uc7a5", "addr": "\ubd80\uc0b0\uad11\uc5ed\uc2dc \uc5f0\uc81c\uad6c \uac70\uc81c\ub3d9 1312", "lat": "35.188449", "lng": "129.055808"}, {"statNm": "\ub86f\ub370\ub9c8\ud2b8 \uc0ac\uc0c1\uc810", "addr": "\ubd80\uc0b0\uad11\uc5ed\uc2dc \uc0ac\uc0c1\uad6c \ub099\ub3d9\ub300\ub85c 733 (\uc5c4\uad81\ub3d9)", "lat": "35.127586", "lng": "128.968375"}, {"statNm": "\ub86f\ub370\ub9c8\ud2b8 \ub3d9\ub798\uc810", "addr": "\ubd80\uc0b0\uad11\uc5ed\uc2dc \ub3d9\ub798\uad6c \uc911\uc559\ub300\ub85c 1393 (\uc628\ucc9c\ub3d9)", "lat": "35.212005", "lng": "129.077246"}, {"statNm": "\ub86f\ub370\ub9c8\ud2b8 \uad11\ubcf5\uc810", "addr": "\ubd80\uc0b0\uad11\uc5ed\uc2dc \uc911\uad6c \uc911\uc559\ub300\ub85c2 (\uc911\uc559\ub3d97\uac00)", "lat": "35.097858", "lng": "129.036146"}, {"statNm": "\uae40\ud574\uacf5\ud56d", "addr": "\ubd80\uc0b0\uad11\uc5ed\uc2dc \uac15\uc11c\uad6c \uacf5\ud56d\uc9c4\uc785\ub85c 108", "lat": "35.173216", "lng": "128.946465"}, {"statNm": "\ucca0\ub9c8\uba74\uc0ac\ubb34\uc18c", "addr": "\ubd80\uc0b0\uad11\uc5ed\uc2dc \uae30\uc7a5\uad70 \ucca0\ub9c8\uba74 \ucca0\ub9c8\uba74 485", "lat": "35.2746745", "lng": "129.1496941"}, {"statNm": "\uc7a5\uc548\uc74d\uc0ac\ubb34\uc18c", "addr": "\ubd80\uc0b0\uad11\uc5ed\uc2dc \uae30\uc7a5\uad70 \uc7a5\uc548\uc74d \uc88c\ubc29\uae38 5", "lat": "35.3138644", "lng": "129.2440318"}]