[{"statNm": "\ud648\ud50c\ub7ec\uc2a4 \uc601\ub3c4\uc810", "addr": "\ubd80\uc0b0\uad11\uc5ed\uc2dc \uc601\ub3c4\uad6c \ub300\uad50\ub85c14\ubc88\uae38 57", "lat": "35.095906", "lng": "129.044240"}, {"statNm": "\uc774\ub9c8\ud2b8 \ubb38\ud604\uc810", "addr": "\ubd80\uc0b0\uad11\uc5ed\uc2dc \ub0a8\uad6c \uc804\ud3ec\ub300\ub85c91\ubc88\uae38 47", "lat": "35.144356", "lng": "129.064256"}, {"statNm": "\uc774\ub9c8\ud2b8 \uae08\uc815\uc810", "addr": "\ubd80\uc0b0\uad11\uc5ed\uc2dc \uae08\uc815\uad6c \uc911\uc559\ub300\ub85c1841\ubc88\uae38 24", "lat": "35.24975906", "lng": "129.0901501"}, {"statNm": "\ud648\ud50c\ub7ec\uc2a4 \uc544\uc2dc\uc544\ub4dc\uc810", "addr": "\ubd80\uc0b0\uad11\uc5ed\uc2dc \uc5f0\uc81c\uad6c \uc885\ud569\uc6b4\ub3d9\uc7a5\ub85c 7", "lat": "35.19104755", "lng": "129.06250571"}, {"statNm": "\uc774\ub9c8\ud2b8 \uc5f0\uc81c\uc810", "addr": "\ubd80\uc0b0\uad11\uc5ed\uc2dc \uc5f0\uc81c\uad6c \uc5f0\uc218\ub85c 89", "lat": "35.176147", "lng": "129.081345"}, {"statNm": "\uae30\uc7a5\uad70\uccad", "addr": "\ubd80\uc0b0\uad11\uc5ed\uc2dc \uae30\uc7a5\uad70 \uae30\uc7a5\uc74d \uae30\uc7a5\ub300\ub85c 560", "lat": "35.2443", "lng": "129.2232"}, {"statNm": "\uc7a5\uc804\uc5ed \uacf5\uc601\uc8fc\ucc28\uc7a5", "addr": "\ubd80\uc0b0\uad11\uc5ed\uc2dc \uae08\uc815\uad6c \uc7a5\uc8041\ub3d9 242", "lat": "35.239348", "lng": "129.0876819"}, {"statNm": "\ub3d9\ub798\uc5ed \uacf5\uc601\uc8fc\ucc28\uc7a5", "addr": "\ubd80\uc0b0\uad11\uc5ed\uc2dc \ub3d9\ub798\uad6c \uc911\uc559\ub300\ub85c 1324", "lat": "35.206922", "lng": "129.0786666"}, {"statNm": "\ubd80\uc0b0\uc9c4\uad6c\uccad \uc9c0\ud5581\uce35 \uc8fc\ucc28\uc7a5", "addr": "\ubd80\uc0b0\uad11\uc5ed\uc2dc \ubd80\uc0b0\uc9c4\uad6c \uc2dc\ubbfc\uacf5\uc6d0\ub85c 30", "lat": "35.162892", "lng": "129.0530287"}, {"statNm": "\ubd80\uc0b0\uc2dc\ubbfc\uacf5\uc6d0 \uc9c0\ud558 \uc8fc\ucc28\uc7a5", "addr": "\ubd80\uc0b0\uad11\uc5ed\uc2dc \ubd80\uc0b0\uc9c4\uad6c \uc2dc\ubbfc\uacf5\uc6d0\ub85c 73", "lat": "35.1651212", "lng": "129.0562968"}, {"statNm": "\uc0bc\ub77d\uc7ac\ucca9\uac70\ub9ac", "addr": "\ubd80\uc0b0\uad11\uc5ed\uc2dc \uc0ac\uc0c1\uad6c \ub099\ub3d9\ub300\ub85c 1518\ubc88\uae38 26", "lat": "35.1930058", "lng": "128.985466"}, {"statNm": "\ub9dd\ubbf8\ub3d9 \uacf5\uc601\uc8fc\ucc28\uc7a5", "addr": "\ubd80\uc0b0\uad11\uc5ed\uc2dc \uc218\uc601\uad6c \ub9dd\ubbf8\ub3d9 979-73", "lat": "35.1701378", "lng": "129.096877"}, {"statNm": "\uc218\ubcc0\uacf5\uc6d0", "addr": "\ubd80\uc0b0\uad11\uc5ed\uc2dc \uc218\uc601\uad6c \ubbfc\ub77d\uc218\ubcc0\ub85c 95", "lat": "35.1547999", "lng": "129.1318417"}, {"statNm": "\ubd80\uc0b0\uc9c0\ubc29\uacbd\ucc30\uccad \uc55e \ubbfc\uc6d0\uc778 \uc8fc\ucc28\uc7a5", "addr": "\ubd80\uc0b0\uad11\uc5ed\uc2dc \uc5f0\uc81c\uad6c \uc911\uc559\ub300\ub85c 999", "lat": "35.1794806", "lng": "129.0734269"}, {"statNm": "\ubd80\uc0b0\ud14c\ud06c\ub178\ud30c\ud06c \uc885\ud569\ubb3c\ub958\uacbd\uc601\uae30\uc220\uc9c0\uc6d0\uc13c\ud130", "addr": "\ubd80\uc0b0\uad11\uc5ed\uc2dc \uc601\ub3c4\uad6c \ud574\uc591\ub85c 435-1", "lat": "35.0729995", "lng": "129.080228"}, {"statNm": "\uc6a9\ub450\uc0b0 \uacf5\uc601\uc8fc\ucc28\uc7a5", "addr": "\ubd80\uc0b0\uad11\uc5ed\uc2dc \uc911\uad6c \ub300\uccad\ub85c 116\ubc88\uae38 3", "lat": "35.1023192", "lng": "129.0326838"}, {"statNm": "\uc911\ub3d9\uc5ed \uacf5\uc601\uc8fc\ucc28\uc7a5", "addr": "\ubd80\uc0b0\uad11\uc5ed\uc2dc \ud574\uc6b4\ub300\uad6c \ud574\uc6b4\ub300\ub85c 731", "lat": "35.1668257", "lng": "129.1699787"}, {"statNm": "\ud55c\uad6d\ub9c8\uc0ac\ud68c \ubd80\uc0b0\uacbd\ub0a8\uc9c0\uc5ed\ubcf8\ubd80", "addr": "\ubd80\uc0b0\uad11\uc5ed\uc2dc \uac15\uc11c\uad6c \uac00\ub77d\ub300\ub85c 929", "lat": "35.15158", "lng": "128.872972"}, {"statNm": "\ubd80\uc0b0 \uc5b4\ub9b0\uc774 \ub300\uacf5\uc6d0", "addr": "\ubd80\uc0b0\uad11\uc5ed\uc2dc \ubd80\uc0b0\uc9c4\uad6c \uc131\uc9c0\uace1\ub85c 3", "lat": "35.184608", "lng": "129.04349"}, {"statNm": "\ubd80\uc0b0\uc2dc \uad50\uc721\uccad", "addr": "\ubd80\uc0b0\uad11\uc5ed\uc2dc \ubd80\uc0b0\uc9c4\uad6c \ud654\uc9c0\ub85c 12", "lat": "35.176287", "lng": "129.064777"}, {"statNm": "\ubd80\uc0b0\uc544\uc2dc\uc544\ub4dc\ubcf4\uc870\uacbd\uae30\uc7a5VIP\uc8fc\ucc28\uc7a5", "addr": "\ubd80\uc0b0\uad11\uc5ed\uc2dc \uc5f0\uc81c\uad6c \uac70\uc81c\ub3d9 1312", "lat": "35.188449", "lng": "129.055808"}, {"statNm": "\ub86f\ub370\ub9c8\ud2b8 \uc0ac\uc0c1\uc810", "addr": "\ubd80\uc0b0\uad11\uc5ed\uc2dc \uc0ac\uc0c1\uad6c \ub099\ub3d9\ub300\ub85c 733 (\uc5c4\uad81\ub3d9)", "lat": "35.127586", "lng": "128.968375"}, {"statNm": "\ub86f\ub370\ub9c8\ud2b8 \ub3d9\ub798\uc810", "addr": "\ubd80\uc0b0\uad11\uc5ed\uc2dc \ub3d9\ub798\uad6c \uc911\uc559\ub300\ub85c 1393 (\uc628\ucc9c\ub3d9)", "lat": "35.212005", "lng": "129.077246"}, {"statNm": "\ub86f\ub370\ub9c8\ud2b8 \uad11\ubcf5\uc810", "addr": "\ubd80\uc0b0\uad11\uc5ed\uc2dc \uc911\uad6c \uc911\uc559\ub300\ub85c2 (\uc911\uc559\ub3d97\uac00)", "lat": "35.097858", "lng": "129.036146"}, {"statNm": "\uae40\ud574\uacf5\ud56d", "addr": "\ubd80\uc0b0\uad11\uc5ed\uc2dc \uac15\uc11c\uad6c \uacf5\ud56d\uc9c4\uc785\ub85c 108", "lat": "35.173216", "lng": "128.946465"}, {"statNm": "\ucca0\ub9c8\uba74\uc0ac\ubb34\uc18c", "addr": "\ubd80\uc0b0\uad11\uc5ed\uc2dc \uae30\uc7a5\uad70 \ucca0\ub9c8\uba74 \ucca0\ub9c8\uba74 485", "lat": "35.2746745", "lng": "129.1496941"}, {"statNm": "\uc7a5\uc548\uc74d\uc0ac\ubb34\uc18c", "addr": "\ubd80\uc0b0\uad11\uc5ed\uc2dc \uae30\uc7a5\uad70 \uc7a5\uc548\uc74d \uc88c\ubc29\uae38 5", "lat": "35.3138644", "lng": "129.2440318"}, {"statNm": "\uc815\uad00\uc74d\uc0ac\ubb34\uc18c", "addr": "\ubd80\uc0b0\uad11\uc5ed\uc2dc \uae30\uc7a5\uad70 \uc815\uad00\uc74d \uc6a9\uc218\ub85c 4, \uc785\uad6c \uc6b0\uce21", "lat": "35.3254808", "lng": "129.1803974"}, {"statNm": "\ub86f\ub370\ub9c8\ud2b8 \uc0ac\ud558\uc810", "addr": "\ubd80\uc0b0\uad11\uc5ed\uc2dc \uc0ac\ud558\uad6c \uc744\uc219\ub3c4\ub300\ub85c 610", "lat": "35.084840", "lng": "128.971577"}, {"statNm": "\uc774\ub9c8\ud2b8 \ud574\uc6b4\ub300\uc810", "addr": "\ubd80\uc0b0\uad11\uc5ed\uc2dc \ud574\uc6b4\ub300\uad6c \uc88c\ub3d9\uc21c\ud658\ub85c 511", "lat": "35.165994", "lng": "129.167388"}, {"statNm": "\ub3d9\uc6d0 \uacf5\uc601\uc8fc\ucc28\uc7a5", "addr": "\ubd80\uc0b0\uad11\uc5ed\uc2dc \ubd81\uad6c \ub9cc\ub355\ub3d9 934", "lat": "35.210513", "lng": "129.030131"}, {"statNm": "\ub86f\ub370\ub9c8\ud2b8 \ud654\uba85\uc810", "addr": "\ubd80\uc0b0\uad11\uc5ed\uc2dc \ubd81\uad6c \ud654\uba85\ub300\ub85c 47(\ud654\uba85\ub3d9)", "lat": "35.235202", "lng": "129.013075"}, {"statNm": "\uc5c4\uad81\ucd08\ub4f1\ud559\uad50\uc9c0\ud558 \uacf5\uc601\uc8fc\ucc28\uc7a5", "addr": "\ubd80\uc0b0\uad11\uc5ed\uc2dc \uc0ac\uc0c1\uad6c \uc5c4\uad81\ub85c191\ubc88\uae38 23(\uc5c4\uad81\ub3d9)", "lat": "35.128337", "lng": "128.973424"}, {"statNm": "\uc0ac\ud558\uacbd\ucc30\uc11c", "addr": "\ubd80\uc0b0\uad11\uc5ed\uc2dc \uc0ac\ud558\uad6c \uc744\uc219\ub3c4\ub300\ub85c 665", "lat": "35.085868", "lng": "128.978159"}, {"statNm": "\ub86f\ub370\ub9c8\ud2b8 \ubd80\uc0b0\uc810", "addr": "\ubd80\uc0b0\uad11\uc5ed\uc2dc \ubd80\uc0b0\uc9c4\uad6c \uc2e0\ucc9c\ub300\ub85c 241", "lat": "35.163297", "lng": "129.049257"}, {"statNm": "\ubd80\uc0b0\uc870\uc120\ud574\uc591\uae30\uc790\uc7ac\uacf5\uc5c5\ud611\ub3d9\uc870\ud569", "addr": "\ubd80\uc0b0\uad11\uc5ed\uc2dc \uac15\uc11c\uad6c \ubbf8\uc74c\uc0b0\ub2e8\ub85c295\ubc88\uae38 10", "lat": "35.150386", "lng": "128.860380"}, {"statNm": "\uae30\uc7a5\uc2dc\uc7a5 \uacf5\uc601\uc8fc\ucc28\uc7a5", "addr": "\ubd80\uc0b0\uad11\uc5ed\uc2dc \uae30\uc7a5\uad70 \ub300\ub77c\ub9ac 70-1", "lat": "35.244240", "lng": "129.214857"}, {"statNm": "\ucca0\ub9c8\uccb4\uc721\uc2dc\uc124", "addr": "\ubd80\uc0b0\uad11\uc5ed\uc2dc \uae30\uc7a5\uad70 \ucca0\ub9c8\uba74 \ucca0\ub9c8\ub85c 543", "lat": "35.272592", "lng": "129.154704"}, {"statNm": "\uc7a5\uc548\ucc9c\uc57c\uad6c\uc7a5", "addr": "\ubd80\uc0b0\uad11\uc5ed\uc2dc \uae30\uc7a5\uad70 \uc7a5\uc548\uc74d \uace0\ubb34\ub85c 294", "lat": "35.331684", "lng": "129.279689"}, {"statNm": "\uc885\ud569\uc0ac\ud68c\ubcf5\uc9c0\uad00", "addr": "\ubd80\uc0b0\uad11\uc5ed\uc2dc \uae30\uc7a5\uad70 \uae30\uc7a5\uc74d \ucc28\uc131\ub85c 206", "lat": "35.235986", "lng": "129.213519"}, {"statNm": "\ub355\ucc9c \uacf5\uc601\uc8fc\ucc28\uc7a5", "addr": "\ubd80\uc0b0\uad11\uc5ed\uc2dc \ubd81\uad6c \ub355\ucc9c\ub3d9 457-1", "lat": "35.214847", "lng": "129.009685"}, {"statNm": "\uc601\ub3c4\uad6c\uccad", "addr": "\ubd80\uc0b0\uad11\uc5ed\uc2dc \uc601\ub3c4\uad6c \ud0dc\uc885\ub85c 423", "lat": "35.090361", "lng": "129.067457"}, {"statNm": "\uc815\uad00\ub178\uc778\ubcf5\uc9c0\uad00", "addr": "\ubd80\uc0b0\uad11\uc5ed\uc2dc \uae30\uc7a5\uad70 \uc815\uad00\uc74d \uc815\uad00\uc911\uc559\ub85c 83-14", "lat": "35.324964", "lng": "129.178665"}, {"statNm": "\uc815\uad00\ubcf4\uac74\uc9c0\uc18c", "addr": "\ubd80\uc0b0\uad11\uc5ed\uc2dc \uae30\uc7a5\uad70 \uc815\uad00\uc74d \uc6a9\uc218\ub85c 11", "lat": "35.325185", "lng": "129.178786"}, {"statNm": "kbs \ubd80\uc0b0\ubc29\uc1a1\ucd1d\uad6d", "addr": "\ubd80\uc0b0\uad11\uc5ed\uc2dc \uc218\uc601\uad6c \uc218\uc601\ub85c 429", "lat": "35.145000", "lng": "129.107728"}, {"statNm": "\uae30\uc7a5\ud604\ub300\ub4dc\ub9bc\ubcfc\ud30c\ud06c", "addr": "\ubd80\uc0b0\uad11\uc5ed\uc2dc \uae30\uc7a5\uad70 \uc77c\uad11\uba74 \ub3d9\ubc31\ub9ac 409", "lat": "35.297079", "lng": "129.240358"}, {"statNm": "\uad6d\ub9bd\ubd80\uc0b0\uacfc\ud559\uad00", "addr": "\ubd80\uc0b0\uad11\uc5ed\uc2dc \uae30\uc7a5\uad70 \uae30\uc7a5\uc74d \uc11d\uc0b0\ub9ac 293", "lat": "35.205239", "lng": "129.212284"}, {"statNm": "\uba85\uc7a5\ub3d9 \uacf5\uc601\uc8fc\ucc28\uc7a5", "addr": "\ubd80\uc0b0\uad11\uc5ed\uc2dc \ub3d9\ub798\uad6c \uba85\uc7a5\ub3d9 538", "lat": "35.210417", "lng": "129.098028"}, {"statNm": "\ubd80\uc804\uc5ed \uacf5\uc601\uc8fc\ucc28\uc7a5", "addr": "\ubd80\uc0b0\uad11\uc5ed\uc2dc \ubd80\uc0b0\uc9c4\uad6c \ubd80\uc8041\ub3d9 46", "lat": "35.163250", "lng": "129.061667"}, {"statNm": "\uc554\ub0a8\ub3d9\uc8fc\ubbfc\uc13c\ud130", "addr": "\ubd80\uc0b0\uad11\uc5ed\uc2dc \uc11c\uad6c \uc554\ub0a8\ub3d9 89-1", "lat": "35.079833", "lng": "129.021333"}, {"statNm": "\ud55c\uad6d\uc218\ub825\uc6d0\uc790\ub825 \uace0\ub9ac\uc6d0\uc790\ub825\ubcf8\ubd80", "addr": "\ubd80\uc0b0\uad11\uc5ed\uc2dc \uae30\uc7a5\uad70 \uc7a5\uc548\uc74d \uae38\ucc9c\ub9ac 300", "lat": "35.330056", "lng": "129.286083"}, {"statNm": "\ubd80\uc0b0\ub3c4\uc2dc\uacf5\uc0ac", "addr": "\ubd80\uc0b0\uad11\uc5ed\uc2dc \ubd80\uc0b0\uc9c4\uad6c \uc2e0\ucc9c\ub300\ub85c 156", "lat": "35.155737", "lng": "129.051412"}, {"statNm": "\ud55c\uad6d\uacf5\ud56d\uacf5\uc0ac \ubd80\uc0b0\uc9c0\uc5ed\ubcf8\ubd80 \uae40\ud574\uacf5\ud56d \uc8fc\ucc28\ube4c\ub529", "addr": "\ubd80\uc0b0\uad11\uc5ed\uc2dc \uac15\uc11c\uad6c \ub300\uc8002\ub3d9 2764", "lat": "35.171012", "lng": "128.950692"}, {"statNm": "\uc7a5\uc548\ud734\uac8c\uc18c(\ubd80\uc0b0\ubc29\ud5a5)", "addr": "\ubd80\uc0b0\uad11\uc5ed\uc2dc \uae30\uc7a5\uad70 \uc7a5\uc548\uc74d \ub3d9\ud574\uace0\uc18d\ub3c4\ub85c 25", "lat": "35.37808076", "lng": "129.24623603"}, {"statNm": "\uc7a5\uc548\ud734\uac8c\uc18c(\uc6b8\uc0b0\ubc29\ud5a5)", "addr": "\ubd80\uc0b0\uad11\uc5ed\uc2dc \uae30\uc7a5\uad70 \uc7a5\uc548\uc74d \ub3d9\ud574\uace0\uc18d\ub3c4\ub85c 26", "lat": "35.38195967", "lng": "129.24867346"}, {"statNm": "\ubd80\uc0b0 \ud574\uad70\ud68c\uad00", "addr": "\ubd80\uc0b0\uad11\uc5ed\uc2dc \ub0a8\uad6c \uc6a9\ud638\ub3d9 947-1", "lat": "35.10504679", "lng": "129.11624615"}, {"statNm": "\ubc14\ub2e4\ubcc4 \uc5b4\ub9b0\uc774\uc9d1", "addr": "\ubd80\uc0b0\uad11\uc5ed\uc2dc \ub0a8\uad6c \uc6a9\ub2f9\ub3d9 454-2", "lat": "35.12019375", "lng": "129.09663534"}, {"statNm": "\ud574\uc131\uc2a4\ud3ec\ub809\uc2a4 \uc8fc\ucc28\uc7a5", "addr": "\ubd80\uc0b0\uad11\uc5ed\uc2dc \uac15\uc11c\uad6c \uacf5\ud56d\uc9c4\uc785\ub85c42\ubc88\uae3820", "lat": "35.18264211", "lng": "128.95286651"}, {"statNm": "\uc2e0\ud574\uc6b4\ub300\uc5ed(\uc81c7508\ubd80\ub300 \uba74\ud68c\uc2e4)", "addr": "\ubd80\uc0b0\uad11\uc5ed\uc2dc \ud574\uc6b4\ub300\uad6c \uc88c\ub3d9 \uc0ac\uc11c\ud568 321-16\ud638", "lat": "35.1813107", "lng": "129.17902065"}, {"statNm": "\ud574\uc6b4\ub300\uc790\ub3d9\ucc28\uac80\uc0ac\uc18c", "addr": "\ubd80\uc0b0\uad11\uc5ed\uc2dc \ud574\uc6b4\ub300\uad6c \uc13c\ud140\ub3d9\ub85c 201", "lat": "35.1840451", "lng": "129.1197533"}, {"statNm": "\uae30\uc7a5\ud604\ub300\ucc28\ub4dc\ub9bc\ubcfc\ud30c\ud06c", "addr": "\ubd80\uc0b0\uad11\uc5ed\uc2dc \uae30\uc7a5\uad70 \uc77c\uad11\uba74 \ub3d9\ubc31\ub9ac 425-1", "lat": "35.2968649", "lng": "129.2431714"}, {"statNm": "\uc774\ub9c8\ud2b8 T\uba85\uc9c0S\uc810", "addr": "\ubd80\uc0b0\uad11\uc5ed\uc2dc \uac15\uc11c\uad6c \uba85\uc9c0\uad6d\uc81c6\ub85c 168", "lat": "35.092899", "lng": "128.918406"}, {"statNm": "\ub300\uc800\uc5ed (\ub300\uc800\ucc28\ub7c9\uae30\uc9c0)", "addr": "\ubd80\uc0b0\uad11\uc5ed\uc2dc \uac15\uc11c\uad6c \ub300\uc8001\ub3d9 1619", "lat": "35.2132197", "lng": "128.9542429"}, {"statNm": "\ubd80\uc0b0\ud658\uacbd\uacf5\ub2e8 \uba85\uc9c0\uc0ac\uc5c5\uc18c", "addr": "\ubd80\uc0b0\uad11\uc5ed\uc2dc \uac15\uc11c\uad6c \uba85\uc9c0\uc624\uc158\uc2dc\ud2f0 13\ub85c 12-11", "lat": "35.0907501", "lng": "128.8980436"}, {"statNm": "\uc6a9\ud638\ub9cc\uc720\ub78c\uc120\ud130\ubbf8\ub110", "addr": "\ubd80\uc0b0\uad11\uc5ed\uc2dc \ub0a8\uad6c \ubd84\ud3ec\ub85c 101", "lat": "35.1323819", "lng": "129.1154628"}, {"statNm": "\ubd80\uc0b0\ub3c4\uc11c\uad00", "addr": "\ubd80\uc0b0\uad11\uc5ed\uc2dc \uc0ac\uc0c1\uad6c \ub355\ud3ec\ub3d9 415-2", "lat": "35.1731802", "lng": "128.9849642"}, {"statNm": "\ubd80\uc0b0\ub3d9\ubd80\uacbd\ucc30\uc11c", "addr": "\ubd80\uc0b0\uad11\uc5ed\uc2dc \ub3d9\uad6c \uc911\uc559\ub300\ub85c 387", "lat": "35.1298626", "lng": "129.0494392"}, {"statNm": "\ubd80\uc0b0\uc601\ub3c4\uacbd\ucc30\uc11c", "addr": "\ubd80\uc0b0\uad11\uc5ed\uc2dc \uc601\ub3c4\uad6c \ud0dc\uc885\ub85c 46", "lat": "35.0942458", "lng": "129.0367729"}, {"statNm": "\ubd80\uc0b0\ud604\ub300\ubbf8\uc220\uad00", "addr": "\ubd80\uc0b0\uad11\uc5ed\uc2dc \uc0ac\ud558\uad6c \ub099\ub3d9\ub0a8\ub85c 1191", "lat": "35.1090599", "lng": "128.9435435"}, {"statNm": "\ubd80\uc0b0\uc138\uad00 \uc2e0\ud56d\uccad\uc0ac", "addr": "\ubd80\uc0b0\uad11\uc5ed\uc2dc \uac15\uc11c\uad6c \ub179\uc0b0\uc0b0\ub2e8178\ub85c 37-17", "lat": "35.086015", "lng": "128.838608"}, {"statNm": "\ubd80\uc0b0 \ub2f9\ub9ac\ub3d9 \uc0db\ubcc4\uacf5\uc6d0 \uacf5\uc601\uc8fc\ucc28\uc7a5", "addr": "\ubd80\uc0b0\uad11\uc5ed\uc2dc \uc0ac\ud558\uad6c \ub099\ub3d9\ub300\ub85c356\ubc88\uae38 55", "lat": "35.102413", "lng": "128.981557"}, {"statNm": "\ubd80\uc0b0 \ubd09\ub798\uc0b0 \uc5ed\uc0ac\ud14c\ub9c8\uacf5\uc6d0 \uacf5\uc601\uc8fc\ucc28\uc7a5", "addr": "\ubd80\uc0b0\uad11\uc5ed\uc2dc \uc601\ub3c4\uad6c \uccad\ud559\ub3d9 483-6", "lat": "35.086012", "lng": "129.059829"}, {"statNm": "\ub3d9\ub798\ub798\ubbf8\uc548\uc544\uc774\ud30c\ud06c 1\ub2e8\uc9c0", "addr": "\ubd80\uc0b0\uad11\uc5ed\uc2dc \ub3d9\ub798\uad6c \uae08\uc815\ub9c8\uc744\ub85c 147", "lat": "35.213019", "lng": "129.0695122"}, {"statNm": "\ub3d9\ub798 \ub798\ubbf8\uc548\uc544\uc774\ud30c\ud06c 2\ub2e8\uc9c0", "addr": "\ubd80\uc0b0\uad11\uc5ed\uc2dc \ub3d9\ub798\uad6c \uae08\uc815\ub9c8\uc744\ub85c 150", "lat": "35.211490065", "lng": "129.06900962"}, {"statNm": "\ub3d9\ub798 \ub798\ubbf8\uc548\uc544\uc774\ud30c\ud06c 3\ub2e8\uc9c0", "addr": "\ubd80\uc0b0\uad11\uc5ed\uc2dc \ub3d9\ub798\uad6c \ucda9\ub82c\ub300\ub85c107\ubc88\uae38 65", "lat": "35.210858829", "lng": "129.07193399"}, {"statNm": "\uce74\ud398\uc9c0\uc218", "addr": "\ubd80\uc0b0\uad11\uc5ed\uc2dc \uae08\uc815\uad6c \uc0b0\uc131\ub85c 428", "lat": "35.251213", "lng": "129.053825"}, {"statNm": "\ub2c8\uc988\ud638\ud154", "addr": "\ubd80\uc0b0\uad11\uc5ed\uc2dc \uae08\uc815\uad6c \ud314\uc1a1\ub85c24\ubc88\uae38 52", "lat": "35.274506", "lng": "129.089965"}, {"statNm": "\ub3d9\uc758\ub300\ud559\uad50 \uac00\uc57c\ucea0\ud37c\uc2a4", "addr": "\ubd80\uc0b0\uad11\uc5ed\uc2dc \ubd80\uc0b0\uc9c4\uad6c \uc5c4\uad11\ub85c 176", "lat": "35.1459356", "lng": "129.035277"}, {"statNm": "\uc704\ud074\ub9ac\uc2a4\ud0c0", "addr": "\ubd80\uc0b0\uad11\uc5ed\uc2dc \ubd80\uc0b0\uc9c4\uad6c \uc911\uc559\ub300\ub85c680\ubc88\uae38 22", "lat": "35.153393", "lng": "129.060425"}, {"statNm": "GS\uc218\ud37c\ub9c8\ucf13 \uba85\uc7a5\uc810", "addr": "\ubd80\uc0b0\uad11\uc5ed\uc2dc \ub3d9\ub798\uad6c \ubc18\uc1a1\ub85c 291", "lat": "35.2063539999", "lng": "129.1018410000"}, {"statNm": "GS\uc218\ud37c\ub9c8\ucf13 \uad6c\ud3ec\uc810", "addr": "\ubd80\uc0b0\uad11\uc5ed\uc2dc \ubd81\uad6c \uad6c\ud3ec\ub3d9", "lat": "35.2057270000", "lng": "129.0033249999"}, {"statNm": "\uae30\uc544\uc624\ud1a0Q \ud611\uc2e0\uc790\ub3d9\ucc28\uc11c\ube44\uc2a4", "addr": "\ubd80\uc0b0\uad11\uc5ed\uc2dc \uc5f0\uc81c\uad6c \uc6d4\ub4dc\ucef5\ub300\ub85c 180", "lat": "35.187937000", "lng": "129.07716699"}, {"statNm": "\uae08\uace1\uc8fc\uacf56\ub2e8\uc9c0", "addr": "\ubd80\uc0b0\uad11\uc5ed\uc2dc \ubd81\uad6c \ud6a8\uc5f4\ub85c 40", "lat": "35.2488869", "lng": "129.0153981"}, {"statNm": "\ubd80\uc0b0\uc0b0\uc5c5\uc6a9\ud488\uc720\ud1b5\ub2e8\uc9c0", "addr": "\ubd80\uc0b0\uad11\uc5ed\uc2dc \uc0ac\uc0c1\uad6c \uad18\uac10\ub85c 37", "lat": "35.160019", "lng": "128.979548"}, {"statNm": "\ube14\ub8e8\ud578\uc988 \ud604\ub300\uae30\uc544 \ub0a8\uad6c\uc815\ube44\uc11c\ube44\uc2a4", "addr": "\ubd80\uc0b0\uad11\uc5ed\uc2dc \ub0a8\uad6c \uc2e0\uc120\ub85c 340", "lat": "35.1166211", "lng": "129.0957107"}, {"statNm": "\ud55c\uad6d\uc804\uae30\uc548\uc804\uacf5\uc0ac \ubd80\uc0b0\uc6b8\uc0b0\uc9c0\uc5ed\ubcf8\ubd80", "addr": "\ubd80\uc0b0\uad11\uc5ed\uc2dc \uc911\uad6c \ud574\uad00\ub85c 27", "lat": "35.101373", "lng": "129.035528"}, {"statNm": "\uba85\uc9c0 KB\ud0c0\uc6cc", "addr": "\ubd80\uc0b0\uad11\uc5ed\uc2dc \uac15\uc11c\uad6c \uba85\uc9c0\uad6d\uc81c8\ub85c10\ubc88\uae38 16", "lat": "35.092099", "lng": "128.9027619"}, {"statNm": "\uc601\uc0b0\ub300\ud559\uad50 \ud574\uc6b4\ub300\ucea0\ud37c\uc2a4", "addr": "\ubd80\uc0b0\uad11\uc5ed\uc2dc \ud574\uc6b4\ub300\uad6c \ubc18\uc1a1\uc21c\ud658\ub85c 142", "lat": "35.2244112", "lng": "129.1558623"}, {"statNm": "\ubb38\ud604 \ubc94\uc591\ub808\uc6b0\uc2a4 \uc544\ud30c\ud2b8", "addr": "\ubd80\uc0b0\uad11\uc5ed\uc2dc \ub0a8\uad6c \ud669\ub839\ub300\ub85c90\ubc88\uae38 55", "lat": "35.1479667", "lng": "129.0701715"}, {"statNm": "\uc624\ud1a0\ud14c\ud06c\uc544\ud2b8", "addr": "\ubd80\uc0b0\uad11\uc5ed\uc2dc \uc218\uc601\uad6c \uad11\ub0a8\ub85c 177", "lat": "35.156934", "lng": "129.119311"}, {"statNm": "\ud574\uc6b4\ub300 \uc628\ucc9c\uc13c\ud130 \uc8fc\ucc28\ube4c\ub529", "addr": "\ubd80\uc0b0\uad11\uc5ed\uc2dc \ud574\uc6b4\ub300\uad6c \uc911\ub3d92\ub85c10\ubc88\uae38 21", "lat": "35.163468192738", "lng": "129.1655011521"}, {"statNm": "\ubd80\uc0b0 \uba85\uc9c0 \uc6b0\ubc29\uc544\uc774\uc720\uc258", "addr": "\ubd80\uc0b0\uad11\uc5ed\uc2dc \uac15\uc11c\uad6c \ud654\uc804\uc0b0\ub2e86\ub85c136\ubc88\uae38 31", "lat": "35.110043590384", "lng": "128.8865150725"}, {"statNm": "GS25 \ub300\uc800\ud504\ub808\uc26c\uc810", "addr": "\ubd80\uc0b0\uad11\uc5ed\uc2dc \uac15\uc11c\uad6c \ub300\uc800\ub85c 153", "lat": "35.215068", "lng": "128.96955"}, {"statNm": "E\ud3b8\ud55c\uc138\uc0c1\uad11\uc548\ube44\uce58\uc544\ud30c\ud2b8", "addr": "\ubd80\uc0b0\uad11\uc5ed\uc2dc \uc218\uc601\uad6c \ubbfc\ub77d\uc218\ubcc0\ub85c7\ubc88\uae38 60", "lat": "35.155075", "lng": "129.1258407"}, {"statNm": "\ubd80\uc0b0\ud56d\ub9cc\uacf5\uc0ac", "addr": "\ubd80\uc0b0\uad11\uc5ed\uc2dc \uc911\uad6c \ub300\uad50\ub85c 122", "lat": "35.100957", "lng": "129.0385959"}, {"statNm": "\uc88b\uc740\uac15\uc548\ubcd1\uc6d0(\uad11\uc740\ube4c\ub529)", "addr": "\ubd80\uc0b0\uad11\uc5ed\uc2dc \uc218\uc601\uad6c \uc218\uc601\ub85c 480", "lat": "35.148660000000", "lng": "129.1110579999"}, {"statNm": "\ubd80\uc0b0\ub300\ud559\uad50", "addr": "\ubd80\uc0b0\uad11\uc5ed\uc2dc \uae08\uc815\uad6c \ubd80\uc0b0\ub300\ud559\ub85c63\ubc88\uae38 2", "lat": "35.236359561709", "lng": "129.0824122823"}, {"statNm": "\uc544\uc6b0\ub514_\uc0ac\uc0c1 \uc11c\ube44\uc2a4\uc13c\ud130 150KW", "addr": "\ubd80\uc0b0\uad11\uc5ed\uc2dc \uc0ac\uc0c1\uad6c \ud559\uac10\ub300\ub85c191\ubc88\uae38 19", "lat": "35.147728000000", "lng": "128.9879539999"}, {"statNm": "\uc544\uc6b0\ub514_\ud574\uc6b4\ub300 \uc804\uc2dc\uc7a5", "addr": "\ubd80\uc0b0\uad11\uc5ed\uc2dc \ud574\uc6b4\ub300\uad6c \ud574\uc6b4\ub300\ud574\ubcc0\ub85c 305", "lat": "35.161617999999", "lng": "129.1639430000"}, {"statNm": "\uc544\uc6b0\ub514_\ubd80\uc0b0\uc2dc \uc804\uc2dc\uc7a5", "addr": "\ubd80\uc0b0\uad11\uc5ed\uc2dc \uae08\uc815\uad6c \uc911\uc559\ub300\ub85c 1661", "lat": "35.23253300000", "lng": "129.09151700000"}, {"statNm": "\ud574\uc591\ud50c\ub79c\ud2b8\uace0\uae09\uae30\uc220\uc5d4\uc9c0\ub2c8\uc5b4\ub9c1\uc13c\ud130", "addr": "\ubd80\uc0b0\uad11\uc5ed\uc2dc \uac15\uc11c\uad6c \uc0dd\uace1\ub85c189\ubc88\uae38 10", "lat": "35.134454206433", "lng": "128.8947973723"}, {"statNm": "\uc544\uc6b0\ub514_\ub0a8\ucc9c \uc804\uc2dc\uc7a5", "addr": "\ubd80\uc0b0\uad11\uc5ed\uc2dc \uc218\uc601\uad6c \ud669\ub839\ub300\ub85c 501", "lat": "35.137865000000", "lng": "129.1088100000"}, {"statNm": "\uc11c\ub3d9 \ubbf8\ub85c\uc2dc\uc7a5 \uacf5\uc601\uc8fc\ucc28\uc7a5", "addr": "\ubd80\uc0b0\uad11\uc5ed\uc2dc \uae08\uc815\uad6c \uc11c\ubd80\ub85c16\ubc88\uae38 13-3", "lat": "35.216226400655", "lng": "129.1043931220"}, {"statNm": "\ud604\ub300\uc5d4\uc9c0\ub2c8\uc5b4\ub9c1 \uace0\ub824\uc81c\uac15 \uc81c 1\uc8fc\ucc28\uc7a5", "addr": "\ubd80\uc0b0\uad11\uc5ed\uc2dc \uc218\uc601\uad6c \uad6c\ub77d\ub85c 150", "lat": "35.180812", "lng": "129.1159369"}, {"statNm": "\ubd80\uc0b0\ubaa8\ud130\uc2a4\ud29c\ub514\uc624(\uace0\ub824\uc81c\uac15)", "addr": "\ubd80\uc0b0\uad11\uc5ed\uc2dc \uc218\uc601\uad6c \uad6c\ub77d\ub85c 147-6", "lat": "35.1794062", "lng": "129.1144143"}, {"statNm": "\ud574\uc6b4\ub300 \uacbd\ubcf4\uc774\ub9ac\uc2a4\uc624\uc158", "addr": "\ubd80\uc0b0\uad11\uc5ed\uc2dc \ud574\uc6b4\ub300\uad6c \uc911\ub3d91\ub85c19\ubc88\uae38 24", "lat": "35.163542525", "lng": "129.16294710"}, {"statNm": "\ud3ec\ub974\uc250 HPC \ub370\uc2a4\ud2f0\ub124\uc774\uc158 \ubd80\uc0b0 \uc6e8\uc2a4\ud2f4 \uc870\uc120 \ud638\ud154", "addr": "\ubd80\uc0b0\uad11\uc5ed\uc2dc \ud574\uc6b4\ub300\uad6c \ub3d9\ubc31\ub85c 67", "lat": "35.155973", "lng": "129.154037"}, {"statNm": "\uc624\uc2dc\ub9ac\uc544 \uad00\uad11\ub2e8\uc9c0 \ub8e8\uc9c0 \uc8fc\ucc28\uc7a5", "addr": "\ubd80\uc0b0\uad11\uc5ed\uc2dc \uae30\uc7a5\uad70 \uae30\uc7a5\uc74d \uae30\uc7a5\ud574\uc548\ub85c 205", "lat": "35.194075777", "lng": "129.2194779"}, {"statNm": "\uac00\uc57c\ub204\ub9ac\uc560\ub354\uc13c\ud2b8\ub9ac\uc988", "addr": "\ubd80\uc0b0\uad11\uc5ed\uc2dc \ubd80\uc0b0\uc9c4\uad6c \ubc94\ucc9c\ub85c 16", "lat": "35.14814000", "lng": "129.05621200"}, {"statNm": "\uc778\ud30c\ud06c\uc5d0\ube44\ub274 \uc11c\uba74", "addr": "\ubd80\uc0b0\uad11\uc5ed\uc2dc \ubd80\uc0b0\uc9c4\uad6c \uc11c\uc804\ub85c9\ubc88\uae38 20", "lat": "35.158516999", "lng": "129.06101200"}, {"statNm": "\uae08\uc0d8\ub3c4\uc11c\uad00", "addr": "\ubd80\uc0b0\uad11\uc5ed\uc2dc \uae08\uc815\uad6c \uae30\ucc30\ub85c 94", "lat": "35.238990999", "lng": "129.09409600"}, {"statNm": "\uac70\uc81c4\ub3d9 \ubcf5\ud569\uc13c\ud130", "addr": "\ubd80\uc0b0\uad11\uc5ed\uc2dc \uc5f0\uc81c\uad6c \ud654\uc9c0\ub85c52\ubc88\uae38 33", "lat": "35.179970000", "lng": "129.06590499"}, {"statNm": "\uad6c\ud3ec\uc2dc\uc7a5 \uacf5\uc601\uc8fc\ucc28\uc7a5", "addr": "\ubd80\uc0b0\uad11\uc5ed\uc2dc \ubd81\uad6c \ub099\ub3d9\ub300\ub85c1780\ubc88\uae38 46", "lat": "35.207467000", "lng": "129.00435500"}, {"statNm": "\uae30\uc220\ubcf4\uc99d\uae30\uae08", "addr": "\ubd80\uc0b0\uad11\uc5ed\uc2dc \ub0a8\uad6c \ubb38\ud604\uae08\uc735\ub85c 33", "lat": "35.146168", "lng": "129.064072"}, {"statNm": "\uad6d\ud68c\ubd80\uc0b0\ub3c4\uc11c\uad00 \uc804\uae30\ucc28 \ucda9\uc804\uc18c", "addr": "\ubd80\uc0b0\uad11\uc5ed\uc2dc \uac15\uc11c\uad6c \uba85\uc9c0\uad6d\uc81c1\ub85c 161", "lat": "35.103504999", "lng": "128.904392"}, {"statNm": "\ub0a8\ucc9c\ucf54\uc624\ub871\ud558\ub298\ucc44\uace8\ub4e0\ube44\uce58", "addr": "\ubd80\uc0b0\uad11\uc5ed\uc2dc \uc218\uc601\uad6c \ub0a8\ucc9c\ub3d9\ub85c 41", "lat": "35.1414337", "lng": "129.1124672"}, {"statNm": "\uad6c\ud3ec\ud611\uc9c4\ud0dc\uc591\uc544\ud30c\ud2b8", "addr": "\ubd80\uc0b0\uad11\uc5ed\uc2dc \ubd81\uad6c \ubc31\uc591\ub300\ub85c 1025", "lat": "35.1973483", "lng": "128.9950732"}, {"statNm": "\ub798\ubbf8\uc548\ud574\uc6b4\ub300", "addr": "\ubd80\uc0b0\uad11\uc5ed\uc2dc \ud574\uc6b4\ub300\uad6c \uc88c\ub3d9\uc21c\ud658\ub85c 402", "lat": "35.1628829", "lng": "129.1767799"}, {"statNm": "\uc30d\uc6a9\ub354\ud50c\ub798\ud2f0\ub118\uc0ac\uc9c1\uc544\uc2dc\uc544\ub4dc", "addr": "\ubd80\uc0b0\uad11\uc5ed\uc2dc \ub3d9\ub798\uad6c \uc544\uc2dc\uc544\ub4dc\ub300\ub85c134\ubc88\uae38 14", "lat": "35.196472843", "lng": "129.06676315"}, {"statNm": "\uc628\ucc9c\ub3d9\ubc18\ub3c4\ubcf4\ub77c\uc2a4\uce74\uc774\ubdf0", "addr": "\ubd80\uc0b0\uad11\uc5ed\uc2dc \ub3d9\ub798\uad6c \uc544\uc2dc\uc544\ub4dc\ub300\ub85c 234", "lat": "35.204613162", "lng": "129.06789490"}, {"statNm": "\uc8fc\ub840\uccad\uad6c\uc544\ud30c\ud2b8", "addr": "\ubd80\uc0b0\uad11\uc5ed\uc2dc \uc0ac\uc0c1\uad6c \ubc31\uc591\ub300\ub85c494\ubc88\uae38 38", "lat": "35.155170512", "lng": "128.99903749"}, {"statNm": "\ub300\uc5f0SKView\ud790\uc2a4", "addr": "\ubd80\uc0b0\uad11\uc5ed\uc2dc \ub0a8\uad6c \uc218\uc601\ub85c 261", "lat": "35.136708716", "lng": "129.09507345"}, {"statNm": "\ubd80\ubbfce\ud3b8\ud55c\uc138\uc0c1", "addr": "\ubd80\uc0b0\uad11\uc5ed\uc2dc \uc11c\uad6c \ud574\ub3cb\uc774\ub85c 313", "lat": "35.104269796", "lng": "129.01693398"}, {"statNm": "\ud55c\uc194\ud3f4\ub77c\ub9ac\uc2a4", "addr": "\ubd80\uc0b0\uad11\uc5ed\uc2dc \ubd80\uc0b0\uc9c4\uad6c \uac00\uc57c\ub300\ub85c 754", "lat": "35.157107197", "lng": "129.05386635"}, {"statNm": "\ubb38\ud604\uc774\uc548\uc544\ud30c\ud2b8", "addr": "\ubd80\uc0b0\uad11\uc5ed\uc2dc \ub0a8\uad6c \uc804\ud3ec\ub300\ub85c 16", "lat": "35.138367397", "lng": "129.06801577"}, {"statNm": "\uc9c4\ud765\ub9c8\uc81c\uc2a4\ud0c0\uc6cc\ubc94\uc77c", "addr": "\ubd80\uc0b0\uad11\uc5ed\uc2dc \ub3d9\uad6c \uc790\uc131\ub85c133\ubc88\uae38 6", "lat": "35.137746707", "lng": "129.06491850"}, {"statNm": "\ub86f\ub370\uce90\uc2ac\uc544\uc778\uc2a4", "addr": "\ubd80\uc0b0\uad11\uc5ed\uc2dc \ub0a8\uad6c \uc6a9\ud638\ub85c231\ubc88\uae38 62", "lat": "35.111873645", "lng": "129.11448659"}, {"statNm": "\ud558\ubaa8\ub2c8\ud0c0\uc6cc\ub9c8\ube0c\ub7ec\uc2a4", "addr": "\ubd80\uc0b0\uad11\uc5ed\uc2dc \ud574\uc6b4\ub300\uad6c \ud574\uc6b4\ub300\ub85c 723", "lat": "35.166998919", "lng": "129.16917307"}, {"statNm": "\ub2e4\ub300\ud604\ub300\uc544\ud30c\ud2b8", "addr": "\ubd80\uc0b0\uad11\uc5ed\uc2dc \uc0ac\ud558\uad6c \ub2e4\ub300\ub85c 473", "lat": "35.061792149", "lng": "128.97709179"}, {"statNm": "\ud574\uc6b4\ub300\uc0bc\ud658\uc544\ud30c\ud2b8(\ubd80\uc0b0)", "addr": "\ubd80\uc0b0\uad11\uc5ed\uc2dc \ud574\uc6b4\ub300\uad6c \uc88c\ub3d9\uc21c\ud658\ub85c299\ubc88\uae38 22", "lat": "35.169154864", "lng": "129.18549699"}, {"statNm": "\uc5c4\uad81\ud55c\uc2e02\ucc28\uc544\ud30c\ud2b8\uc785\uc8fc\uc790\ub300\ud45c", "addr": "\ubd80\uc0b0\uad11\uc5ed\uc2dc \uc0ac\uc0c1\uad6c \uc5c4\uad81\ub85c 40", "lat": "35.124173", "lng": "128.9703758"}, {"statNm": "e\ud3b8\ud55c\uc138\uc0c1\ud654\uba85\ud790\uc2a4", "addr": "\ubd80\uc0b0\uad11\uc5ed\uc2dc \ubd81\uad6c \ud654\uba85\ub300\ub85c 68", "lat": "35.234242715", "lng": "129.01553084"}, {"statNm": "\ud574\uc6b4\ub300\ub300\ub9bc\uc544\ud06c\ub85c\ud154", "addr": "\ubd80\uc0b0\uad11\uc5ed\uc2dc \ud574\uc6b4\ub300\uad6c \ud574\uc6b4\ub300\ub85c 790", "lat": "35.168426703", "lng": "129.17531436"}, {"statNm": "\ub2f9\ub9ac\ub3d92\ucc28\ub3d9\uc6d0\ubca0\ub124\uc2a4\ud2b8", "addr": "\ubd80\uc0b0\uad11\uc5ed\uc2dc \uc0ac\ud558\uad6c \uc81c\uc11d\ub85c 171", "lat": "35.1110534", "lng": "128.9840343"}, {"statNm": "\ud654\uc2e0\uac70\ud654\uc544\ud30c\ud2b8", "addr": "\ubd80\uc0b0\uad11\uc5ed\uc2dc \ubd80\uc0b0\uc9c4\uad6c \uc9c4\ub0a8\ub85c 388", "lat": "35.159436749", "lng": "129.07125459"}, {"statNm": "\uc7a5\ub9bc\uc5ed\ubca0\uc2a4\ud2f0\uc6c02\ucc28", "addr": "\ubd80\uc0b0\uad11\uc5ed\uc2dc \uc0ac\ud558\uad6c \uc7a5\ub9bc\ubc88\uc601\ub85c 76", "lat": "35.080549660", "lng": "128.97377750"}, {"statNm": "\uc6b0\uc554\uc77c\uc2e0\ubcf4\ub77c", "addr": "\ubd80\uc0b0\uad11\uc5ed\uc2dc \ub0a8\uad6c \uc720\uc5d4\ub85c 15", "lat": "35.125826289", "lng": "129.07933675"}, {"statNm": "\ud568\uc9c0\uadf8\ub9b0\uc544\ud30c\ud2b8", "addr": "\ubd80\uc0b0\uad11\uc5ed\uc2dc \uc601\ub3c4\uad6c \ud568\uc9c0\ub85c 8", "lat": "35.070956271", "lng": "129.05940358"}, {"statNm": "\uc544\uc2dc\uc544\uc120\uc218\ucd0c\uc544\ud30c\ud2b8", "addr": "\ubd80\uc0b0\uad11\uc5ed\uc2dc \ud574\uc6b4\ub300\uad6c \uc120\uc218\ucd0c\ub85c 122", "lat": "35.203851429", "lng": "129.12210379"}, {"statNm": "\uae08\uc131\ud0c0\uc6b4\uc544\ud30c\ud2b8", "addr": "\ubd80\uc0b0\uad11\uc5ed\uc2dc \uae08\uc815\uad6c \uae08\uc0ac\ub85c 156", "lat": "35.225104996", "lng": "129.11627540"}, {"statNm": "\uac10\ub9cc\ud604\ub3001\ucc28\uc544\ud30c\ud2b8", "addr": "\ubd80\uc0b0\uad11\uc5ed\uc2dc \ub0a8\uad6c \uc6b0\uc554\ub85c2\ubc88\uae38 5", "lat": "35.111222816", "lng": "129.08350464"}, {"statNm": "\ud611\uc131\ud734\ud3ec\ub808\uc2dc\ud2f0\uc98c\ud30c\ud06c", "addr": "\ubd80\uc0b0\uad11\uc5ed\uc2dc \ubd80\uc0b0\uc9c4\uad6c \ub3d9\ud3c9\ub85c 173", "lat": "35.166273876", "lng": "129.04783683"}, {"statNm": "(\uc8fc)\uc640\uc774\uc5d0\uc774\uce58\ubaa8\ud130\uc2a4\uc5d4\uc624\ud1a0\ud30c\uce20(enh)", "addr": "\ubd80\uc0b0\uad11\uc5ed\uc2dc \ub0a8\uad6c \uc2e0\uc120\ub85c 199-7", "lat": "35.1111631", "lng": "129.0857048"}, {"statNm": "(\uc8fc)\ud638\uc131\uc815\ube44(enh)", "addr": "\ubd80\uc0b0\uad11\uc5ed\uc2dc \ub0a8\uad6c \uc2e0\uc120\ub85c 189", "lat": "35.1115439", "lng": "129.0848552"}, {"statNm": "\ub3d9\ub0a8\ubaa8\ud130\uc2a4(enh)", "addr": "\ubd80\uc0b0\uad11\uc5ed\uc2dc \ub0a8\uad6c \uc2e0\uc120\ub85c 215-1", "lat": "35.111624", "lng": "129.0878302"}, {"statNm": "EV\ucda9\uc804\uc18c SK\uae08\uc0ac\uc8fc\uc720\uc18c (ev Most)", "addr": "\ubd80\uc0b0\uad11\uc5ed\uc2dc \uae08\uc815\uad6c \ubc18\uc1a1\ub85c 420", "lat": "35.214185", "lng": "129.110227"}, {"statNm": "\uc774\uc5d4_\ubd80\uc0b0\ubcf8\uc0ac", "addr": "\ubd80\uc0b0\uad11\uc5ed\uc2dc \uac15\uc11c\uad6c \ud3c9\uac15\ub85c193\ubc88\uae38 21-8", "lat": "35.20385", "lng": "128.9399"}, {"statNm": "\uc601\ub3c4 \ub0a8\ud56d\ucd08\ub4f1\ud559\uad50", "addr": "\ubd80\uc0b0\uad11\uc5ed\uc2dc \uc601\ub3c4\uad6c \ub0a8\ud56d\uc0c8\uc2f9\uae38 55", "lat": "35.0836684", "lng": "129.0431183"}, {"statNm": "\ubd80\uc0b0 \u321c\uc2e0\uae30\ub9bc", "addr": "\ubd80\uc0b0\uad11\uc5ed\uc2dc \uae08\uc815\uad6c \uacf5\ub2e8\uc11c\ub85c18\ubc88\uae38 76", "lat": "35.2168774", "lng": "129.1144889"}, {"statNm": "\ubd80\uc0b0 \uac10\ucc9c\uc815\ube44\uacf5\uc5c5\uc0ac", "addr": "\ubd80\uc0b0\uad11\uc5ed\uc2dc \uc0ac\ud558\uad6c \uac10\ucc9c\ub85c42\ubc88\uae38 17", "lat": "35.0898758", "lng": "128.99665"}, {"statNm": "\ubd80\uc0b0 \uae08\uc815\ub85c\uc820\ud0dd\ubc30", "addr": "\ubd80\uc0b0\uad11\uc5ed\uc2dc \uae30\uc7a5\uad70 \uc815\uad00\uc74d \uc815\uad00\uc0c1\uace12\uae38 59-30", "lat": "35.3216936", "lng": "129.167296"}, {"statNm": "\ubd80\uc0b0 \ub450\uc0b0\uc790\ub3d9\ucc28\uc885\ud569\uc815\ube44", "addr": "\ubd80\uc0b0\uad11\uc5ed\uc2dc \uac15\uc11c\uad6c \ub179\uc0b0\uc0b0\uc5c5\ubd81\ub85c 189", "lat": "35.0981682", "lng": "128.8454629"}, {"statNm": "\ubd80\uc0b0 (\uc8fc)\uc138\uc6c5\uc815\ube44(\ubcf8\uc810)", "addr": "\ubd80\uc0b0\uad11\uc5ed\uc2dc \uac15\uc11c\uad6c \ub179\uc0b0\uc0b0\uc5c5\ubd81\ub85c193\ubc88\uae38 35", "lat": "35.0988797", "lng": "128.8436471"}, {"statNm": "\ubd80\uc0b0 (\uc8fc)\uc138\uc6c5\uc815\ube44(\uc9c0\uc810)", "addr": "\ubd80\uc0b0\uad11\uc5ed\uc2dc \uac15\uc11c\uad6c \ub179\uc0b0\uc0b0\uc5c5\ubd81\ub85c 171", "lat": "35.0984543", "lng": "128.8440076"}, {"statNm": "\ubd80\uc0b0 \uc6b0\ub3d9\uc2e0\ub3d9\uc544\uc544\ud30c\ud2b8", "addr": "\ubd80\uc0b0\uad11\uc5ed\uc2dc \ud574\uc6b4\ub300\uad6c \uc6b0\ub3d91\ub85c 9-28", "lat": "35.1629703", "lng": "129.1550188"}, {"statNm": "\ubd80\uc0b0 \u321c\ub355\uc0b01\uae09\uc815\ube44", "addr": "\ubd80\uc0b0\uad11\uc5ed\uc2dc \uc0ac\ud558\uad6c \ud558\uc2e0\uc911\uc559\ub85c 59", "lat": "35.0843199", "lng": "128.964674"}, {"statNm": "\ubd80\uc0b0 \uc774\uc9c4\uc2a4\uce74\uc774\ube4c", "addr": "\ubd80\uc0b0\uad11\uc5ed\uc2dc \uae30\uc7a5\uad70 \uae30\uc7a5\uc74d \ucc28\uc131\uc11c\ub85c 158-12", "lat": "35.247233", "lng": "129.2120802"}, {"statNm": "\ubd80\uc0b0 \ubd80\uc0b0\uba85\uc9c0\ub354\uc5d0\ub4c0\ud330\ub9ac\uc2a4\ubd80\uc601", "addr": "\ubd80\uc0b0\uad11\uc5ed\uc2dc \uac15\uc11c\uad6c \uba85\uc9c0\uad6d\uc81c7\ub85c 110", "lat": "35.0959287", "lng": "128.9130874"}, {"statNm": "\ubd80\uc0b0 \ucf00\uc774\uc5d0\uc2a4\uc790\ub3d9\ucc28\uc815\ube44", "addr": "\ubd80\uc0b0\uad11\uc5ed\uc2dc \uc0ac\ud558\uad6c \uc744\uc219\ub3c4\ub300\ub85c677\ubc88\uae38 12", "lat": "35.086275", "lng": "128.9797058"}, {"statNm": "\ubd80\uc0b0 \uae08\uc591\ud504\ub77c\uc790", "addr": "\ubd80\uc0b0\uad11\uc5ed\uc2dc \uae30\uc7a5\uad70 \uc815\uad00\uc74d \uc815\uad00\ub85c 395", "lat": "35.3341514", "lng": "129.1659977"}, {"statNm": "\ubd80\uc0b0 \ubb38\ud604\uc138\uc885\uadf8\ub791\uc2dc\uc544", "addr": "\ubd80\uc0b0\uad11\uc5ed\uc2dc \ub0a8\uad6c \uc218\uc601\ub85c 12", "lat": "35.1361956", "lng": "129.0691278"}, {"statNm": "\ubd80\uc0b0\uae30\uacc4\uacf5\uad6c\ud310\ub9e4\uc5c5\ud611\ub3d9\uc870\ud569(\ud2f0\ud50c\ub809\uc2a41\ub2e8\uc9c0)", "addr": "\ubd80\uc0b0\uad11\uc5ed\uc2dc \uac15\uc11c\uad6c \uc720\ud1b5\ub2e8\uc9c01\ub85c 41", "lat": "35.1673385", "lng": "128.9558196"}, {"statNm": "\ubd80\uc0b0\uae30\uacc4\uacf5\uad6c\ud310\ub9e4\uc5c5\ud611\ub3d9\uc870\ud569(\ud2f0\ud50c\ub809\uc2a42\ub2e8\uc9c0)", "addr": "\ubd80\uc0b0\uad11\uc5ed\uc2dc \uac15\uc11c\uad6c \uc720\ud1b5\ub2e8\uc9c01\ub85c 50", "lat": "35.1703265", "lng": "128.9541818"}, {"statNm": "\ubd80\uc0b0 \ubb38\ud604\uc0bc\uc131\ud790\ud0c0\uc6cc", "addr": "\ubd80\uc0b0\uad11\uc5ed\uc2dc \ub0a8\uad6c \uc804\ud3ec\ub300\ub85c 26", "lat": "35.1393056", "lng": "129.0679906"}, {"statNm": "\ubd80\uc0b0 \ub300\uc591\ud2b9\uc7a5\uc815\ube44", "addr": "\ubd80\uc0b0\uad11\uc5ed\uc2dc \uc0ac\uc0c1\uad6c \ub099\ub3d9\ub300\ub85c 836", "lat": "35.1353501", "lng": "128.9719802"}, {"statNm": "\ubd80\uc0b0 \uc0bc\ud654\uc0c1\uc0ac", "addr": "\ubd80\uc0b0\uad11\uc5ed\uc2dc \uae08\uc815\uad6c \ubc18\uc1a1\ub85c 461", "lat": "35.2156442", "lng": "129.1141853"}, {"statNm": "\ubd80\uc0b0 \uc2e0\uc77c\uc815\ube44", "addr": "\ubd80\uc0b0\uad11\uc5ed\uc2dc \ub3d9\ub798\uad6c \ubc18\uc1a1\ub85c 222", "lat": "35.2004604", "lng": "129.0983754"}, {"statNm": "\ud22c\uc378\ud50c\ub808\uc774\uc2a4 \ubd80\uc0b0\uac00\ub355\ub3c4\uc810", "addr": "\ubd80\uc0b0\uad11\uc5ed\uc2dc \uac15\uc11c\uad6c \uac00\ub355\ud574\uc548\ub85c 590", "lat": "35.0431979", "lng": "128.8096044"}, {"statNm": "\ubd80\uc0b0\uc2dc\uc790\ub3d9\ucc28\uac80\uc0ac\uc815\ube44\uc0ac\uc5c5\uc870\ud569", "addr": "\ubd80\uc0b0\uad11\uc5ed\uc2dc \ubd80\uc0b0\uc9c4\uad6c \uc911\uc559\ub300\ub85c 891", "lat": "35.1702021", "lng": "129.0686695"}, {"statNm": "\ubd80\uc0b0 \uc815\uad00\ubc27\ub370\ub9ac", "addr": "\ubd80\uc0b0\uad11\uc5ed\uc2dc \uae30\uc7a5\uad70 \uc815\uad00\uc74d \uc6a9\uc218\ub85c 93", "lat": "35.3296695", "lng": "129.172418"}, {"statNm": "\ubd80\uc0b0 \ube0c\ub77c\uc6b4\ub3c4\ud2b8\ud638\ud154 \uc1a1\uc815\uc810", "addr": "\ubd80\uc0b0\uad11\uc5ed\uc2dc \ud574\uc6b4\ub300\uad6c \uc1a1\uc815\uad11\uc5b4\uace8\ub85c 30", "lat": "35.1787585", "lng": "129.1973113"}, {"statNm": "\ubd80\uc0b0 \ubd80\uacbd\ubaa8\ud130\uc2a4 \ubc27\ub370\ub9ac\ud560\uc778\ub9c8\ud2b8", "addr": "\ubd80\uc0b0\uad11\uc5ed\uc2dc \uae30\uc7a5\uad70 \uc815\uad00\uc74d \uc815\uad004\ub85c 71", "lat": "35.3277545", "lng": "129.1737446"}, {"statNm": "\ubd80\uc0b0 (\uc8fc)\ubbf8\uc74c\ubcf4\uc26c\uc815\ube44", "addr": "\ubd80\uc0b0\uad11\uc5ed\uc2dc \uac15\uc11c\uad6c \uacfc\ud559\uc0b0\ub2e8\ub85c 118", "lat": "35.1394621", "lng": "128.8514304"}, {"statNm": "\ubd80\uc0b0 \uc870\uc740\uc885\ud569\uc815\ube44", "addr": "\ubd80\uc0b0\uad11\uc5ed\uc2dc \uac15\uc11c\uad6c \ud654\uc804\uc0b0\ub2e85\ub85c74\ubc88\uae38 6", "lat": "35.1047314", "lng": "128.8787415"}, {"statNm": "\ubd80\uc0b0 \uc81c\uc77c\ud504\ub77c\uc790", "addr": "\ubd80\uc0b0\uad11\uc5ed\uc2dc \uae30\uc7a5\uad70 \uc815\uad00\uc74d \uc815\uad00\ub85c 489", "lat": "35.3263585", "lng": "129.1703614"}, {"statNm": "\ubd80\uc0b0 \u321c\ub300\ud55c\uc815\ube44\uacf5\uc5c5\uc0ac", "addr": "\ubd80\uc0b0\uad11\uc5ed\uc2dc \uae08\uc815\uad6c \uacf5\ub2e8\uc11c\ub85c 5", "lat": "35.2151904", "lng": "129.1109935"}, {"statNm": "\ubd80\uc0b0 \ucd08\uc6d0\uc232\uc18d\uac00\ub4e0", "addr": "\ubd80\uc0b0\uad11\uc5ed\uc2dc \uae30\uc7a5\uad70 \uc815\uad00\uc74d \ubcd1\uc0b01\uae38 18", "lat": "35.3449383", "lng": "129.1880364"}, {"statNm": "\ubd80\uc0b0 \uc13c\ud140\ud504\ub9ac\ubbf8\uc5b4\ud638\ud154", "addr": "\ubd80\uc0b0\uad11\uc5ed\uc2dc \ud574\uc6b4\ub300\uad6c \uc13c\ud1401\ub85c 17", "lat": "35.1669245", "lng": "129.1315849"}, {"statNm": "\ubd80\uc0b0 \uc11d\ud0d1\uc0ac", "addr": "\ubd80\uc0b0\uad11\uc5ed\uc2dc \uae30\uc7a5\uad70 \uc815\uad00\uc74d \uc6a9\uc218\uacf5\ub2e82\uae38 70-14", "lat": "35.322857", "lng": "129.1610753"}, {"statNm": "\ub3d9\uc11c\ub300\ud559\uad50 \uae09\uc18d\ucda9\uc804\uc18c", "addr": "\ubd80\uc0b0\uad11\uc5ed\uc2dc \uc0ac\uc0c1\uad6c \uc8fc\ub840\ub85c 47", "lat": "35.1461199", "lng": "129.0070171"}, {"statNm": "\uacbd\ub0a8\uc815\ubcf4\ub300 \uc13c\ud140\uc0b0\ud559\ucea0\ud37c\uc2a4 \uae09\uc18d\ucda9\uc804\uc18c", "addr": "\ubd80\uc0b0\uad11\uc5ed\uc2dc \ud574\uc6b4\ub300\uad6c \uc13c\ud140\uc911\uc559\ub85c 55", "lat": "35.1730462", "lng": "129.127655"}, {"statNm": "\uacbd\ub0a8\uc815\ubcf4\ub300 \ubbf8\ub798\uad00 \uae09\uc18d\ucda9\uc804\uc18c", "addr": "\ubd80\uc0b0\uad11\uc5ed\uc2dc \uc0ac\uc0c1\uad6c \uc8fc\ub840\ub85c 45", "lat": "35.1464509", "lng": "129.0090706"}, {"statNm": "\ubd80\uc0b0 \uae08\uc815\ubd80\ud488\uc13c\ud0c0", "addr": "\ubd80\uc0b0\uad11\uc5ed\uc2dc \uae08\uc815\uad6c \uae08\uc815\ub85c 107-2", "lat": "35.2343451", "lng": "129.0870691"}, {"statNm": "\uae08\uc815\uc0b0LH\ub274\uc6f0\uc2dc\ud2f01(107\ub3d9)", "addr": "\ubd80\uc0b0\uad11\uc5ed\uc2dc \ubd81\uad6c \uc0c1\ud559\ub85c 35", "lat": "35.2154942", "lng": "129.0342617"}, {"statNm": "\ud0dc\uc9c4\ud330\ub9ac\uc2a42\ucc28", "addr": "\ubd80\uc0b0\uad11\uc5ed\uc2dc \uae08\uc815\uad6c \uc628\ucc9c\uc7a5\ub85c125\ubc88\uae38 28-1", "lat": "35.223247940", "lng": "129.08404672"}, {"statNm": "\ud55c\uad6d\uc218\ub825\uc6d0\uc790\ub825", "addr": "\ubd80\uc0b0\uad11\uc5ed\uc2dc \uae30\uc7a5\uad70 \uc7a5\uc548\uc74d \uae38\ucc9c\uae38 96-1", "lat": "35.320808269", "lng": "129.29032700"}, {"statNm": "\uc5f0\uc0b0\uc790\uc774\uc544\ud30c\ud2b8 1(111\ub3d9)", "addr": "\ubd80\uc0b0\uad11\uc5ed\uc2dc \uc5f0\uc81c\uad6c \uacfc\uc815\ub85c343\ubc88\uae38 43", "lat": "35.188359115", "lng": "129.08883281"}, {"statNm": "\uba85\ub95c2\ucc28\uc544\uc774\ud30c\ud06c 1\ub2e8\uc9c01(108\ub3d9)", "addr": "\ubd80\uc0b0\uad11\uc5ed\uc2dc \ub3d9\ub798\uad6c \uc2dc\uc2e4\ub85c 49", "lat": "35.215715724", "lng": "129.08948977"}, {"statNm": "\uba85\ub95c2\ucc28\uc544\uc774\ud30c\ud06c 2\ub2e8\uc9c0", "addr": "\ubd80\uc0b0\uad11\uc5ed\uc2dc \ub3d9\ub798\uad6c \uc2dc\uc2e4\ub85c 73-6", "lat": "35.213822350", "lng": "129.09215341"}, {"statNm": "\uba85\uc9c0 \ub354\uc0fe \ud37c\uc2a4\ud2b8\uc6d4\ub4dc3\ub2e8\uc9c01(301\ub3d9)", "addr": "\ubd80\uc0b0\uad11\uc5ed\uc2dc \uac15\uc11c\uad6c \uba85\uc9c0\uad6d\uc81c2\ub85c 41", "lat": "35.094791077", "lng": "128.90665213"}, {"statNm": "\uc11c\uba742\ucc28 \ubd04\uc5ec\ub984\uac00\uc744\uaca8\uc6b8", "addr": "\ubd80\uc0b0\uad11\uc5ed\uc2dc \ubd80\uc0b0\uc9c4\uad6c \uc2e0\ucc9c\ub300\ub85c197\ubc88\uae38 15", "lat": "35.159084081", "lng": "129.04960090"}, {"statNm": "\uc544\ub77c\ud2b8\ub9ac\uc6c0 \ucda9\uc804\uc18c", "addr": "\ubd80\uc0b0\uad11\uc5ed\uc2dc \ud574\uc6b4\ub300\uad6c \ub9c8\ub9b0\uc2dc\ud2f01\ub85c 127", "lat": "35.154783947", "lng": "129.1467013"}, {"statNm": "\uc5f0\uc0b0\ub3d9\uc77c\ub3d9\ubbf8\ub77c\uc8fc1 \ucda9\uc804\uc18c", "addr": "\ubd80\uc0b0\uad11\uc5ed\uc2dc \uc5f0\uc81c\uad6c \ubc18\uc1a1\ub85c 80", "lat": "35.190616474", "lng": "129.08791505"}, {"statNm": "\ubd80\uc0b0 \uad6d\ub9bd\uad6d\uc545\uc6d0 \ucda9\uc804\uc18c", "addr": "\ubd80\uc0b0\uad11\uc5ed\uc2dc \ubd80\uc0b0\uc9c4\uad6c \uad6d\uc545\ub85c 2", "lat": "35.171459782", "lng": "129.0541301"}, {"statNm": "\uae30\uc7a5 \uc815\uad00\ud480\ub9ac\ud398\uc544\ud30c\ud2b8", "addr": "\ubd80\uc0b0\uad11\uc5ed\uc2dc \uae30\uc7a5\uad70 \uc815\uad00\uc74d \uc815\uad005\ub85c 144", "lat": "35.33029279043", "lng": "129.1809544861"}, {"statNm": "\ubd09\ub7982\ub3d9\ud589\uc815\ubcf5\uc9c0\uc13c\ud130", "addr": "\ubd80\uc0b0\uad11\uc5ed\uc2dc \uc601\ub3c4\uad6c \ud0dc\uc885\ub85c165\ubc88\uae38 1-8", "lat": "35.0942326", "lng": "129.0461757"}, {"statNm": "\uc2e0\uc120\ub3d9\uc8fc\ubbfc\uc13c\ud130", "addr": "\ubd80\uc0b0\uad11\uc5ed\uc2dc \uc601\ub3c4\uad6c \ud558\ub098\uae38 317", "lat": "35.0833346", "lng": "129.0451667"}, {"statNm": "\uccad\ud5592\ub3d9\uc8fc\ubbfc\uc13c\ud130", "addr": "\ubd80\uc0b0\uad11\uc5ed\uc2dc \uc601\ub3c4\uad6c \ud0dc\uc885\ub85c 394", "lat": "35.091936", "lng": "129.065753"}, {"statNm": "\ud559\uc7a5\ub3d9\ud589\uc815\ubcf5\uc9c0\uc13c\ud130", "addr": "\ubd80\uc0b0\uad11\uc5ed\uc2dc \uc0ac\uc0c1\uad6c \ud559\uac10\ub300\ub85c147\ubc88\uae38 11", "lat": "35.1440994", "lng": "128.9873096"}, {"statNm": "\uc8fc\ub8403\ub3d9\uc8fc\ubbfc\uc13c\ud130", "addr": "\ubd80\uc0b0\uad11\uc5ed\uc2dc \uc0ac\uc0c1\uad6c \ub0c9\uc815\ub85c 10", "lat": "35.1473492", "lng": "129.0014194"}, {"statNm": "\uc8fc\ub8401\ub3d9\uc8fc\ubbfc\uc13c\ud130", "addr": "\ubd80\uc0b0\uad11\uc5ed\uc2dc \uc0ac\uc0c1\uad6c \uc0ac\uc0c1\ub85c137\ubc88\uae38 22", "lat": "35.1517001", "lng": "128.997927"}, {"statNm": "\uc5c4\uad81\ub3d9\uc8fc\ubbfc\uc13c\ud130", "addr": "\ubd80\uc0b0\uad11\uc5ed\uc2dc \uc0ac\uc0c1\uad6c \uc5c4\uad81\ubd81\ub85c 15", "lat": "35.128691", "lng": "128.9722011"}, {"statNm": "\uc0bc\ub77d\ub3d9\uc8fc\ubbfc\uc13c\ud130", "addr": "\ubd80\uc0b0\uad11\uc5ed\uc2dc \uc0ac\uc0c1\uad6c \ub099\ub3d9\ub300\ub85c1310\ubc88\uae38 19", "lat": "35.17701", "lng": "128.9776397"}, {"statNm": "\ubaa8\ub77c3\ub3d9\ud589\uc815\ubcf5\uc9c0\uc13c\ud130", "addr": "\ubd80\uc0b0\uad11\uc5ed\uc2dc \uc0ac\uc0c1\uad6c \ubaa8\ub77c\ub85c110\ubc88\uae38 99", "lat": "35.1846561", "lng": "128.9960597"}, {"statNm": "\ub355\ud3ec2\ub3d9\uc8fc\ubbfc\uc13c\ud130", "addr": "\ubd80\uc0b0\uad11\uc5ed\uc2dc \uc0ac\uc0c1\uad6c \uc0ac\uc0c1\ub85c333\ubc88\uae38 17", "lat": "35.1744536", "lng": "128.9829689"}, {"statNm": "\uad18\ubc95\ub3d9\uc8fc\ubbfc\uc13c\ud130", "addr": "\ubd80\uc0b0\uad11\uc5ed\uc2dc \uc0ac\uc0c1\uad6c \uad11\uc7a5\ub85c97\ubc88\uae38 6", "lat": "35.1637577", "lng": "128.9871953"}, {"statNm": "\ubd80\uace11\ub3d9\uc8fc\ubbfc\uc13c\ud130", "addr": "\ubd80\uc0b0\uad11\uc5ed\uc2dc \uae08\uc815\uad6c \ub3d9\ubd80\uace1\ub85c6\ubc88\uae38 29", "lat": "35.2244038", "lng": "129.0921461"}, {"statNm": "\uad6c\uc11c1\ub3d9\uc8fc\ubbfc\uc13c\ud130", "addr": "\ubd80\uc0b0\uad11\uc5ed\uc2dc \uae08\uc815\uad6c \uc218\ub9bc\ub85c72\ubc88\uae38 123", "lat": "35.2451045", "lng": "129.0869527"}, {"statNm": "\ub0a8\uc0b0\ub3d9\ud589\uc815\ubcf5\uc9c0\uc13c\ud130", "addr": "\ubd80\uc0b0\uad11\uc5ed\uc2dc \uae08\uc815\uad6c \uc911\uc559\ub300\ub85c2097\ubc88\uae38 4", "lat": "35.2716581", "lng": "129.0922445"}, {"statNm": "\uc7a5\uc8042\ub3d9 \uc8fc\ubbfc\uc13c\ud130", "addr": "\ubd80\uc0b0\uad11\uc5ed\uc2dc \uae08\uc815\uad6c \uc18c\uc815\ub85c 19", "lat": "35.2278009", "lng": "129.0809742"}, {"statNm": "\ubd80\uc0b0\uc601\ub3c4 \uc601\ub3c4\uc5b4\ub9b0\uc774\ub3c4\uc11c\uad00", "addr": "\ubd80\uc0b0\uad11\uc5ed\uc2dc \uc601\ub3c4\uad6c \ub0a8\ud56d\ub85c9\ubc88\uae38 1 (\ub0a8\ud56d\ub3d91\uac00)", "lat": "35.0899716", "lng": "129.0376314"}, {"statNm": "\ub3d9\uc0bc1\ub3d9\ud589\uc815\ubcf5\uc9c0\uc13c\ud130", "addr": "\ubd80\uc0b0\uad11\uc5ed\uc2dc \uc601\ub3c4\uad6c \uc911\ub9ac\ub85c 44-1", "lat": "35.0748982", "lng": "129.0684102"}, {"statNm": "\ub3d9\uc0bc3\ub3d9\ud589\uc815\ubcf5\uc9c0\uc13c\ud130", "addr": "\ubd80\uc0b0\uad11\uc5ed\uc2dc \uc601\ub3c4\uad6c \uc0c1\ub9ac\ub85c 39", "lat": "35.0846555", "lng": "129.0686522"}, {"statNm": "\uac10\uc804\ub3d9\uc8fc\ubbfc\uc13c\ud130", "addr": "\ubd80\uc0b0\uad11\uc5ed\uc2dc \uc0ac\uc0c1\uad6c \uc0c8\ubcbd\uc2dc\uc7a5\ub85c56\ubc88\uae38 20", "lat": "35.154203", "lng": "128.9794093"}, {"statNm": "\uac10\ucc9c1\ub3d9\ud589\uc815\ubcf5\uc9c0\uc13c\ud130", "addr": "\ubd80\uc0b0\uad11\uc5ed\uc2dc \uc0ac\ud558\uad6c \uac10\ucc9c\ub85c117\ubc88\uae38 2", "lat": "35.0879657", "lng": "129.0046551"}, {"statNm": "\ub2e4\ub3002\ub3d9\ud589\uc815\ubcf5\uc9c0\uc13c\ud130", "addr": "\ubd80\uc0b0\uad11\uc5ed\uc2dc \uc0ac\ud558\uad6c \ub2e4\ub300\ub85c429\ubc88\uae38 30", "lat": "35.0634772", "lng": "128.9821657"}, {"statNm": "\ub2f9\ub9ac\ub3d9\ud589\uc815\ubcf5\uc9c0\uc13c\ud130", "addr": "\ubd80\uc0b0\uad11\uc5ed\uc2dc \uc0ac\ud558\uad6c \ub099\ub3d9\ub300\ub85c 380", "lat": "35.1029415", "lng": "128.9766774"}, {"statNm": "\uc2e0\ud3c91\ub3d9\ud589\uc815\ubcf5\uc9c0\uc13c\ud130", "addr": "\ubd80\uc0b0\uad11\uc5ed\uc2dc \uc0ac\ud558\uad6c \uc2e0\uc0b0\ub85c 173", "lat": "35.090019", "lng": "128.9744358"}, {"statNm": "\uc5f0\uc0b02\ub3d9\uc8fc\ubbfc\uc13c\ud130", "addr": "\ubd80\uc0b0\uad11\uc5ed\uc2dc \uc5f0\uc81c\uad6c \uc911\uc559\ub300\ub85c1038\ubc88\uae38 39", "lat": "35.1799983", "lng": "129.0791926"}, {"statNm": "\uc5f0\uc0b03\ub3d9\uc8fc\ubbfc\uc13c\ud130", "addr": "\ubd80\uc0b0\uad11\uc5ed\uc2dc \uc5f0\uc81c\uad6c \uc5f0\uc218\ub85c218\ubc88\uae38 4", "lat": "35.1733375", "lng": "129.0942256"}, {"statNm": "\uc5f0\uc0b04\ub3d9\uc8fc\ubbfc\uc13c\ud130", "addr": "\ubd80\uc0b0\uad11\uc5ed\uc2dc \uc5f0\uc81c\uad6c \uc30d\ubbf8\ucc9c\ub85c151\ubc88\uae38 42", "lat": "35.1862835", "lng": "129.084929"}, {"statNm": "\uc5f0\uc0b08\ub3d9\uc8fc\ubbfc\uc13c\ud130", "addr": "\ubd80\uc0b0\uad11\uc5ed\uc2dc \uc5f0\uc81c\uad6c \uacfc\uc815\ub85c251\ubc88\uae38 33", "lat": "35.1870867", "lng": "129.1010197"}, {"statNm": "\ub0a8\ubd80\ubbfc2\ub3d9\ud589\uc815\ubcf5\uc9c0\uc13c\ud130", "addr": "\ubd80\uc0b0\uad11\uc5ed\uc2dc \uc11c\uad6c \ucc9c\ub9c8\ub85c 87", "lat": "35.0845081", "lng": "129.0205462"}, {"statNm": "\uac10\ucc9c2\ub3d9\ud589\uc815\ubcf5\uc9c0\uc13c\ud130", "addr": "\ubd80\uc0b0\uad11\uc5ed\uc2dc \uc0ac\ud558\uad6c \uc625\ucc9c\ub85c93\ubc88\uae38 14", "lat": "35.0945896", "lng": "129.009326"}, {"statNm": "\ub0a8\ubd80\ubbfc1\ub3d9\ud589\uc815\ubcf5\uc9c0\uc13c\ud130", "addr": "\ubd80\uc0b0\uad11\uc5ed\uc2dc \uc11c\uad6c \ucda9\ubb34\ub300\ub85c255\ubc88\uae38 5-26", "lat": "35.0927492", "lng": "129.0233109"}, {"statNm": "\uad34\uc8152\ub3d9\ud589\uc815\ubcf5\uc9c0\uc13c\ud130", "addr": "\ubd80\uc0b0\uad11\uc5ed\uc2dc \uc0ac\ud558\uad6c \uae4c\uce58\uace0\uac1c\ub85c 14-1", "lat": "35.10339", "lng": "129.0040196"}, {"statNm": "\uad34\uc8153\ub3d9\uc8fc\ubbfc\uc13c\ud130", "addr": "\ubd80\uc0b0\uad11\uc5ed\uc2dc \uc0ac\ud558\uad6c \ub099\ub3d9\ub300\ub85c171\ubc88\uae38 30-5", "lat": "35.1003126", "lng": "128.9980668"}, {"statNm": "\uc7a5\ub9bc1\ub3d9\ud589\uc815\ubcf5\uc9c0\uc13c\ud130", "addr": "\ubd80\uc0b0\uad11\uc5ed\uc2dc \uc0ac\ud558\uad6c \uc7a5\ub9bc\ub85c161\ubc88\uae38 2", "lat": "35.0829796", "lng": "128.966855"}, {"statNm": "\uc7a5\ub9bc2\ub3d9\ud589\uc815\ubcf5\uc9c0\uc13c\ud130", "addr": "\ubd80\uc0b0\uad11\uc5ed\uc2dc \uc0ac\ud558\uad6c \uc7a5\ud3c9\ub85c 131", "lat": "35.0778534", "lng": "128.9726385"}, {"statNm": "\ud558\ub2e82\ub3d9\ud589\uc815\ubcf5\uc9c0\uc13c\ud130", "addr": "\ubd80\uc0b0\uad11\uc5ed\uc2dc \uc0ac\ud558\uad6c \ud558\uc2e0\ubc88\uc601\ub85c 377", "lat": "35.1145842", "lng": "128.9605207"}, {"statNm": "\uac70\uc81c1\ub3d9\uc8fc\ubbfc\uc13c\ud130", "addr": "\ubd80\uc0b0\uad11\uc5ed\uc2dc \uc5f0\uc81c\uad6c \ubc95\uc6d0\ubd81\ub85c 88", "lat": "35.1918458", "lng": "129.0756743"}, {"statNm": "\uac70\uc81c2\ub3d9\uc8fc\ubbfc\uc13c\ud130", "addr": "\ubd80\uc0b0\uad11\uc5ed\uc2dc \uc5f0\uc81c\uad6c \uc544\uc2dc\uc544\ub4dc\ub300\ub85c22\ubc88\uae38 19", "lat": "35.1877881", "lng": "129.0703504"}, {"statNm": "\uac70\uc81c3\ub3d9\uc8fc\ubbfc\uc13c\ud130 (\uc5f0\uc81c\uad6c \uce58\ub9e4\uc548\uc2ec\uc13c\ud130)", "addr": "\ubd80\uc0b0\uad11\uc5ed\uc2dc \uc5f0\uc81c\uad6c \uac70\uc81c\uc2dc\uc7a5\ub85c22\ubc88\uae38 70", "lat": "35.1840674", "lng": "129.0731275"}, {"statNm": "\uc5f0\uc0b01\ub3d9\uc8fc\ubbfc\uc13c\ud130", "addr": "\ubd80\uc0b0\uad11\uc5ed\uc2dc \uc5f0\uc81c\uad6c \uc5f0\ub3d9\ub85c8\ubc88\uae38 66", "lat": "35.189977", "lng": "129.090433"}, {"statNm": "\uc5f0\uc0b05\ub3d9\uc8fc\ubbfc\uc13c\ud130", "addr": "\ubd80\uc0b0\uad11\uc5ed\uc2dc \uc5f0\uc81c\uad6c \uac70\uc81c\ucc9c\ub85c124\ubc88\uae38 15", "lat": "35.1845989", "lng": "129.0761925"}, {"statNm": "\uc5f0\uc0b06\ub3d9\uc8fc\ubbfc\uc13c\ud130", "addr": "\ubd80\uc0b0\uad11\uc5ed\uc2dc \uc5f0\uc81c\uad6c \uc30d\ubbf8\ucc9c\ub85c52\ubc88\uae38 2", "lat": "35.1774537", "lng": "129.0896468"}, {"statNm": "\ubc18\uc1a11\ub3d9\uc8fc\ubbfc\uc13c\ud130", "addr": "\ubd80\uc0b0\uad11\uc5ed\uc2dc \ud574\uc6b4\ub300\uad6c \uc544\ub7ab\ubc18\uc1a1\ub85c 16", "lat": "35.2251794", "lng": "129.1478621"}, {"statNm": "\ubc18\uc1a12\ub3d9\uc8fc\ubbfc\uc13c\ud130", "addr": "\ubd80\uc0b0\uad11\uc5ed\uc2dc \ud574\uc6b4\ub300\uad6c \uc2e0\ubc18\uc1a1\ub85c 173", "lat": "35.2287844", "lng": "129.1603892"}, {"statNm": "\ubc18\uc5ec1\ub3d9\uc8fc\ubbfc\uc13c\ud130", "addr": "\ubd80\uc0b0\uad11\uc5ed\uc2dc \ud574\uc6b4\ub300\uad6c \uc120\uc218\ucd0c\ub85c 85", "lat": "35.20116", "lng": "129.1189526"}, {"statNm": "\ubc18\uc5ec2\ub3d9\uc8fc\ubbfc\uc13c\ud130", "addr": "\ubd80\uc0b0\uad11\uc5ed\uc2dc \ud574\uc6b4\ub300\uad6c \uc7ac\ubc18\ub85c211\ubc88\uae38 9", "lat": "35.1959639", "lng": "129.1301513"}, {"statNm": "\ubc18\uc5ec3\ub3d9\uc8fc\ubbfc\uc13c\ud130", "addr": "\ubd80\uc0b0\uad11\uc5ed\uc2dc \ud574\uc6b4\ub300\uad6c \uc7ac\ubc18\ub85c256\ubc88\uae38 29-70", "lat": "35.2009872", "lng": "129.1335102"}, {"statNm": "\ubc18\uc5ec4\ub3d9\uc8fc\ubbfc\uc13c\ud130", "addr": "\ubd80\uc0b0\uad11\uc5ed\uc2dc \ud574\uc6b4\ub300\uad6c \uc0bc\uc5b4\ub85c133\ubc88\uae38 50", "lat": "35.2092041", "lng": "129.1171765"}, {"statNm": "\uc1a1\uc815\ub3d9\uc8fc\ubbfc\uc13c\ud130", "addr": "\ubd80\uc0b0\uad11\uc5ed\uc2dc \ud574\uc6b4\ub300\uad6c \uc1a1\uc815\uc911\uc559\ub85c21\ubc88\uae38 20", "lat": "35.1836606", "lng": "129.2037002"}, {"statNm": "\uc6b01\ub3d9\uc8fc\ubbfc\uc13c\ud130", "addr": "\ubd80\uc0b0\uad11\uc5ed\uc2dc \ud574\uc6b4\ub300\uad6c \ud574\uc6b4\ub300\ub85c 612", "lat": "35.1628875", "lng": "129.1580826"}, {"statNm": "\uc6b02\ub3d9\uc8fc\ubbfc\uc13c\ud130", "addr": "\ubd80\uc0b0\uad11\uc5ed\uc2dc \ud574\uc6b4\ub300\uad6c \ud574\uc6b4\ub300\ub85c383\ubc88\uac00\uae38 7", "lat": "35.1712048", "lng": "129.1399222"}, {"statNm": "\uc7ac\uc1a11\ub3d9\uc8fc\ubbfc\uc13c\ud130", "addr": "\ubd80\uc0b0\uad11\uc5ed\uc2dc \ud574\uc6b4\ub300\uad6c \uc7ac\ubc18\ub85c63\ubc88\uae38 23", "lat": "35.1846174", "lng": "129.1251878"}, {"statNm": "\uc7ac\uc1a12\ub3d9\uc8fc\ubbfc\uc13c\ud130", "addr": "\ubd80\uc0b0\uad11\uc5ed\uc2dc \ud574\uc6b4\ub300\uad6c \uc7ac\ubc18\ub85c125\ubc88\uae38 26", "lat": "35.1896039", "lng": "129.1253133"}, {"statNm": "\uc88c1\ub3d9\uc8fc\ubbfc\uc13c\ud130", "addr": "\ubd80\uc0b0\uad11\uc5ed\uc2dc \ud574\uc6b4\ub300\uad6c \uc591\uc6b4\ub85c 91", "lat": "35.1709067", "lng": "129.1742559"}, {"statNm": "\uc88c3\ub3d9\uc8fc\ubbfc\uc13c\ud130", "addr": "\ubd80\uc0b0\uad11\uc5ed\uc2dc \ud574\uc6b4\ub300\uad6c \uc88c\ub3d9\uc21c\ud658\ub85c 65", "lat": "35.1722617", "lng": "129.1666317"}, {"statNm": "\uc88c4\ub3d9\uc8fc\ubbfc\uc13c\ud130", "addr": "\ubd80\uc0b0\uad11\uc5ed\uc2dc \ud574\uc6b4\ub300\uad6c \uc88c\ub3d9\uc21c\ud658\ub85c 183", "lat": "35.1778997", "lng": "129.176251"}, {"statNm": "\ud574\uc6b4\ub300 \uc9111\ub3d9\uc8fc\ubbfc\uc13c\ud130", "addr": "\ubd80\uc0b0\uad11\uc5ed\uc2dc \ud574\uc6b4\ub300\uad6c \uc911\ub3d91\ub85c37\ubc88\uae38 20", "lat": "35.1625222", "lng": "129.1642093"}, {"statNm": "\uc9112\ub3d9\uc8fc\ubbfc\uc13c\ud130", "addr": "\ubd80\uc0b0\uad11\uc5ed\uc2dc \ud574\uc6b4\ub300\uad6c \uc88c\ub3d9\uc21c\ud658\ub85c433\ubc88\uae38 34", "lat": "35.1624026", "lng": "129.1799244"}, {"statNm": "\uc77c\uad11\uba74\uc0ac\ubb34\uc18c", "addr": "\ubd80\uc0b0\uad11\uc5ed\uc2dc \uae30\uc7a5\uad70 \uc77c\uad11\uba74 \uc77c\uad11\ub85c 77-7", "lat": "35.2638926", "lng": "129.232429"}, {"statNm": "\uac00\uc57c1\ub3d9\uc8fc\ubbfc\uc13c\ud130", "addr": "\ubd80\uc0b0\uad11\uc5ed\uc2dc \ubd80\uc0b0\uc9c4\uad6c \uac00\uc57c\ub300\ub85c572\ubc88\uae38 22", "lat": "35.1532393", "lng": "129.0343012"}, {"statNm": "\ub2f9\uac101\ub3d9\ud589\uc815\ubcf5\uc9c0\uc13c\ud130", "addr": "\ubd80\uc0b0\uad11\uc5ed\uc2dc \ubd80\uc0b0\uc9c4\uad6c \ub3d9\ud3c9\ub85c44\ubc88\uae38 49-6", "lat": "35.1644598", "lng": "129.035643"}, {"statNm": "\uad6c\ud3ec1\ub3d9\uc8fc\ubbfc\uc13c\ud130", "addr": "\ubd80\uc0b0\uad11\uc5ed\uc2dc \ubd81\uad6c \ub099\ub3d9\ub300\ub85c1762\ubc88\uae38 75", "lat": "35.2064309", "lng": "129.0011426"}, {"statNm": "\uad6c\ud3ec3\ub3d9\uc8fc\ubbfc\uc13c\ud130", "addr": "\ubd80\uc0b0\uad11\uc5ed\uc2dc \ubd81\uad6c \uc2dc\ub791\ub85c118\ubc88\uae38 23", "lat": "35.1949284", "lng": "129.0087602"}, {"statNm": "\ub355\ucc9c1\ub3d9\ud589\uc815\ubcf5\uc9c0\uc13c\ud130", "addr": "\ubd80\uc0b0\uad11\uc5ed\uc2dc \ubd81\uad6c \ub9cc\ub355\ub300\ub85c102\ubc88\uac00\uae38 11", "lat": "35.2124307", "lng": "129.0166801"}, {"statNm": "\ub355\ucc9c2\ub3d9\ud589\uc815\ubcf5\uc9c0\uc13c\ud130", "addr": "\ubd80\uc0b0\uad11\uc5ed\uc2dc \ubd81\uad6c \uae08\uace1\ub300\ub85c20\ubc88\uae38 56", "lat": "35.2124135", "lng": "129.0079612"}, {"statNm": "\ub355\ucc9c3\ub3d9\ud589\uc815\ubcf5\uc9c0\uc13c\ud130", "addr": "\ubd80\uc0b0\uad11\uc5ed\uc2dc \ubd81\uad6c \ub355\ucc9c\ub85c 118", "lat": "35.2099409", "lng": "129.0174838"}, {"statNm": "\ub9cc\ub3552\ub3d9\uc8fc\ubbfc\uc13c\ud130", "addr": "\ubd80\uc0b0\uad11\uc5ed\uc2dc \ubd81\uad6c \ub9cc\ub3552\ub85c44\ubc88\uae38 10", "lat": "35.2101665", "lng": "129.037157"}, {"statNm": "\ub9cc\ub3553\ub3d9\uc8fc\ubbfc\uc13c\ud130", "addr": "\ubd80\uc0b0\uad11\uc5ed\uc2dc \ubd81\uad6c \ub9cc\ub3553\ub85c 52", "lat": "35.2113675", "lng": "129.0291802"}, {"statNm": "\ud654\uba851\ub3d9\uc8fc\ubbfc\uc13c\ud130", "addr": "\ubd80\uc0b0\uad11\uc5ed\uc2dc \ubd81\uad6c \uae08\uace1\ub300\ub85c 274", "lat": "35.2327403", "lng": "129.0138044"}, {"statNm": "\ud654\uba852\ub3d9\uc8fc\ubbfc\uc13c\ud130", "addr": "\ubd80\uc0b0\uad11\uc5ed\uc2dc \ubd81\uad6c \uc591\ub2ec\ub85c 58", "lat": "35.2435691", "lng": "129.0198326"}, {"statNm": "\ud654\uba853\ub3d9\ud589\uc815\ubcf5\uc9c0\uc13c\ud130", "addr": "\ubd80\uc0b0\uad11\uc5ed\uc2dc \ubd81\uad6c \ud654\uba85\uc2e0\ub3c4\uc2dc\ub85c 85", "lat": "35.2318118", "lng": "129.010034"}, {"statNm": "\ub300\uccad\ub3d9\uc8fc\ubbfc\uc13c\ud130", "addr": "\ubd80\uc0b0\uad11\uc5ed\uc2dc \uc911\uad6c \ub300\uccad\ub85c99\ubc88\uae38 14-1", "lat": "35.1042205", "lng": "129.031003"}, {"statNm": "\ubcf4\uc218\ub3d9\ud589\uc815\ubcf5\uc9c0\uc13c\ud130", "addr": "\ubd80\uc0b0\uad11\uc5ed\uc2dc \uc911\uad6c \ubcf4\uc218\ub300\ub85c140\ubc88\uae38 61", "lat": "35.1061355", "lng": "129.0247033"}, {"statNm": "\uc601\uc8fc2\ub3d9\uc8fc\ubbfc\uc13c\ud130", "addr": "\ubd80\uc0b0\uad11\uc5ed\uc2dc \uc911\uad6c \ub3d9\uc601\ub85c 71-2", "lat": "35.1115749", "lng": "129.0318172"}, {"statNm": "\uc6b03\ub3d9\uc8fc\ubbfc\uc13c\ud130", "addr": "\ubd80\uc0b0\uad11\uc5ed\uc2dc \ud574\uc6b4\ub300\uad6c \ud574\uc6b4\ub300\ud574\ubcc0\ub85c 104", "lat": "35.1597328", "lng": "129.1433085"}, {"statNm": "\ub2e4\ub3001\ub3d9\uc8fc\ubbfc\uc13c\ud130", "addr": "\ubd80\uc0b0\uad11\uc5ed\uc2dc \uc0ac\ud558\uad6c \uc724\uacf5\ub2e8\ub85c 119", "lat": "35.0591696", "lng": "128.9713295"}, {"statNm": "\uc11c2\ub3d9\uc8fc\ubbfc\uc13c\ud130", "addr": "\ubd80\uc0b0\uad11\uc5ed\uc2dc \uae08\uc815\uad6c \uc11c\ub3d9\uc911\uc2ec\ub85c 33", "lat": "35.2128712", "lng": "129.104495"}, {"statNm": "\uba85\uc9c01\ub3d9 \uc8fc\ubbfc\uc13c\ud130", "addr": "\ubd80\uc0b0\uad11\uc5ed\uc2dc \uac15\uc11c\uad6c \uc601\uac15\uae3819\ubc88\uae38 58", "lat": "35.1081646", "lng": "128.9263221"}, {"statNm": "\ub179\uc0b0\ub3d9 \uc8fc\ubbfc\uc13c\ud130", "addr": "\ubd80\uc0b0\uad11\uc5ed\uc2dc \uac15\uc11c\uad6c \uac00\ub77d\ub300\ub85c900\ubc88\uac00\uae38 32", "lat": "35.1535291", "lng": "128.8837852"}, {"statNm": "\uc11c\ub300\uc2e01\ub3d9\uc8fc\ubbfc\uc13c\ud130", "addr": "\ubd80\uc0b0\uad11\uc5ed\uc2dc \uc11c\uad6c \uad6c\ub355\ub85c315\ubc88\uae38 49", "lat": "35.1110832", "lng": "129.014416"}, {"statNm": "\uac70\uc81c4\ub3d9 \uc8fc\ubbfc\uc13c\ud130", "addr": "\ubd80\uc0b0\uad11\uc5ed\uc2dc \uc5f0\uc81c\uad6c \ud574\ub9de\uc774\ub85c43\ubc88\uae38 36", "lat": "35.1793534", "lng": "129.0665407"}, {"statNm": "\uc88c2\ub3d9\uc8fc\ubbfc\uc13c\ud130", "addr": "\ubd80\uc0b0\uad11\uc5ed\uc2dc \ud574\uc6b4\ub300\uad6c \uc88c\ub3d9\uc21c\ud658\ub85c 302", "lat": "35.1690949", "lng": "129.1825964"}, {"statNm": "\uc5f0\uc0b09\ub3d9\uc8fc\ubbfc\uc13c\ud130", "addr": "\ubd80\uc0b0\uad11\uc5ed\uc2dc \uc5f0\uc81c\uad6c \uc548\uc5f0\ub85c8\ubc88\uae38 \uc9c0\ud55871", "lat": "35.1885871", "lng": "129.1049091"}, {"statNm": "\ubaa8\ub77c1\ub3d9 \uc8fc\ubbfc\uc13c\ud130", "addr": "\ubd80\uc0b0\uad11\uc5ed\uc2dc \uc0ac\uc0c1\uad6c \ubc31\uc591\ub300\ub85c 952", "lat": "35.1911013", "lng": "128.99234"}, {"statNm": "\ubd80\uc0b0\ub0b4\ub9ac\ud734\uba3c\uc2dc\uc544 1\ub2e8\uc9c0", "addr": "\ubd80\uc0b0\uad11\uc5ed\uc2dc \uae30\uc7a5\uad70 \uae30\uc7a5\uc74d \uc18c\uc815\uc548\uae38 68 (\ub0b4\ub9ac\ud734\uba3c\uc2dc\uc544)", "lat": "35.2064139106", "lng": "129.2061859651"}, {"statNm": "\uace0\ucd0cLH3\ub2e8\uc9c0", "addr": "\ubd80\uc0b0\uad11\uc5ed\uc2dc \uae30\uc7a5\uad70 \ucca0\ub9c8\uba74 \uace0\ucd0c\ub85c 58 (\uace0\ucd0c \uc5d8\uc5d0\uc774\uce58 3\ub2e8\uc9c0 \uc544\ud30c\ud2b8)", "lat": "35.2396109469", "lng": "129.1681278839"}, {"statNm": "\ubd80\uc0b0\uc9c0\uc0ac\ud734\uba3c\uc2dc\uc544", "addr": "\ubd80\uc0b0\uad11\uc5ed\uc2dc \uac15\uc11c\uad6c \uacfc\ud559\uc0b0\ub2e82\ub85c20\ubc88\uae38 35 (\uc9c0\uc0ac\ub3d9, \ubd80\uc0b0\uc9c0\uc0ac\ud734\uba3c\uc2dc\uc544)", "lat": "35.1510225878", "lng": "128.8357335282"}, {"statNm": "\ubd80\uc0b0\uad18\ubc951\ub2e8\uc9c0", "addr": "\ubd80\uc0b0\uad11\uc5ed\uc2dc \uc0ac\uc0c1\uad6c \uad11\uc7a5\ub85c21\ubc88\uae38 66 (\uad18\ubc95\ub3d9, \uad18\ubc95\uc5d8\uc5d0\uc774\uce58\uc544\ud30c\ud2b8)", "lat": "35.1668229138", "lng": "128.9800795297"}, {"statNm": "\ubd80\uc0b0\ubc94\ucc9c", "addr": "\ubd80\uc0b0\uad11\uc5ed\uc2dc \ubd80\uc0b0\uc9c4\uad6c \uc2e0\uc554\ub85c 66 (\ubc94\ucc9c\ub3d9, \ubc94\ucc9c\uc5d8\uc5d0\uc774\uce58\uc544\ud30c\ud2b8)", "lat": "35.1473864299", "lng": "129.0547384096"}, {"statNm": "\ubd80\uc0b0\uac10\uc8041", "addr": "\ubd80\uc0b0\uad11\uc5ed\uc2dc \uc0ac\uc0c1\uad6c \ubc31\uc591\ub300\ub85c 539 (\uac10\uc804\ub3d9, \uac10\uc804 \uc5d8\uc5d0\uc774\uce58\uc544\ud30c\ud2b8)", "lat": "35.1553222444", "lng": "128.9942410094"}, {"statNm": "\ubd80\uc0b0\uc804\ud3ecLH", "addr": "\ubd80\uc0b0\uad11\uc5ed\uc2dc \ubd80\uc0b0\uc9c4\uad6c \uc911\uc559\ub300\ub85c 862 (\uc804\ud3ec\ub3d9, \uc804\ud3ecLH\uc544\ud30c\ud2b8)", "lat": "35.1668993831", "lng": "129.0675994923"}, {"statNm": "\ud574\uc6b4\ub300LIG\uac74\uc601\uc544\ud30c\ud2b8", "addr": "\ubd80\uc0b0\uad11\uc5ed\uc2dc \ud574\uc6b4\ub300\uad6c \uc88c\ub3d9\uc21c\ud658\ub85c217\ubc88\uae38 19 (\uc88c\ub3d9, \uc5d8\uc544\uc774\uc9c0\uac74\uc601\uc544\ud30c\ud2b8)", "lat": "35.17812157235", "lng": "129.1808479788"}, {"statNm": "\ub3d9\ub798\uc13c\ud2b8\ub7f4\ud30c\ud06c\ud558\uc774\uce201\ub2e8\uc9c0", "addr": "\ubd80\uc0b0\uad11\uc5ed\uc2dc \ub3d9\ub798\uad6c \ubb38\ud654\ub85c 15 (\uba85\ub95c\ub3d9, \ub3d9\ub798\uc13c\ud2b8\ub7f4\ud30c\ud06c\ud558\uc774\uce201\ucc28)", "lat": "35.2112650121", "lng": "129.0844170385"}, {"statNm": "\ub450\uc0b0\uc704\ube0c\ubc94\uc77c\ub274\ud0c0\uc6b4", "addr": "\ubd80\uc0b0\uad11\uc5ed\uc2dc \ub3d9\uad6c \uc131\ub0a8\uc77c\ub85c 5 (\uc88c\ucc9c\ub3d9, \ub450\uc0b0\uc704\ube0c\ubc94\uc77c\ub274\ud0c0\uc6b4)", "lat": "35.13226382470", "lng": "129.0554376853"}, {"statNm": "\uad6d\uc81c\ubc31\uc591\uc544\ud30c\ud2b8", "addr": "\ubd80\uc0b0\uad11\uc5ed\uc2dc \ubd80\uc0b0\uc9c4\uad6c \ubc31\uc591\uad00\ubb38\ub85c 104 (\ub2f9\uac10\ub3d9, \uad6d\uc81c\ubc31\uc591\uc544\ud30c\ud2b8)", "lat": "35.16770367013", "lng": "129.0281949271"}, {"statNm": "\ub798\ubbf8\uc548\uc7a5\uc804\uc544\ud30c\ud2b8", "addr": "\ubd80\uc0b0\uad11\uc5ed\uc2dc \uae08\uc815\uad6c \uae08\uc815\ub85c 20 (\uc7a5\uc804\ub3d9, \ub798\ubbf8\uc548\uc7a5\uc804)", "lat": "35.22575967404", "lng": "129.0878858608"}, {"statNm": "\ub300\uc8001\ub3d9\ud589\uc815\ubcf5\uc9c0\uc13c\ud130", "addr": "\ubd80\uc0b0\uad11\uc5ed\uc2dc \uac15\uc11c\uad6c \ub300\uc800\ub85c221\ubc88\uae38 19", "lat": "35.215473371221", "lng": "128.9766497732"}, {"statNm": "\ubd80\uc0b0\uae08\uc815\ubb38\ud654\ud68c\uad00", "addr": "\ubd80\uc0b0\uad11\uc5ed\uc2dc \uae08\uc815\uad6c \uccb4\uc721\uacf5\uc6d0\ub85c 7", "lat": "35.245624674614", "lng": "129.0941869171"}, {"statNm": "\ubd80\uc0b0\ub0a8\uad6c \uc720\ucc3d\uadf8\ub9b02\ucc28", "addr": "\ubd80\uc0b0\uad11\uc5ed\uc2dc \ub0a8\uad6c \uc591\uc9c0\uace8\ub85c 134", "lat": "35.115201496764", "lng": "129.0873607240"}, {"statNm": "\ubd80\uc0b0\ubd81\uad6c \ub9cc\ub355\uadf8\ub9b0\ucf54\uc544203\ub3d9", "addr": "\ubd80\uc0b0\uad11\uc5ed\uc2dc \ubd81\uad6c \ub355\ucc9c\ub85c234\ubc88\uae38 47", "lat": "35.207955889534", "lng": "129.0307796228"}, {"statNm": "\ubd80\uc0b0\ud574\uc6b4\ub300 \ub86f\ub370\uce90\uc2ac\ub9c8\ub9b0\uc544\ud30c\ud2b8", "addr": "\ubd80\uc0b0\uad11\uc5ed\uc2dc \ud574\uc6b4\ub300\uad6c \uc911\ub3d92\ub85c34\ubc88\uae38 29", "lat": "35.165588920549", "lng": "129.1654132401"}, {"statNm": "\ud574\uc6b4\ub300\ub3d9\ubc31\ub450\uc0b0\uc704\ube0c\ub354\uc81c\ub2c8\uc2a4", "addr": "\ubd80\uc0b0\uad11\uc5ed\uc2dc \ud574\uc6b4\ub300\uad6c \ud574\uc6b4\ub300\ub85c 540", "lat": "35.159768607559", "lng": "129.1511969388"}, {"statNm": "\uc790\ub9e4\uc815\uc2e0\uc694\uc591\uc6d0", "addr": "\ubd80\uc0b0\uad11\uc5ed\uc2dc \uc0ac\ud558\uad6c \uc0ac\ub9ac\ub85c 37", "lat": "35.103429903844", "lng": "128.9983315486"}, {"statNm": "\ubd80\uc0b0\uc5f0\uc81c \uac70\uc81c1\ucc28\ud604\ub300\ud648\ud0c0\uc6b4 116\ub3d9", "addr": "\ubd80\uc0b0\uad11\uc5ed\uc2dc \uc5f0\uc81c\uad6c \ubc95\uc6d0\ubd81\ub85c 34", "lat": "35.192301164288", "lng": "129.0712927120"}, {"statNm": "\ubd80\uc0b0\uc601\ub3c4 \uad6d\uc81c\ub9c8\ub9c8\ub274\ube44\uce58\ud0c0\uc6b4 111\ub3d9 B1", "addr": "\ubd80\uc0b0\uad11\uc5ed\uc2dc \uc601\ub3c4\uad6c \uc911\ub9ac\ub85c 32", "lat": "35.073380451206", "lng": "129.0692384261"}, {"statNm": "\ubd80\uc0b0\uc11c\uad6c \uacbd\ub3d9\ub9ac\uc778\ud0c0\uc6cc 102\ub3d9", "addr": "\ubd80\uc0b0\uad11\uc5ed\uc2dc \uc11c\uad6c \ubcf4\uc218\ub300\ub85c 27", "lat": "35.099276144529", "lng": "129.0237074180"}, {"statNm": "\ubd80\uc0b0\ud574\uc6b4\ub300 \ud604\ub300\ubca0\ub124\uc2dc\ud2f0\uc544\ud30c\ud2b8", "addr": "\ubd80\uc0b0\uad11\uc5ed\uc2dc \ud574\uc6b4\ub300\uad6c \ud574\uc6b4\ub300\ud574\ubcc0\ub85c 163", "lat": "35.158353791102", "lng": "129.1511980791"}, {"statNm": "\ubd80\uc0b0\uc5f0\uc81c \ub300\uc6b0\uadf8\ub9b0\ud0c0\uc6cc", "addr": "\ubd80\uc0b0\uad11\uc5ed\uc2dc \uc5f0\uc81c\uad6c \uc6d4\ub4dc\ucef5\ub300\ub85c 343", "lat": "35.187803870411", "lng": "129.0613979816"}, {"statNm": "\ubd80\uc0b0\uc9c4\uad6c \uc77c\uc131\uc778\ud3ec\uc544\ud30c\ud2b8", "addr": "\ubd80\uc0b0\uad11\uc5ed\uc2dc \ubd80\uc0b0\uc9c4\uad6c \uc2e0\ucc9c\ub300\ub85c 252", "lat": "35.164405634854", "lng": "129.0510271909"}, {"statNm": "\ubd80\uc0b0 \ud574\uc6b4\ub300\ubcbd\uc0b02\ucc28\uc544\ud30c\ud2b8 108\ub3d9", "addr": "\ubd80\uc0b0\uad11\uc5ed\uc2dc \ud574\uc6b4\ub300\uad6c \uc88c\ub3d9\uc21c\ud658\ub85c299\ubc88\uae38 11", "lat": "35.170887326706", "lng": "129.1847427016"}, {"statNm": "\ubd80\uc0b0 \ud574\uc6b4\ub300\ube44\uce58\ubca0\ub974\ube4c", "addr": "\ubd80\uc0b0\uad11\uc5ed\uc2dc \ud574\uc6b4\ub300\uad6c \ud574\uc6b4\ub300\ud574\ubcc0\ub85c 348", "lat": "35.163121342314", "lng": "129.1680966624"}, {"statNm": "\ubd80\uc0b0 \uccad\ub8e1\ub3d9\uacbd\ub3d9\uc544\ud30c\ud2b82\ucc28\uc544\ud30c\ud2b8", "addr": "\ubd80\uc0b0\uad11\uc5ed\uc2dc \uae08\uc815\uad6c \uccad\ub8e1\uc608\uc804\ub85c 100-12", "lat": "35.279570765448", "lng": "129.0853182105"}, {"statNm": "\ud574\uc6b4\ub300 \ub354\uc0f5\uc13c\ud140\ud30c\ud06c1\ucc28\uc544\ud30c\ud2b8", "addr": "\ubd80\uc0b0\uad11\uc5ed\uc2dc \ud574\uc6b4\ub300\uad6c \uc13c\ud140\uc911\uc559\ub85c 145", "lat": "35.176758576817", "lng": "129.1235915382"}, {"statNm": "\ubd80\uc0b0 \uc7a5\uc8041\ub3d9\uc8fc\ubbfc\uc13c\ud130", "addr": "\ubd80\uc0b0\uad11\uc5ed\uc2dc \uae08\uc815\uad6c \uc218\ub9bc\ub85c71\ubc88\uae38 36", "lat": "35.238193743206", "lng": "129.0844865872"}, {"statNm": "\ubd80\uc0b0 \uac00\ub77d\ud0c0\uc6b41\ub2e8\uc9c0101\ub3d9", "addr": "\ubd80\uc0b0\uad11\uc5ed\uc2dc \uc0ac\ud558\uad6c \ud558\uc2e0\ubc88\uc601\ub85c 365", "lat": "35.108159365160", "lng": "128.9580265466"}, {"statNm": "\ubd80\uc0b0 \uac70\uc81c\uc720\ub9bc\ub178\ub974\uc6e8\uc774\uc232101\ub3d9", "addr": "\ubd80\uc0b0\uad11\uc5ed\uc2dc \uc5f0\uc81c\uad6c \uac70\uc81c\ub300\ub85c136\ubc88\uae38 30", "lat": "35.179797135915", "lng": "129.0705307902"}, {"statNm": "\uac15\ub3d9\ub3d9\ud589\uc815\ubcf5\uc9c0\uc13c\ud130", "addr": "\ubd80\uc0b0\uad11\uc5ed\uc2dc \uac15\uc11c\uad6c \uc81c\ub3c4\ub85c 1171", "lat": "35.214524122846", "lng": "128.9352671863"}, {"statNm": "\ub300\uc8002\ub3d9\ud589\uc815\ubcf5\uc9c0\uc13c\ud130", "addr": "\ubd80\uc0b0\uad11\uc5ed\uc2dc \uac15\uc11c\uad6c \uacf5\ud56d\ub85c811\ubc88\uac00\uae38 30-1", "lat": "35.178550471986", "lng": "128.9564845530"}, {"statNm": "\uc11c3\ub3d9\ud589\uc815\ubcf5\uc9c0\uc13c\ud130", "addr": "\ubd80\uc0b0\uad11\uc5ed\uc2dc \uae08\uc815\uad6c \uc11c\uace1\ub85c33\ubc88\uae38 9", "lat": "35.217199334853", "lng": "129.1039304085"}, {"statNm": "\uad11\uc548\ub3d9\uc0bc\uc815\uadf8\ub9b0\ucf54\uc544\uc544\ud30c\ud2b8", "addr": "\ubd80\uc0b0\uad11\uc5ed\uc2dc \uc218\uc601\uad6c \uc218\uc601\ub85c540\ubc88\uae38 57", "lat": "35.153439299949", "lng": "129.1156249505"}, {"statNm": "\ubd80\uc0b0\uc218\uc601 \uad11\uc548\ub354\uc0f5\uc544\ud30c\ud2b8", "addr": "\ubd80\uc0b0\uad11\uc5ed\uc2dc \uc218\uc601\uad6c \uc218\uc601\ub85c 506", "lat": "35.150844375211", "lng": "129.1116780661"}, {"statNm": "\uacbd\ub0a8 \uac70\uc81c\uc13c\ud2b8\ub7f4\uc790\uc774105\ub3d9B2", "addr": "\ubd80\uc0b0\uad11\uc5ed\uc2dc \uc5f0\uc81c\uad6c \ubc95\uc6d0\ubd81\ub85c 93", "lat": "35.192949176115", "lng": "129.0766004294"}, {"statNm": "\ubd80\uc0b0 \ub3d9\ub7982\ucc28\uc5d0\uc2a4\ucf00\uc774\ubdf0\uc544\ud30c\ud2b8", "addr": "\ubd80\uc0b0\uad11\uc5ed\uc2dc \ub3d9\ub798\uad6c \uae08\uac15\ub85c 48", "lat": "35.212975908710", "lng": "129.0765241486"}, {"statNm": "\ubd80\uc0b0\uc0ac\uc0c1 \uc5c4\uad81\ud55c\uc2e01\ucc28\uc544\ud30c\ud2b8", "addr": "\ubd80\uc0b0\uad11\uc5ed\uc2dc \uc0ac\uc0c1\uad6c \ub099\ub3d9\ub300\ub85c 712-17", "lat": "35.125198512364", "lng": "128.9687341719"}, {"statNm": "\ubd80\uc0b0\ub0a8\uad6c \ub300\uc5f0\uc0bc\uc131\uc544\ud30c\ud2b8103\ub3d9", "addr": "\ubd80\uc0b0\uad11\uc5ed\uc2dc \ub0a8\uad6c \uc2e0\uc120\ub85c 490", "lat": "35.128403755661", "lng": "129.1040168051"}, {"statNm": "\ubd80\uc0b0\uc218\uc601 \ube44\uce58\uadf8\ub9b0\uc544\ud30c\ud2b8", "addr": "\ubd80\uc0b0\uad11\uc5ed\uc2dc \uc218\uc601\uad6c \uad11\uc77c\ub85c 49", "lat": "35.163077233233", "lng": "129.1092641082"}, {"statNm": "\ubd80\uc0b0\ub0a8\uad6c \uc911\uc559\ud558\uc774\uce20", "addr": "\ubd80\uc0b0\uad11\uc5ed\uc2dc \ub0a8\uad6c \uc720\uc5d4\ub85c 46", "lat": "35.1264481", "lng": "129.0821167"}, {"statNm": "\ubd80\uc0b0\uae08\uc815 \ubd80\uace1SK\uc544\ud30c\ud2b8104\ub3d9", "addr": "\ubd80\uc0b0\uad11\uc5ed\uc2dc \uae08\uc815\uad6c \uc218\ub9bc\ub85c 12", "lat": "35.240171889276", "lng": "129.0905894429"}, {"statNm": "\ubd80\uc0b0\ud574\uc6b4\ub300 \uc13c\ud140\ub86f\ub370\uce90\uc2ac104\ub3d9", "addr": "\ubd80\uc0b0\uad11\uc5ed\uc2dc \ud574\uc6b4\ub300\uad6c \ubc18\uc5ec\ub85c 133", "lat": "35.204646073731", "lng": "129.1228354245"}, {"statNm": "\uc13c\ud140\uc218\uc601\uac15\ubcc01\ucc28e\ud3b8\ud55c\uc138\uc0c1 102\ub3d9", "addr": "\ubd80\uc0b0\uad11\uc5ed\uc2dc \uc218\uc601\uad6c \uc88c\uc218\uc601\ub85c 176", "lat": "35.179320399364", "lng": "129.1176829824"}, {"statNm": "\ubd80\uc0b0\uc218\uc601_\uc13c\ud140\ube44\uc2a4\ud0c0\ub3d9\uc6d0\uc544\ud30c\ud2b8105\ub3d9", "addr": "\ubd80\uc0b0\uad11\uc5ed\uc2dc \uc218\uc601\uad6c \uc218\uc601\ub85c 754", "lat": "35.165108409280", "lng": "129.1210278966"}, {"statNm": "\ubd80\uc0b0\uae30\uc7a5_\uace0\ucd0cLH\uc544\ud30c\ud2b8210\ub3d9", "addr": "\ubd80\uc0b0\uad11\uc5ed\uc2dc \uae30\uc7a5\uad70 \ucca0\ub9c8\uba74 \uace0\ucd0c\ub85c 11", "lat": "35.238900576638", "lng": "129.1717105231"}, {"statNm": "\ubd80\uc0b0\uc218\uc601_\uad11\uc548SK\ubdf0\uc544\ud30c\ud2b8105\ub3d9", "addr": "\ubd80\uc0b0\uad11\uc5ed\uc2dc \uc218\uc601\uad6c \uad11\uc548\ub85c 12", "lat": "35.15622583741", "lng": "129.11391186513"}, {"statNm": "\ubd80\uc0b0\ubd81\uad6c_\ud654\uba85\ub3d9\ub86f\ub370\uce90\uc2ac\uba64\ubc84\uc2a4", "addr": "\ubd80\uc0b0\uad11\uc5ed\uc2dc \ubd81\uad6c \uae08\uace1\ub300\ub85c 240", "lat": "35.229837885578", "lng": "129.0134247321"}, {"statNm": "\uc2e0\uac1c\uae08\uc5d8\uc9c0\uc544\ud30c\ud2b81\ub2e8\uc9c0210\ub3d9", "addr": "\ubd80\uc0b0\uad11\uc5ed\uc2dc \ubd80\uc0b0\uc9c4\uad6c \ubc31\uc591\ub300\ub85c300\ubc88\uae38 19", "lat": "35.155806970643", "lng": "129.0199140176"}, {"statNm": "\uc2e0\uac1c\uae08\uc5d8\uc9c0\uc544\ud30c\ud2b82\ub2e8\uc9c0104\ub3d9", "addr": "\ubd80\uc0b0\uad11\uc5ed\uc2dc \ubd80\uc0b0\uc9c4\uad6c \ubc31\uc591\ub300\ub85c300\ubc88\uae38 20", "lat": "35.155631548112", "lng": "129.0174627391"}, {"statNm": "\ubd80\uc0b0 \ud574\uc6b4\ub300_\ud604\ub300\uc77c\uc1312\ucc28\uc544\ud30c\ud2b8", "addr": "\ubd80\uc0b0\uad11\uc5ed\uc2dc \ud574\uc6b4\ub300\uad6c \uc7ac\ubc18\ub85c226\ubc88\uae38 72", "lat": "35.197021888", "lng": "129.13357086"}, {"statNm": "SK\ud154\ub808\ucf64 \ubd80\uc0b0\ubd80\uc554\uc0ac\uc6251", "addr": "\ubd80\uc0b0\uad11\uc5ed\uc2dc \ubd80\uc0b0\uc9c4\uad6c \uc2e0\ucc9c\ub300\ub85c 258", "lat": "35.164985138", "lng": "129.05076849"}, {"statNm": "\uc0bc\ud658\uc544\ud30c\ud2b81", "addr": "\ubd80\uc0b0\uad11\uc5ed\uc2dc \ubd80\uc0b0\uc9c4\uad6c \ubc31\uc591\ub300\ub85c208\ubc88\uae38 133", "lat": "35.162126462", "lng": "129.02334485"}, {"statNm": "\ubd80\uc0b0\uac15\uc11c_\uc138\uc9c4\ubcfc\ud2b8\uacf5\uc5c5", "addr": "\ubd80\uc0b0\uad11\uc5ed\uc2dc \uac15\uc11c\uad6c \ub179\uc0b0\uc0b0\ub2e8261\ub85c14\ubc88\uae38 17-25", "lat": "35.0923425", "lng": "128.8475358"}, {"statNm": "\uc5f0\uc0b0\ud55c\uc591\ud0c0\uc6cc\uc544\ud30c\ud2b81", "addr": "\ubd80\uc0b0\uad11\uc5ed\uc2dc \uc5f0\uc81c\uad6c \uacfc\uc815\ub85c344\ubc88\uae38 22", "lat": "35.190444546", "lng": "129.09272608"}, {"statNm": "\ubd80\uc0b0\uc601\ub3c4\uad6c_\uc720\uc9c4\uce90\uc2ac\uc544\ud30c\ud2b8", "addr": "\ubd80\uc0b0\uad11\uc5ed\uc2dc \uc601\ub3c4\uad6c \ubd09\ub798\uae38 92-4", "lat": "35.091397943", "lng": "129.05158324"}, {"statNm": "\uad11\uc548\ud604\ub300\ud558\uc774\ud398\ub9ac\uc628", "addr": "\ubd80\uc0b0\uad11\uc5ed\uc2dc \uc218\uc601\uad6c \uad11\ub0a8\ub85c223\ubc88\uae38 31", "lat": "35.162057038", "lng": "129.12202513"}, {"statNm": "\ud574\uc6b4\ub300 \uc6d4\ub4dc\ud2b8\ub7fc\ud504\ub9c8\ub9b0", "addr": "\ubd80\uc0b0\uad11\uc5ed\uc2dc \ud574\uc6b4\ub300\uad6c \ub9c8\ub9b0\uc2dc\ud2f02\ub85c 47", "lat": "35.154826179", "lng": "129.14324343"}, {"statNm": "\ubd80\uc0b0\uae08\uc815_\ubd80\uace1\uc6b0\uc2e0\ub274\ud0c0\uc6b4\uc544\ud30c\ud2b81", "addr": "\ubd80\uc0b0\uad11\uc5ed\uc2dc \uae08\uc815\uad6c \uc911\uc559\ub300\ub85c1667\ubc88\uae38 8", "lat": "35.234061170", "lng": "129.09009671"}, {"statNm": "\ubd80\uc0b0\ub0a8\uad6c_\uac10\ub9cc\ub3d9\uc77c\uc2a4\uc704\ud2b8\uc544\ud30c\ud2b81", "addr": "\ubd80\uc0b0\uad11\uc5ed\uc2dc \ub0a8\uad6c \uc6b0\uc554\ub85c104\ubc88\uae38 29", "lat": "35.119142693", "lng": "129.08325778"}, {"statNm": "\ubd80\uc0b0\ub0a8\uad6c_\uc7a5\ubc31\uc7a5\ubbf8\ud0c0\uc6cc", "addr": "\ubd80\uc0b0\uad11\uc5ed\uc2dc \ub0a8\uad6c \ud669\ub839\ub300\ub85c319\ubc88\uae38 120", "lat": "35.149007005", "lng": "129.09125681"}, {"statNm": "\ubd80\uc0b0\uac15\uc11c \uba85\uc9c0\ub354\uc0f5\ud37c\uc2a4\ud2b8\uc6d4\ub4dc2\ub2e8\uc9c0 201\ub3d9", "addr": "\ubd80\uc0b0\uad11\uc5ed\uc2dc \uac15\uc11c\uad6c \uba85\uc9c0\uad6d\uc81c7\ub85c 37", "lat": "35.097514402", "lng": "128.90533447"}, {"statNm": "\ubd80\uc0b0\ud574\uc6b4\ub300 \uc13c\ud140\ub3d9\uad6d\uc544\ud30c\ud2b8102\ub3d9", "addr": "\ubd80\uc0b0\uad11\uc5ed\uc2dc \ud574\uc6b4\ub300\uad6c \uc7ac\uc1a12\ub85c 91", "lat": "35.193434009", "lng": "129.13423930"}, {"statNm": "\ubd80\uc0b0\ud574\uc6b4\ub300 \ub86f\ub370\uce90\uc2ac\uc2a4\ud0c01", "addr": "\ubd80\uc0b0\uad11\uc5ed\uc2dc \ud574\uc6b4\ub300\uad6c \uc911\ub3d92\ub85c34\ubc88\uae38 15", "lat": "35.165539407", "lng": "129.16315680"}, {"statNm": "\ubd80\uc0b0\uc9c4\uad6c \uc720\ub9bc\ub178\ub974\uc6e8\uc774\uc232\uc544\ud30c\ud2b8 103\ub3d9", "addr": "\ubd80\uc0b0\uad11\uc5ed\uc2dc \ubd80\uc0b0\uc9c4\uad6c \uc131\uc9c0\ub85c62\ubc88\uae38 8", "lat": "35.175295678", "lng": "129.05553651"}, {"statNm": "\ubd80\uc0b0\ub3d9\ub798 \uc628\ucc9c\ub300\ub3d9\ub2e4\uc232", "addr": "\ubd80\uc0b0\uad11\uc5ed\uc2dc \ub3d9\ub798\uad6c \uae08\uc815\ub9c8\uc744\ub85c 120", "lat": "35.210998625", "lng": "129.06673591"}, {"statNm": "\ubd80\uc0b0\ud574\uc6b4\ub300 \uc7ac\uc1a1\uae08\ud638\uc544\ud30c\ud2b8", "addr": "\ubd80\uc0b0\uad11\uc5ed\uc2dc \ud574\uc6b4\ub300\uad6c \uc7ac\ubc18\ub85c 141", "lat": "35.191607694", "lng": "129.12686980"}, {"statNm": "\ubd80\uc0b0\uae08\uc815 \ub798\ubbf8\uc548\uc7a5\uc804\uc544\ud30c\ud2b8 101\ub3d9", "addr": "\ubd80\uc0b0\uad11\uc5ed\uc2dc \uae08\uc815\uad6c \uae08\uc815\ub85c 20", "lat": "35.227592277", "lng": "129.08674014"}, {"statNm": "\ubd80\uc0b0\uac15\uc11c \uba85\uc9c0\ub86f\ub370\uce90\uc2ac\uc544\ud30c\ud2b8 112\ub3d9", "addr": "\ubd80\uc0b0\uad11\uc5ed\uc2dc \uac15\uc11c\uad6c \uba85\uc9c0\uc624\uc158\uc2dc\ud2f011\ub85c 84", "lat": "35.082413117", "lng": "128.90653072"}, {"statNm": "\ubd80\uc0b0\ud574\uc6b4\ub300 \uc120\ud504\ub77c\uc790\uc544\ud30c\ud2b8", "addr": "\ubd80\uc0b0\uad11\uc5ed\uc2dc \ud574\uc6b4\ub300\uad6c \ub9c8\ub9b0\uc2dc\ud2f03\ub85c 1", "lat": "35.157859861", "lng": "129.14754823"}, {"statNm": "\ubd80\uc0b0\ub0a8\uad6c \ubb38\ud604\ub3d9\ud604\ub300\uc544\ud30c\ud2b8 10\ub3d9", "addr": "\ubd80\uc0b0\uad11\uc5ed\uc2dc \ub0a8\uad6c \uc9c4\ub0a8\ub85c198\ubc88\uae38 9-1", "lat": "35.144444390", "lng": "129.07959859"}, {"statNm": "\ubd80\uc0b0\uc218\uc601 \uc624\uc158\ube0c\ub9bf\uc9c0\uad00\ub9ac\ub2e8", "addr": "\ubd80\uc0b0\uad11\uc5ed\uc2dc \uc218\uc601\uad6c \uad11\uc548\ud574\ubcc0\ub85c278\ubc88\uae38 42", "lat": "35.153970441", "lng": "129.12451502"}, {"statNm": "\ubd80\uc0b0\uc9c4\uad6c \uae08\uac15\ud39c\ud14c\ub9ac\uc6c0\ub354\uc2a4\ud018\uc5b4 101\ub3d9", "addr": "\ubd80\uc0b0\uad11\uc5ed\uc2dc \ubd80\uc0b0\uc9c4\uad6c \uac00\uc57c\ub300\ub85c 450", "lat": "35.152841645", "lng": "129.02123891"}, {"statNm": "\ubd80\uc0b0\ud574\uc6b4\ub300 \ub300\uc6b0\uc6d4\ub4dc\ub9c8\ud06c\uc13c\ud140 104\ub3d9 B4", "addr": "\ubd80\uc0b0\uad11\uc5ed\uc2dc \ud574\uc6b4\ub300\uad6c \uc13c\ud140\ub3d9\ub85c 25", "lat": "35.1719092", "lng": "129.1314366"}, {"statNm": "\ubd80\uc0b0\uac15\uc11c \uba85\uc9c0\uc624\uc158\uc2dc\ud2f0\ud55c\uc2e0\ud734\ud50c\ub7ec\uc2a4101\ub3d9", "addr": "\ubd80\uc0b0\uad11\uc5ed\uc2dc \uac15\uc11c\uad6c \uba85\uc9c0\uc624\uc158\uc2dc\ud2f01\ub85c 155", "lat": "35.080814074", "lng": "128.90112776"}, {"statNm": "\ubd80\uc0b0\uc9c4\uad6c \ubc94\ucc9c\uacbd\ub0a8\uc544\ud30c\ud2b8", "addr": "\ubd80\uc0b0\uad11\uc5ed\uc2dc \ubd80\uc0b0\uc9c4\uad6c \uc2e0\uc554\ub85c 32", "lat": "35.145925185", "lng": "129.05667147"}, {"statNm": "\ubd80\uc0b0\uae08\uc815 \ubd80\uace1\uc30d\uc6a9\uc544\ud30c\ud2b8 104\ub3d9", "addr": "\ubd80\uc0b0\uad11\uc5ed\uc2dc \uae08\uc815\uad6c \uc218\ub9bc\ub85c 25", "lat": "35.239118906", "lng": "129.08870568"}, {"statNm": "\ubd80\uc0b0\uc9c4\uad6c \ud0dc\ud654\ud604\ub3001\ucc28\uc544\ud30c\ud2b81", "addr": "\ubd80\uc0b0\uad11\uc5ed\uc2dc \ubd80\uc0b0\uc9c4\uad6c \uac00\uc57c\ub300\ub85c 635-20", "lat": "35.1569688", "lng": "129.0422729"}, {"statNm": "\ubd80\uc0b0\uc5f0\uc81c\uad6c \uac70\uc81c\ud604\ub300\ud0c0\uc6b4 \uc804\uae30\uc2e4 \uc606", "addr": "\ubd80\uc0b0\uad11\uc5ed\uc2dc \uc5f0\uc81c\uad6c \uc544\uc2dc\uc544\ub4dc\ub300\ub85c46\ubc88\uae38 15", "lat": "35.189227631", "lng": "129.06891900"}, {"statNm": "\ubd80\uc0b0\ub0a8\uad6c \uc6b0\uc5545\ucc28\uc790\uc720\uc544\ud30c\ud2b8", "addr": "\ubd80\uc0b0\uad11\uc5ed\uc2dc \ub0a8\uad6c \uc591\uc9c0\uace8\ub85c 358", "lat": "35.122845088", "lng": "129.08577892"}, {"statNm": "\ubd80\uc0b0\ud574\uc6b4\ub300\uad6c \uc13c\ud140\uc0bc\ud658\uc544\ud30c\ud2b8", "addr": "\ubd80\uc0b0\uad11\uc5ed\uc2dc \ud574\uc6b4\ub300\uad6c \ud574\uc6b4\ub300\ub85c 361", "lat": "35.172387552", "lng": "129.13861890"}, {"statNm": "\ubd80\uc0b0\ud574\uc6b4\ub300\uad6c \ub450\uc0b01\ucc28\uc544\ud30c\ud2b8 112\ub3d9", "addr": "\ubd80\uc0b0\uad11\uc5ed\uc2dc \ud574\uc6b4\ub300\uad6c \uc591\uc6b4\ub85c 182", "lat": "35.178708158", "lng": "129.16994307"}, {"statNm": "\ubd80\uc0b0\ud574\uc6b4\ub300\uad6c \uc13c\ud140\ub300\ub9bc\uc544\ud30c\ud2b8 18\uc9c0\ud5581\uce35\uc8fc\ucc28\uc7a5", "addr": "\ubd80\uc0b0\uad11\uc5ed\uc2dc \ud574\uc6b4\ub300\uad6c \uc120\uc218\ucd0c\ub85c 95", "lat": "35.200648872", "lng": "129.11722216"}, {"statNm": "\ubd80\uc0b0\ud574\uc6b4\ub300\uad6c \uc13c\ud140SK\ubdf0\uc544\ud30c\ud2b8 P4\uc8fc\ucc28\uc7a5", "addr": "\ubd80\uc0b0\uad11\uc5ed\uc2dc \ud574\uc6b4\ub300\uad6c \uc0bc\uc5b4\ub85c 55", "lat": "35.203574693", "lng": "129.11381524"}, {"statNm": "\ubd80\uc0b0\ub0a8\uad6c \ubb38\ud604\uacbd\ub3d9\ub9ac\uc778\uc544\ud30c\ud2b8 102\ub3d9", "addr": "\ubd80\uc0b0\uad11\uc5ed\uc2dc \ub0a8\uad6c \ubb38\ud604\ub85c 36-1", "lat": "35.140906500", "lng": "129.074323"}, {"statNm": "\ubd80\uc0b0\ud574\uc6b4\ub300\uad6c \uc6b0\ubc29\uc2e0\uc138\uacc4\ud0c0\uc6b4 114\ub3d9", "addr": "\ubd80\uc0b0\uad11\uc5ed\uc2dc \ud574\uc6b4\ub300\uad6c \uc0bc\uc5b4\ub85c 61", "lat": "35.202849444", "lng": "129.11615176"}, {"statNm": "\ubd80\uc0b0\ud574\uc6b4\ub300 \uba54\uac00\uc13c\ud140\uafc8\uc5d0\uadf8\ub9b0 B\uc8fc\ucc28\uc7a5", "addr": "\ubd80\uc0b0\uad11\uc5ed\uc2dc \ud574\uc6b4\ub300\uad6c \ubc18\uc5ec\ub85c 67", "lat": "35.198078585", "lng": "129.12208217"}, {"statNm": "\ubd80\uc0b0\ud574\uc6b4\ub300 \ub300\ub3d9\ud0c0\uc6b4P3\uc8fc\ucc28\uc7a5", "addr": "\ubd80\uc0b0\uad11\uc5ed\uc2dc \ud574\uc6b4\ub300\uad6c \ub300\ucc9c\ub85c103\ubc88\uae38 29", "lat": "35.176571311", "lng": "129.17149491"}, {"statNm": "\ubd80\uc0b0\uae30\uc7a5 \uc815\uad00\uc2e0\ub3c4\uc2dcLH4\ub2e8\uc9c0411\ub3d9", "addr": "\ubd80\uc0b0\uad11\uc5ed\uc2dc \uae30\uc7a5\uad70 \uc815\uad00\uc74d \uc0b0\ub2e84\ub85c 160", "lat": "35.321357704", "lng": "129.19161786"}, {"statNm": "\ubd80\uc0b0\ub3d9\ub798\uad6c \uc0bc\uc815\uadf8\ub9b0\ucf54\uc5441", "addr": "\ubd80\uc0b0\uad11\uc5ed\uc2dc \ub3d9\ub798\uad6c \uc1e0\ubbf8\ub85c129\ubc88\uae38 91", "lat": "35.206385928", "lng": "129.05740317"}, {"statNm": "\ubd80\uc0b0\uc9c4\uad6c \ud55c\uc77c\uc720\uc564\uc544\uc774\uc544\ud30c\ud2b8\uc9c0\ud5581\uce35", "addr": "\ubd80\uc0b0\uad11\uc5ed\uc2dc \ubd80\uc0b0\uc9c4\uad6c \uc804\ud3ec\ub300\ub85c171\ubc88\uae38 13", "lat": "35.151280803", "lng": "129.06465334"}, {"statNm": "\ubd80\uc0b0\ud574\uc6b4\ub300 \ud574\uc6b4\ub300\ube44\uc2a4\ud0c0\ub3d9\uc6d0\uc544\ud30c\ud2b8 102\ub3d9", "addr": "\ubd80\uc0b0\uad11\uc5ed\uc2dc \ud574\uc6b4\ub300\uad6c \ud574\uc6b4\ub300\ub85c 663", "lat": "35.165920289", "lng": "129.16216959"}, {"statNm": "\ubd80\uc0b0\ud574\uc6b4\ub300 \ub450\uc0b0\uc704\ube0c\ud3ec\uc138\uc774\ub3c81", "addr": "\ubd80\uc0b0\uad11\uc5ed\uc2dc \ud574\uc6b4\ub300\uad6c \ub9c8\ub9b0\uc2dc\ud2f01\ub85c 91", "lat": "35.154505484", "lng": "129.14449948"}, {"statNm": "\ubd80\uc0b0\ub0a8\uad6c \uc0bc\uc775\uadf8\ub9b0\ud0c0\uc6b4\uc544\ud30c\ud2b81", "addr": "\ubd80\uc0b0\uad11\uc5ed\uc2dc \ub0a8\uad6c \ud669\ub839\ub300\ub85c319\ubc88\uac00\uae38 142", "lat": "35.151702996", "lng": "129.08729191"}, {"statNm": "\ubd80\uc0b0\uc218\uc601\uad6c \uc13c\ud140\uc218\uc601\uac15\ubcc02\ucc28e-\ud3b8\ud55c\uc138\uc0c1", "addr": "\ubd80\uc0b0\uad11\uc5ed\uc2dc \uc218\uc601\uad6c \uc88c\uc218\uc601\ub85c 204", "lat": "35.181885688", "lng": "129.11645700"}, {"statNm": "\ubd80\uc0b0\uc5f0\uc81c\uad6c \uc544\uc2dc\uc544\ub4dc\ucf54\uc624\ub871\ud558\ub298\ucc441", "addr": "\ubd80\uc0b0\uad11\uc5ed\uc2dc \uc5f0\uc81c\uad6c \uc885\ud569\uc6b4\ub3d9\uc7a5\ub85c28\ubc88\uae38 7", "lat": "35.193539846", "lng": "129.06482847"}, {"statNm": "\ubd80\uc0b0\ub3d9\ub798 \uba85\ub95c\uc544\uc774\ud30c\ud06c1\ub2e8\uc9c01", "addr": "\ubd80\uc0b0\uad11\uc5ed\uc2dc \ub3d9\ub798\uad6c \uba85\ub95c\ub85c 170", "lat": "35.209950628", "lng": "129.08295471"}, {"statNm": "\ubd80\uc0b0\uc0ac\uc0c1 \uc624\uc591\ud790\ud0c0\uc6b4\uc544\ud30c\ud2b8", "addr": "\ubd80\uc0b0\uad11\uc5ed\uc2dc \uc0ac\uc0c1\uad6c \ub355\uc0c1\ub85c 8-35", "lat": "35.172103209", "lng": "128.98975287"}, {"statNm": "\ubd80\uc0b0\uac15\uc11c \uba85\uc9c0\uc911\ud765\uc5d0\uc2a4\ud074\ub798\uc2a4\ub354\ud14c\ub77c\uc2a4", "addr": "\ubd80\uc0b0\uad11\uc5ed\uc2dc \uac15\uc11c\uad6c \uba85\uc9c0\uad6d\uc81c13\ub85c38\ubc88\uae38 11", "lat": "35.109873285", "lng": "128.92367187"}, {"statNm": "\ubd80\uc0b0\uc9c4\uad6c \uc591\uc815\ub86f\ub370\uac24\ub7ec\ub9ac\uc6c01", "addr": "\ubd80\uc0b0\uad11\uc5ed\uc2dc \ubd80\uc0b0\uc9c4\uad6c \uc911\uc559\ub300\ub85c969\ubc88\uae38 11", "lat": "35.175861495", "lng": "129.07283325"}, {"statNm": "\ubd80\uc0b0\uc9c4\uad6c \ubc94\uc77c\uc5ed\ud48d\ub9bc\uc544\uc774\uc6d01", "addr": "\ubd80\uc0b0\uad11\uc5ed\uc2dc \ubd80\uc0b0\uc9c4\uad6c \ubc94\uc77c\ub85c154\ubc88\uae38 33", "lat": "35.144237482", "lng": "129.06103492"}, {"statNm": "\ubd80\uc0b0\uc0ac\uc0c1 \uc8fc\ub840\ud55c\uc77c\uc720\uc564\uc544\uc774\uc544\ud30c\ud2b8", "addr": "\ubd80\uc0b0\uad11\uc5ed\uc2dc \uc0ac\uc0c1\uad6c \ubc31\uc591\ub300\ub85c 372-15", "lat": "35.154652439", "lng": "129.01015070"}, {"statNm": "\ubd80\uc0b0\ud574\uc6b4\ub300 \uc0bc\uc815\uadf8\ub9b0\ucf54\uc544\uc544\ud30c\ud2b8", "addr": "\ubd80\uc0b0\uad11\uc5ed\uc2dc \ud574\uc6b4\ub300\uad6c \ud574\uc6b4\ub300\ub85c 777", "lat": "35.168365567", "lng": "129.17411006"}, {"statNm": "\ubd80\uc0b0\uac15\uc11c \uba85\uc9c0\ud611\uc131\ud734\ud3ec\ub808\uc544\ud30c\ud2b8", "addr": "\ubd80\uc0b0\uad11\uc5ed\uc2dc \uac15\uc11c\uad6c \uba85\uc9c0\uad6d\uc81c5\ub85c 141", "lat": "35.107530826", "lng": "128.92112015"}, {"statNm": "\ubd80\uc0b0\uc9c4\uad6c \uc11c\uba74\ud5a5\ub3c4\ud0c0\uc6cc", "addr": "\ubd80\uc0b0\uad11\uc5ed\uc2dc \ubd80\uc0b0\uc9c4\uad6c \uc2e0\uc554\ub85c 72", "lat": "35.148299025", "lng": "129.05424513"}, {"statNm": "\ubd80\uc0b0\uc0ac\uc0c1 \uac10\uc804\uc5d8\uc5d0\uc774\uce581", "addr": "\ubd80\uc0b0\uad11\uc5ed\uc2dc \uc0ac\uc0c1\uad6c \ubc31\uc591\ub300\ub85c 539", "lat": "35.155321630", "lng": "128.99424000"}, {"statNm": "\ubd80\uc0b0\uc601\ub3c4 \uacbd\uc804\uc544\ud30c\ud2b8", "addr": "\ubd80\uc0b0\uad11\uc5ed\uc2dc \uc601\ub3c4\uad6c \ub3d9\uc0bc\ub3d9\ub85c 10", "lat": "35.080896576", "lng": "129.07150197"}, {"statNm": "\ubd80\uc0b0\uc0ac\ud558 \uc2e0\uc775\uac15\ubcc0\ud0c0\uc6b4\uc544\ud30c\ud2b8", "addr": "\ubd80\uc0b0\uad11\uc5ed\uc2dc \uc0ac\ud558\uad6c \ud558\uc2e0\uc911\uc559\ub85c 180", "lat": "35.095428669", "lng": "128.96298846"}, {"statNm": "\ubd80\uc0b0\ud574\uc6b4\ub300 \uc1a1\ubcf4\uc790\uc720\uc544\ud30c\ud2b8", "addr": "\ubd80\uc0b0\uad11\uc5ed\uc2dc \ud574\uc6b4\ub300\uad6c \uc0bc\uc5b4\ub85c 95", "lat": "35.205363695", "lng": "129.11844603"}, {"statNm": "\ubd80\uc0b0\uc11c\uad6c \uc1a1\ub3c4\ud61c\uc131\ube44\uce58\ud0c0\uc6b4", "addr": "\ubd80\uc0b0\uad11\uc5ed\uc2dc \uc11c\uad6c \uc554\ub0a8\uacf5\uc6d0\ub85c 52", "lat": "35.071556495", "lng": "129.01595241"}, {"statNm": "\ubd80\uc0b0\uc0ac\uc0c1 \uc5c4\uad81\uc0bc\uc131\ud0c0\uc6cc", "addr": "\ubd80\uc0b0\uad11\uc5ed\uc2dc \uc0ac\uc0c1\uad6c \ub300\ub3d9\ub85c64\ubc88\uae38 40", "lat": "35.134902522", "lng": "128.97769271"}, {"statNm": "\ud604\ub300\uc624\uc77c\ubc45\ud06c \uc9c1\uc601 \uc13c\ud140\uc140\ud504\uc8fc\uc720\uc18c", "addr": "\ubd80\uc0b0\uad11\uc5ed\uc2dc \ud574\uc6b4\ub300\uad6c \ud574\uc6b4\ub300\ub85c 179", "lat": "35.181734", "lng": "129.123498"}, {"statNm": "IBK\uae30\uc5c5\uc740\ud589 \uc2e0\ud3c9\ub3d9", "addr": "\ubd80\uc0b0\uad11\uc5ed\uc2dc \uc0ac\ud558\uad6c \uc2e0\uc0b0\ub85c 169", "lat": "35.0901887", "lng": "128.9741642"}, {"statNm": "(\uc8fc)\ub300\uc6c5\uc2dd\ud488", "addr": "\ubd80\uc0b0\uad11\uc5ed\uc2dc \ub0a8\uad6c \uc6b0\uc554\ub85c 359", "lat": "35.1340154", "lng": "129.0663353"}, {"statNm": "\ud611\uc131\uc5e0\ud30c\uc774\uc5b4", "addr": "\ubd80\uc0b0\uad11\uc5ed\uc2dc \uc218\uc601\uad6c \uc218\uc601\ub85c588\ubc88\uae38 7", "lat": "35.158283", "lng": "129.113661"}, {"statNm": "\ubd80\uc0b0\ub354\uc0f5\uc2dc\ud2f0\uc560\ube44\ub274", "addr": "\ubd80\uc0b0\uad11\uc5ed\uc2dc \uc5f0\uc81c\uad6c \uc2dc\uccad\ub85c 6", "lat": "35.181405", "lng": "129.07653"}, {"statNm": "\ub300\uc5f0\ub86f\ub370\uce90\uc2ac", "addr": "\ubd80\uc0b0\uad11\uc5ed\uc2dc \ub0a8\uad6c \uc218\uc601\ub85c325\ubc88\uae38 61", "lat": "35.137699", "lng": "129.094583"}, {"statNm": "\uc218\uc601\ub3d9 \uc8fc\ubbfc\uc13c\ud130", "addr": "\ubd80\uc0b0\uad11\uc5ed\uc2dc \uc218\uc601\uad6c \uc218\uc601\uc131\ub85c 36", "lat": "35.170527", "lng": "129.115983"}, {"statNm": "\uad11\uc5481\ub3d9 \uc8fc\ubbfc\uc13c\ud130", "addr": "\ubd80\uc0b0\uad11\uc5ed\uc2dc \uc218\uc601\uad6c \uad11\uc77c\ub85c14\ubc88\uae38 17", "lat": "35.162909", "lng": "129.112412"}, {"statNm": "\uad11\uc5482\ub3d9 \uc8fc\ubbfc\uc13c\ud130", "addr": "\ubd80\uc0b0\uad11\uc5ed\uc2dc \uc218\uc601\uad6c \uad11\uc548\ub85c16\ubc88\uae38 22", "lat": "35.155843", "lng": "129.113764"}, {"statNm": "\uad11\uc5483\ub3d9 \uc8fc\ubbfc\uc13c\ud130", "addr": "\ubd80\uc0b0\uad11\uc5ed\uc2dc \uc218\uc601\uad6c \ub9dd\ubbf8\ubc88\uc601\ub85c38\ubc88\uae38 103", "lat": "35.167919", "lng": "129.113599"}, {"statNm": "\ub0a8\ucc9c1\ub3d9 \uc8fc\ubbfc\uc13c\ud130", "addr": "\ubd80\uc0b0\uad11\uc5ed\uc2dc \uc218\uc601\uad6c \ub0a8\ucc9c\ub3d9\ub85c 13", "lat": "35.1426901", "lng": "129.1103299"}, {"statNm": "\ub0a8\ucc9c2\ub3d9 \uc8fc\ubbfc\uc13c\ud130", "addr": "\ubd80\uc0b0\uad11\uc5ed\uc2dc \uc218\uc601\uad6c \uad11\uc548\ud574\ubcc0\ub85c 99", "lat": "35.143831", "lng": "129.114762"}, {"statNm": "\ub9dd\ubbf82\ub3d9 \uc8fc\ubbfc\uc13c\ud130", "addr": "\ubd80\uc0b0\uad11\uc5ed\uc2dc \uc218\uc601\uad6c \uc218\ubbf8\ub85c35\ubc88\uae38 40", "lat": "35.175284", "lng": "129.11525"}, {"statNm": "\ub0a8\ucc9c\uc5d1\uc2ac\ub8e8\ud0c0\uc6cc", "addr": "\ubd80\uc0b0\uad11\uc5ed\uc2dc \uc218\uc601\uad6c \ud669\ub839\ub300\ub85c473\ubc88\uae38 15", "lat": "35.140038", "lng": "129.10649"}, {"statNm": "\uc13c\ud140E\ud3b8\ud55c\uc138\uc0c1\uc544\ud30c\ud2b8", "addr": "\ubd80\uc0b0\uad11\uc5ed\uc2dc \ud574\uc6b4\ub300\uad6c \ud574\uc6b4\ub300\ub85c76\ubc88\uae38 55", "lat": "35.1890374", "lng": "129.1174864"}, {"statNm": "\uac10\ub9cc1\ub3d9 \ud589\uc815\ubcf5\uc9c0\uc13c\ud130", "addr": "\ubd80\uc0b0\uad11\uc5ed\uc2dc \ub0a8\uad6c \uc6b0\uc554\ub85c 71-7", "lat": "35.116845", "lng": "129.08067"}, {"statNm": "\uac10\ub9cc2\ub3d9 \uc8fc\ubbfc\uc13c\ud130", "addr": "\ubd80\uc0b0\uad11\uc5ed\uc2dc \ub0a8\uad6c \uc11d\ud3ec\ub85c 32-1", "lat": "35.122522", "lng": "129.08455"}, {"statNm": "\ub300\uc5f01\ub3d9 \uc8fc\ubbfc\uc13c\ud130", "addr": "\ubd80\uc0b0\uad11\uc5ed\uc2dc \ub0a8\uad6c \uc720\uc5d4\ud3c9\ud654\ub85c 24", "lat": "35.134505", "lng": "129.093474"}, {"statNm": "\ub300\uc5f03\ub3d9 \uc8fc\ubbfc\uc13c\ud130", "addr": "\ubd80\uc0b0\uad11\uc5ed\uc2dc \ub0a8\uad6c \uc218\uc601\ub85c 345", "lat": "35.137197", "lng": "129.08533"}, {"statNm": "\ub300\uc5f04\ub3d9 \uc8fc\ubbfc\uc13c\ud130", "addr": "\ubd80\uc0b0\uad11\uc5ed\uc2dc \ub0a8\uad6c \uc11d\ud3ec\ub85c91\ubc88\uae38 96", "lat": "35.12981", "lng": "129.091431"}, {"statNm": "\ub300\uc5f05\ub3d9 \uc8fc\ubbfc\uc13c\ud130", "addr": "\ubd80\uc0b0\uad11\uc5ed\uc2dc \ub0a8\uad6c \uc9c4\ub0a8\ub85c46\ubc88\uae38 7", "lat": "35.138458", "lng": "129.09017"}, {"statNm": "\ubb38\ud6041\ub3d9 \ud589\uc815\ubcf5\uc9c0\uc13c\ud130", "addr": "\ubd80\uc0b0\uad11\uc5ed\uc2dc \ub0a8\uad6c \uace0\ub3d9\uace8\ub85c60\ubc88\uae38 1", "lat": "35.142533", "lng": "129.071337"}, {"statNm": "\ubb38\ud6042\ub3d9 \uc8fc\ubbfc\uc13c\ud130", "addr": "\ubd80\uc0b0\uad11\uc5ed\uc2dc \ub0a8\uad6c \uc804\ud3ec\ub300\ub85c92\ubc88\uae38 31-7", "lat": "35.145277", "lng": "129.068703"}, {"statNm": "\ubb38\ud6043\ub3d9 \uc8fc\ubbfc\uc13c\ud130", "addr": "\ubd80\uc0b0\uad11\uc5ed\uc2dc \ub0a8\uad6c \uace0\ub3d9\uace8\ub85c4\ubc88\uae38 7-18", "lat": "35.145277", "lng": "129.068703"}, {"statNm": "\uc6a9\ub2f9\ub3d9 \uc8fc\ubbfc\uc13c\ud130", "addr": "\ubd80\uc0b0\uad11\uc5ed\uc2dc \ub0a8\uad6c \uc2e0\uc120\ub85c 349-4", "lat": "35.117654", "lng": "129.095069"}, {"statNm": "\uc6a9\ud6381\ub3d9 \ud589\uc815\ubcf5\uc9c0\uc13c\ud130", "addr": "\ubd80\uc0b0\uad11\uc5ed\uc2dc \ub0a8\uad6c \uc6a9\ud638\ub85c42\ubc88\uae38 140", "lat": "35.120792", "lng": "129.109057"}, {"statNm": "\uc6a9\ud6382\ub3d9 \uc8fc\ubbfc\uc13c\ud130", "addr": "\ubd80\uc0b0\uad11\uc5ed\uc2dc \ub0a8\uad6c \uc6a9\ud638\ub85c197\ubc88\uae38 41", "lat": "35.114834", "lng": "129.113443"}, {"statNm": "\uc6a9\ud6383\ub3d9 \ud589\uc815\ubcf5\uc9c0\uc13c\ud130", "addr": "\ubd80\uc0b0\uad11\uc5ed\uc2dc \ub0a8\uad6c \ub3d9\uba85\ub85c145\ubc88\uae38 33", "lat": "35.121022", "lng": "129.112824"}, {"statNm": "\uc6a9\ud6384\ub3d9 \uc8fc\ubbfc\uc13c\ud130", "addr": "\ubd80\uc0b0\uad11\uc5ed\uc2dc \ub0a8\uad6c \uc6a9\ud638\ub85c216\ubc88\uae38 10", "lat": "35.113213", "lng": "129.110416"}, {"statNm": "\uc6b0\uc554\ub3d9 \ud589\uc815\ubcf5\uc9c0\uc13c\ud130", "addr": "\ubd80\uc0b0\uad11\uc5ed\uc2dc \ub0a8\uad6c \uc6b0\uc554\ub85c 190-15", "lat": "35.125002", "lng": "129.075866"}, {"statNm": "\uac15\uc11c\ud574\uc218\uc628\ucc9c", "addr": "\ubd80\uc0b0\uad11\uc5ed\uc2dc \uac15\uc11c\uad6c \uc81c\ub3c4\ub85c 965", "lat": "35.1983771", "lng": "128.9254141"}, {"statNm": "\ubd80\uc0b0\uc9c4\uc2dc\uc7a5 \uc8fc\ucc28\ube4c\ub529", "addr": "\ubd80\uc0b0\uad11\uc5ed\uc2dc \ub3d9\uad6c \uc9c4\uc2dc\uc7a5\ub85c 13", "lat": "35.13757", "lng": "129.058083"}, {"statNm": "\uc815\uad00\uc2e0\ub3d9\uc544\ud30c\ubc00\ub9ac\uc5d0", "addr": "\ubd80\uc0b0\uad11\uc5ed\uc2dc \uae30\uc7a5\uad70 \uc815\uad00\uc74d \uc815\uad005\ub85c 75", "lat": "35.325924", "lng": "129.1761"}, {"statNm": "\uba85\ub95c\ub3d9\uc544\uc774\ud30c\ud06c1\ucc28 2\ub2e8\uc9c0", "addr": "\ubd80\uc0b0\uad11\uc5ed\uc2dc \ub3d9\ub798\uad6c \ub3d9\ub798\ub85c 117", "lat": "35.2057838", "lng": "129.0864767"}, {"statNm": "\ub300\uc5f0\uadf8\ub9b0\ub9e8\uc158", "addr": "\ubd80\uc0b0\uad11\uc5ed\uc2dc \ub0a8\uad6c \ubabb\uace8\ubc88\uc601\ub85c66\ubc88\uae38 69", "lat": "35.141287", "lng": "129.092569"}, {"statNm": "\ubd80\uc0b0\uc601\ub3c4\ubcbd\uc0b0\ube44\uce58\ud0c0\uc6b4", "addr": "\ubd80\uc0b0\uad11\uc5ed\uc2dc \uc601\ub3c4\uad6c \uc640\uce58\ub85c 266", "lat": "35.075075", "lng": "129.069899"}, {"statNm": "\ud638\ud154 \uc544\ucfe0\uc544\ud330\ub9ac\uc2a4", "addr": "\ubd80\uc0b0\uad11\uc5ed\uc2dc \uc218\uc601\uad6c \uad11\uc548\ud574\ubcc0\ub85c 225 (\uad11\uc548\ub3d9)", "lat": "35.1540403", "lng": "129.1187635"}, {"statNm": "\ud574\uc6b4\ub300 \ub450\uc0b0\uc704\ube0c\uc81c\ub2c8\uc2a4", "addr": "\ubd80\uc0b0\uad11\uc5ed\uc2dc \ud574\uc6b4\ub300\uad6c \ub9c8\ub9b0\uc2dc\ud2f02\ub85c 33", "lat": "35.156667", "lng": "129.145091"}, {"statNm": "\uc815\uad00\ub3d9\uc77c\uc2a4\uc704\ud2b83\ucc28\uc544\ud30c\ud2b8", "addr": "\ubd80\uc0b0\uad11\uc5ed\uc2dc \uae30\uc7a5\uad70 \uc815\uad00\uc74d \ubaa8\uc8041\uae38 9", "lat": "35.3372491", "lng": "129.1646067"}, {"statNm": "\ubd80\uc0b0\uc815\uad00 \uc774\uc9c4\uce90\uc2a4\ube4c", "addr": "\ubd80\uc0b0\uad11\uc5ed\uc2dc \uae30\uc7a5\uad70 \uc7a5\uc548\uc74d \uc815\uad00\ub85c 545", "lat": "35.3222226", "lng": "129.1748234"}, {"statNm": "\ubc31\uc591\ud478\ub978\ucc44\uc544\ud30c\ud2b8", "addr": "\ubd80\uc0b0\uad11\uc5ed\uc2dc \ubd80\uc0b0\uc9c4\uad6c \ubc31\uc591\uc0b0\ub85c53\ubc88\uae38 62", "lat": "35.1722973", "lng": "129.0254561"}, {"statNm": "\uc131\uc644\uc138\ub760\uc559\uc544\ud30c\ud2b8", "addr": "\ubd80\uc0b0\uad11\uc5ed\uc2dc \ub3d9\ub798\uad6c \ucda9\ub82c\ub300\ub85c238\ubc88\uae38 7", "lat": "35.2010602", "lng": "129.0854975"}, {"statNm": "\ud574\uc6b4\ub300\ud790\uc2a4\ud14c\uc774\ud2b8\uc704\ube0c\uc544\ud30c\ud2b8", "addr": "\ubd80\uc0b0\uad11\uc5ed\uc2dc \ud574\uc6b4\ub300\uad6c \uc88c\ub3d9\uc21c\ud658\ub85c433\ubc88\uae38 30", "lat": "35.1608256", "lng": "129.1777551"}, {"statNm": "\uad11\uc548\uc5ed\uc131\uc6d0\uc0c1\ub5bc\ube4c", "addr": "\ubd80\uc0b0\uad11\uc5ed\uc2dc \uc218\uc601\uad6c \uc218\uc601\ub85c582\ubc88\uae38 10", "lat": "35.1574478", "lng": "129.1135508"}, {"statNm": "\uba85\uc9c0\ub450\uc0b0\uc704\ube0c\ud3ec\uc138\uc774\ub3c8", "addr": "\ubd80\uc0b0\uad11\uc5ed\uc2dc \uac15\uc11c\uad6c \uba85\uc9c0\uc624\uc158\uc2dc\ud2f011\ub85c 22", "lat": "35.0830832", "lng": "128.897799"}, {"statNm": "\ubbfc\ub77d\ub3d9 \uc8fc\ubbfc\uc13c\ud130", "addr": "\ubd80\uc0b0\uad11\uc5ed\uc2dc \uc218\uc601\uad6c \uad11\uc548\ud574\ubcc0\ub85c295\ubc88\uae38 20", "lat": "35.157347", "lng": "129.125421"}, {"statNm": "\uae08\uace1\uc720\ub9bc1\ucc28\uc544\ud30c\ud2b8", "addr": "\ubd80\uc0b0\uad11\uc5ed\uc2dc \ubd81\uad6c \uae08\uace1\ub300\ub85c470\ubc88\uae38 33", "lat": "35.25191", "lng": "129.01342"}, {"statNm": "\uc5d0\uc774\uc2a4\ud558\uc774\ud14c\ud06c21", "addr": "\ubd80\uc0b0\uad11\uc5ed\uc2dc \ud574\uc6b4\ub300\uad6c \uc13c\ud140\uc911\uc559\ub85c 48", "lat": "35.172959", "lng": "129.1298747"}, {"statNm": "\uae08\uace1\uc8fc\uacf55\ub2e8\uc9c0", "addr": "\ubd80\uc0b0\uad11\uc5ed\uc2dc \ubd81\uad6c \ud6a8\uc5f4\ub85c37\ubc88\uae38 22", "lat": "35.2504488", "lng": "129.0135163"}, {"statNm": "\ub300\ub3c4\ub77c\uc774\ud504\ud0c0\uc6b4", "addr": "\ubd80\uc0b0\uad11\uc5ed\uc2dc \ub0a8\uad6c \uc218\uc601\ub85c39\ubc88\uac00\uae38 83", "lat": "35.1388862", "lng": "129.0765555"}, {"statNm": "\ubd80\uc0b0\uad00\uad11\ud638\ud154", "addr": "\ubd80\uc0b0\uad11\uc5ed\uc2dc \uc911\uad6c \uad11\ubcf5\ub85c97\ubc88\uae38 23", "lat": "35.1002949", "lng": "129.0346495"}, {"statNm": "\uae08\uac15\ubd80\uad11\uc544\ud30c\ud2b8", "addr": "\ubd80\uc0b0\uad11\uc5ed\uc2dc \uae08\uc815\uad6c \uae08\uc0d8\ub85c229\ubc88\uae38 29", "lat": "35.2458902", "lng": "129.0836686"}, {"statNm": "\ubc31\uc591\uc0b0\uc30d\uc6a9\uc2a4\uc717\ub2f7\ud648", "addr": "\ubd80\uc0b0\uad11\uc5ed\uc2dc \ubd80\uc0b0\uc9c4\uad6c \ubc31\uc591\uc0b0\ub85c 70", "lat": "35.175575", "lng": "129.0315292"}, {"statNm": "\ud55c\ud654\uafc8\uc5d0\uadf8\ub9b0\uc13c\ud140", "addr": "\ubd80\uc0b0\uad11\uc5ed\uc2dc \ud574\uc6b4\ub300\uad6c \uc13c\ud140\ub3d9\ub85c 26", "lat": "35.17185", "lng": "129.13273"}, {"statNm": "\ub300\uc815\uc804\ub825", "addr": "\ubd80\uc0b0\uad11\uc5ed\uc2dc \ubd81\uad6c \ud654\uba85\ub300\ub85c 5", "lat": "35.2360704", "lng": "129.0090372"}, {"statNm": "\uba85\uc9c0\uadf9\ub3d9\uc2a4\ud0c0\ud074\ub798\uc2a4", "addr": "\ubd80\uc0b0\uad11\uc5ed\uc2dc \uac15\uc11c\uad6c \uba85\uc9c0\uc624\uc158\uc2dc\ud2f02\ub85c 71", "lat": "35.083953349", "lng": "128.89998773"}, {"statNm": "\uc601\ub3c4\uc13c\ud2b8\ub7f4\uc608\uc77c\ub9b0\uc758\ub730", "addr": "\ubd80\uc0b0\uad11\uc5ed\uc2dc \uc601\ub3c4\uad6c \ud0dc\uc885\ub85c 172", "lat": "35.093569622", "lng": "129.04748302"}, {"statNm": "\uc88c\ucc9c\uc11c\ub9b0\uc5d8\ub9c8\ub974\ub354\ubdf0\uc544\ud30c\ud2b8", "addr": "\ubd80\uc0b0\uad11\uc5ed\uc2dc \ub3d9\uad6c \ub9dd\uc591\ub85c 850", "lat": "35.135841135", "lng": "129.04739977"}, {"statNm": "\uae08\ud638\uc5b4\uc6b8\ub9bc\uc544\ud30c\ud2b8", "addr": "\ubd80\uc0b0\uad11\uc5ed\uc2dc \ud574\uc6b4\ub300\uad6c \uc88c\ub3d9\uc21c\ud658\ub85c 480", "lat": "35.164080081", "lng": "129.17007783"}, {"statNm": "\uc624\uc158\ube0c\ub9bf\uc9c0", "addr": "\ubd80\uc0b0\uad11\uc5ed\uc2dc \ub3d9\uad6c \ubc94\uc77c\ub85c 41", "lat": "35.133449288", "lng": "129.05907917"}, {"statNm": "\uc591\uc815\ud038\uc988\ud330\ub9ac\uc2a4", "addr": "\ubd80\uc0b0\uad11\uc5ed\uc2dc \ubd80\uc0b0\uc9c4\uad6c \uac70\uc81c\ub300\ub85c48\ubc88\uae38 20", "lat": "35.172677028", "lng": "129.06847806"}, {"statNm": "\ud574\ud53c\ud22c\ubaa8\ub85c\uc6b0\uc544\ud30c\ud2b8", "addr": "\ubd80\uc0b0\uad11\uc5ed\uc2dc \ubd81\uad6c \ub099\ub3d9\ubd81\ub85c 692", "lat": "35.200079416", "lng": "128.99940778"}, {"statNm": "\uc88c\ucc9c\ub3d9\uc6d0\ub4dc\ub9bc\ud0c0\uc6b4", "addr": "\ubd80\uc0b0\uad11\uc5ed\uc2dc \ub3d9\uad6c \uace0\uad00\ub85c 173", "lat": "35.132612445", "lng": "129.05139952"}, {"statNm": "\uc218\uc815\uac15\ubcc0\ud0c0\uc6b4", "addr": "\ubd80\uc0b0\uad11\uc5ed\uc2dc \ubd81\uad6c \ud559\uc0ac\ub85c17\ubc88\uae38 31", "lat": "35.221324432", "lng": "129.00601212"}, {"statNm": "\ud574\uc6b4\ub300\ub86f\ub3703\ucc28", "addr": "\ubd80\uc0b0\uad11\uc5ed\uc2dc \ud574\uc6b4\ub300\uad6c \uc138\uc2e4\ub85c 138", "lat": "35.176668794", "lng": "129.17736149"}, {"statNm": "\ud574\uc6b4\ub300\uba54\ud2b8\ub85c\ud558\uc774\uce20", "addr": "\ubd80\uc0b0\uad11\uc5ed\uc2dc \ud574\uc6b4\ub300\uad6c \uc88c\ub3d9\uc21c\ud658\ub85c8\ubc88\uae38 78", "lat": "35.169654205", "lng": "129.17076954"}, {"statNm": "\ub0a8\uc0c1\uc120\ud30c\ud06c\ud0c0\uc6b4 2\ucc28", "addr": "\ubd80\uc0b0\uad11\uc5ed\uc2dc \ud574\uc6b4\ub300\uad6c \uc7ac\uc1a12\ub85c23\ubc88\uae38 36", "lat": "35.192763095", "lng": "129.13202579"}, {"statNm": "\uac1c\uae08\ucf54\uc544\ud330\ub9ac\uc2a4", "addr": "\ubd80\uc0b0\uad11\uc5ed\uc2dc \ubd80\uc0b0\uc9c4\uad6c \uac1c\uae08\uc628\uc815\ub85c 6-1", "lat": "35.153981064", "lng": "129.02564155"}, {"statNm": "\uc911\uc559\ud558\uc774\uce20 2\ucc28", "addr": "\ubd80\uc0b0\uad11\uc5ed\uc2dc \ub3d9\ub798\uad6c \uc548\ub0a8\ub85c 36", "lat": "35.194220779", "lng": "129.09577556"}, {"statNm": "\ub3d9\ub798\ud654\uc2e0\ud0c0\uc6b4", "addr": "\ubd80\uc0b0\uad11\uc5ed\uc2dc \uc5f0\uc81c\uad6c \uc628\ucc9c\ucc9c\uacf5\uc6d0\uae38 74", "lat": "35.192882518", "lng": "129.08965373"}, {"statNm": "\uc77c\uad11\uc2e0\ub3c4\uc2dc \ube44\uc2a4\ud0c0\ub3d9\uc6d02\ucc28", "addr": "\ubd80\uc0b0\uad11\uc5ed\uc2dc \uae30\uc7a5\uad70 \uc77c\uad11\uc74d \ud574\uc1a11\ub85c 33", "lat": "35.268642509", "lng": "129.23006623"}, {"statNm": "\uc13c\ud140\uadf8\ub9b0\ud0c0\uc6cc", "addr": "\ubd80\uc0b0\uad11\uc5ed\uc2dc \ud574\uc6b4\ub300\uad6c \uc13c\ud140\uc911\uc559\ub85c 78", "lat": "35.174622739", "lng": "129.12700707"}, {"statNm": "\uc5f0\uc9c0\uc790\uc7742\ucc28", "addr": "\ubd80\uc0b0\uad11\uc5ed\uc2dc \ubd80\uc0b0\uc9c4\uad6c \ucd08\uc5f0\ub85c 11", "lat": "35.173834016", "lng": "129.04836188"}, {"statNm": "\ub2f9\uac10\ub3d9\uc6d0\ud0c0\uc6cc", "addr": "\ubd80\uc0b0\uad11\uc5ed\uc2dc \ubd80\uc0b0\uc9c4\uad6c \ub3d9\ud3c9\ub85c 16", "lat": "35.164231857", "lng": "129.03169860"}, {"statNm": "\ud574\uc6b4\ub300\ub450\uc0b02\ucc28\uc544\ud30c\ud2b8", "addr": "\ubd80\uc0b0\uad11\uc5ed\uc2dc \ud574\uc6b4\ub300\uad6c \ub300\ucc9c\ub85c 225", "lat": "35.169092931", "lng": "129.17995095"},