[{"statNm": "\uc785\uc7a5\ud734\uac8c\uc18c(\uc11c\uc6b8\ubc29\ud5a5)", "addr": "\ucda9\uccad\ub0a8\ub3c4 \ucc9c\uc548\uc2dc \uc11c\ubd81\uad6c \uc785\uc7a5\uba74 \uc5f0\uace1\uae38 407", "lat": "36.9428836", "lng": "127.1941661"}, {"statNm": "\ucc9c\uc548\ud734\uac8c\uc18c(\ubd80\uc0b0\ubc29\ud5a5)", "addr": "\ucda9\uccad\ub0a8\ub3c4 \ucc9c\uc548\uc2dc \ub3d9\ub0a8\uad6c \uc218\uc2e0\uba74 \uc131\ub0a8\ub85c 793-40", "lat": "36.7304441", "lng": "127.2629759"}, {"statNm": "\uc815\uc548\ud734\uac8c\uc18c(\ucc9c\uc548\ubc29\ud5a5)", "addr": "\ucda9\uccad\ub0a8\ub3c4 \uacf5\uc8fc\uc2dc \uc815\uc548\uba74 \uc7a5\uc6d0\uc7a5\uc790\uc6b8\uae38 73-47", "lat": "36.5685878", "lng": "127.1144045"}, {"statNm": "\uc774\uc778\ud734\uac8c\uc18c(\ucc9c\uc548\ubc29\ud5a5)", "addr": "\ucda9\uccad\ub0a8\ub3c4 \uacf5\uc8fc\uc2dc \uc774\uc778\uba74 \uc774\uc778\ub9ac", "lat": "36.3520509", "lng": "127.0692232"}, {"statNm": "\ud0c4\ucc9c\ud734\uac8c\uc18c(\ub17c\uc0b0\ubc29\ud5a5)", "addr": "\ucda9\uccad\ub0a8\ub3c4 \uacf5\uc8fc\uc2dc \ud0c4\ucc9c\uba74 \uc7a5\uc120\ub9ac 151-6", "lat": "36.3200333", "lng": "127.0705915"}, {"statNm": "\uc815\uc548\ud734\uac8c\uc18c(\uc21c\ucc9c\ubc29\ud5a5)", "addr": "\ucda9\uccad\ub0a8\ub3c4 \uacf5\uc8fc\uc2dc \uc815\uc548\uba74 \uc11d\uc1a1\ub9ac", "lat": "36.5717709", "lng": "127.1127178"}, {"statNm": "\uc544\ud2b8\uc13c\ud130 \uace0\ub9c8", "addr": "\ucda9\uccad\ub0a8\ub3c4 \uacf5\uc8fc\uc2dc \uc6c5\uc9c4\ub3d9 354-6", "lat": "36.466735", "lng": "127.109715"}, {"statNm": "\ub454\ud3ec\uba74\uc0ac\ubb34\uc18c", "addr": "\ucda9\uccad\ub0a8\ub3c4 \uc544\uc0b0\uc2dc \ub454\ud3ec\uba74 \ub454\ud3ec\ub9ac 461-11", "lat": "36.92976", "lng": "127.037976"}, {"statNm": "\uc9c0\uace1\uba74 \uacf5\uc601\uc8fc\ucc28\uc7a5", "addr": "\ucda9\uccad\ub0a8\ub3c4 \uc11c\uc0b0\uc2dc \uc9c0\uace1\uba74 \ud654\ucc9c\ub9ac 1301-17", "lat": "36.86375", "lng": "126.434241"}, {"statNm": "\ubc8c\uace1\ud734\uac8c\uc18c(\ub300\uc804\ubc29\ud5a5)", "addr": "\ucda9\uccad\ub0a8\ub3c4 \ub17c\uc0b0\uc2dc \ubc8c\uace1\uba74 \uc591\uc0b0\ub9ac", "lat": "36.210813", "lng": "127.2704991"}, {"statNm": "\uc5c4\uc0ac\uc0c1\uc810\uac00 \uacf5\uc601\uc8fc\ucc28\uc7a5", "addr": "\ucda9\uccad\ub0a8\ub3c4 \uacc4\ub8e1\uc2dc \uc5c4\uc0ac\uba74 \uc5c4\uc0ac\ub9ac 181-3", "lat": "36.289045", "lng": "127.242876"}, {"statNm": "\uba74\ucc9c\uba74\uc0ac\ubb34\uc18c", "addr": "\ucda9\uccad\ub0a8\ub3c4 \ub2f9\uc9c4\uc2dc \uba74\ucc9c\ub85c 623", "lat": "36.8162641", "lng": "126.66494"}, {"statNm": "\ud589\ub2f4\ub3c4\ud734\uac8c\uc18c(\uc11c\uc6b8\ubc29\ud5a5)", "addr": "\ucda9\uccad\ub0a8\ub3c4 \ub2f9\uc9c4\uc2dc \uc2e0\ud3c9\uba74 \uc11c\ud574\uc548\uace0\uc18d\ub3c4\ub85c 275,", "lat": "36.943895", "lng": "126.806949"}, {"statNm": "\uc778\uc0bc\ub79c\ub4dc\ud734\uac8c\uc18c(\ud558\ub0a8\ubc29\ud5a5)", "addr": "\ucda9\uccad\ub0a8\ub3c4 \uae08\uc0b0\uad70 \uad70\ubd81\uba74 \ub300\uc554\uae38 34-30", "lat": "36.1551665", "lng": "127.4962759"}, {"statNm": "\uc778\uc0bc\ub79c\ub4dc\ud734\uac8c\uc18c(\ud1b5\uc601\ubc29\ud5a5)", "addr": "\ucda9\uccad\ub0a8\ub3c4 \uae08\uc0b0\uad70 \uad70\ubd81\uba74 \uc5b4\ud544\uac01\ub85c 300", "lat": "36.1537077", "lng": "127.4951731"}, {"statNm": "\uae08\uc0b0\uad70\uccad", "addr": "\ucda9\uccad\ub0a8\ub3c4 \uae08\uc0b0\uad70 \uae08\uc0b0\uc74d \uad70\uccad\uae38 13", "lat": "36.108708", "lng": "127.486678"}, {"statNm": "\ubd80\uc5ec\ubc31\uc81c\ud734\uac8c\uc18c(\uacf5\uc8fc\ubc29\ud5a5)", "addr": "\ucda9\uccad\ub0a8\ub3c4 \ubd80\uc5ec\uad70 \ub0b4\uc0b0\uba74 \uc11c\ucc9c\uacf5\uc8fc\uace0\uc18d\ub3c4\ub85c 26", "lat": "36.2590649", "lng": "126.8002163"}, {"statNm": "\ubd80\uc5ec\ubc31\uc81c\ud734\uac8c\uc18c(\uc11c\ucc9c\ubc29\ud5a5)", "addr": "\ucda9\uccad\ub0a8\ub3c4 \ubd80\uc5ec\uad70 \ub0b4\uc0b0\uba74 \uc11c\ucc9c\uacf5\uc8fc\uace0\uc18d\ub3c4\ub85c 25", "lat": "36.2571854", "lng": "126.7959141"}, {"statNm": "\ub3d9\ubd80\uc5ec\uc11d\uc131\ud734\uac8c\uc18c", "addr": "\ucda9\uccad\ub0a8\ub3c4 \ubd80\uc5ec\uad70 \uc11d\uc131\uba74 \ub300\ubc31\uc81c\ub85c 3050", "lat": "36.252312", "lng": "126.980859"}, {"statNm": "\uc11c\uba74\uc0ac\ubb34\uc18c", "addr": "\ucda9\uccad\ub0a8\ub3c4 \uc11c\ucc9c\uad70 \uc11c\uba74 \uc11c\uc778\ub85c 761", "lat": "36.15276", "lng": "126.549804"}, {"statNm": "\uccad\uc591\uc74d\uc0ac\ubb34\uc18c \uc55e \uacf5\uc601\uc8fc\ucc28\uc7a5", "addr": "\ucda9\uccad\ub0a8\ub3c4 \uccad\uc591\uad70 \uccad\uc591\uc74d \uce60\uac11\uc0b0\ub85c6\uae38 28", "lat": "36.448522", "lng": "126.801788"}, {"statNm": "\uc815\uc0b0\uba74\uc0ac\ubb34\uc18c", "addr": "\ucda9\uccad\ub0a8\ub3c4 \uccad\uc591\uad70 \uc815\uc0b0\uba74 \uce60\uac11\uc0b0\ub85c 1857", "lat": "36.414679", "lng": "126.944913"}, {"statNm": "\ud64d\uc8fc\uc885\ud569\uacbd\uae30\uc7a5", "addr": "\ucda9\uccad\ub0a8\ub3c4 \ud64d\uc131\uad70 \ud64d\uc131\uc74d \uc18c\ud5a5\ub9ac 397-118", "lat": "36.606382", "lng": "126.64192"}, {"statNm": "\uad11\ucc9c\uc0dd\ud65c\uccb4\uc721\uacf5\uc6d0", "addr": "\ucda9\uccad\ub0a8\ub3c4 \ud64d\uc131\uad70 \uad11\ucc9c\uc74d \ud64d\ub0a8\ub85c 764-42", "lat": "36.508184", "lng": "126.635298"}, {"statNm": "\uc608\uc0b0\ubcf5\ud569\ubb38\ud654\ubcf5\uc9c0\uc13c\ud130", "addr": "\ucda9\uccad\ub0a8\ub3c4 \uc608\uc0b0\uad70 \uc608\uc0b0\uc74d \uc11d\uc591\ub9ac 213-2", "lat": "36.6999594", "lng": "126.8407188"}, {"statNm": "\ub0a8\uba74\uc0ac\ubb34\uc18c", "addr": "\ucda9\uccad\ub0a8\ub3c4 \ud0dc\uc548\uad70 \ub0a8\uba74 \ub2ec\uc0b0\ub9ac 1179", "lat": "36.671559", "lng": "126.298053"}, {"statNm": "\ud0dc\uc548\uc0c1\uc124\uc2dc\uc7a5 \uacf5\uc601\uc8fc\ucc28\uc7a5", "addr": "\ucda9\uccad\ub0a8\ub3c4 \ud0dc\uc548\uad70 \ud0dc\uc548\uc74d \ub3d9\ubc31\ub85c 251", "lat": "36.751056", "lng": "126.2987644"}, {"statNm": "\ub86f\ub370\ub9c8\ud2b8 \ub2f9\uc9c4\uc810", "addr": "\ucda9\uccad\ub0a8\ub3c4 \ub2f9\uc9c4\uc2dc \uc815\uc548\ub85c 20", "lat": "36.905631", "lng": "126.645898"}, {"statNm": "\uc0bc\ubd094\ub9ac\uc0ac\ubb34\uc18c", "addr": "\ucda9\uccad\ub0a8\ub3c4 \ub2f9\uc9c4\uc2dc \uc11d\ubb38\uba74 \ub300\ud638\ub9cc\ub85c 1736-7", "lat": "37.013251", "lng": "126.537678"}, {"statNm": "\ub17c\uc0b0\uc2dc\uccad \uc55e \uacf5\uc601\uc8fc\ucc28\uc7a5", "addr": "\ucda9\uccad\ub0a8\ub3c4 \ub17c\uc0b0\uc2dc \ub0b4\ub3d9 825", "lat": "36.1860835", "lng": "127.0993556"}, {"statNm": "\uad6d\ub9bd\uc0dd\ud0dc\uc6d0 \uc815\ubb38 \uc8fc\ucc28\uc7a5", "addr": "\ucda9\uccad\ub0a8\ub3c4 \uc11c\ucc9c\uad70 \ub9c8\uc11c\uba74 \uc1a1\ub0b4\ub9ac 758", "lat": "36.027168", "lng": "126.7215749"}, {"statNm": "\ucc9c\uc548\ud734\uac8c\uc18c(\uc11c\uc6b8\ubc29\ud5a5)", "addr": "\ucda9\uccad\ub0a8\ub3c4 \ucc9c\uc548\uc2dc \ub3d9\ub0a8\uad6c \uc27c1\uae38 42 (\uc0bc\ub8e1\ub3d9)173-1", "lat": "36.7882107", "lng": "127.1735101"}, {"statNm": "\ub300\ucc9c\ud734\uac8c\uc18c(\ubaa9\ud3ec\ubc29\ud5a5)", "addr": "\ucda9\uccad\ub0a8\ub3c4 \ubcf4\ub839\uc2dc \uc8fc\uad50\uba74 \uc11c\ud574\uc548\uace0\uc18d\ub3c4\ub85c 199 (\uc8fc\uad50\ub9ac)", "lat": "36.3729958", "lng": "126.5563709"}, {"statNm": "\ub300\ucc9c\ud734\uac8c\uc18c(\uc2dc\ud765\ubc29\ud5a5)", "addr": "\ucda9\uccad\ub0a8\ub3c4 \ubcf4\ub839\uc2dc \uc8fc\uad50\uba74 \uc11c\ud574\uc548\uace0\uc18d\ub3c4\ub85c 200 (\uc8fc\uad50\ub9ac)", "lat": "36.3737327", "lng": "126.557557"}, {"statNm": "\uc11c\uc0b0\ud734\uac8c\uc18c(\uc2dc\ud765\ubc29\ud5a5)", "addr": "\ucda9\uccad\ub0a8\ub3c4 \uc11c\uc0b0\uc2dc \ud574\ubbf8\uba74 \uc11c\ud574\uc548\uace0\uc18d\ub3c4\ub85c 242 (\uc0bc\uc1a1\ub9ac)", "lat": "36.7338867", "lng": "126.5670967"}, {"statNm": "\uc11c\ucc9c\ud734\uac8c\uc18c(\ubaa9\ud3ec\ubc29\ud5a5)", "addr": "\ucda9\uccad\ub0a8\ub3c4 \uc11c\ucc9c\uad70 \ube44\uc778\uba74 \uc11c\ud574\uc548\uace0\uc18d\ub3c4\ub85c 169 (\uc131\uc0b0\ub9ac)", "lat": "36.1292781", "lng": "126.6269803"}, {"statNm": "\uc11c\ucc9c\ud734\uac8c\uc18c(\uc2dc\ud765\ubc29\ud5a5)", "addr": "\ucda9\uccad\ub0a8\ub3c4 \uc11c\ucc9c\uad70 \ube44\uc778\uba74 \uc11c\ud574\uc548\uace0\uc18d\ub3c4\ub85c 168 (\uc131\uc0b0\ub9ac)", "lat": "36.1320831", "lng": "126.6275272"}, {"statNm": "\ud64d\uc131\ud734\uac8c\uc18c(\ubaa9\ud3ec\ubc29\ud5a5)", "addr": "\ucda9\uccad\ub0a8\ub3c4 \ud64d\uc131\uad70 \uc740\ud558\uba74 \uc11c\ud574\uc548\uace0\uc18d\ub3c4\ub85c 221 (\uae08\uad6d\ub9ac)", "lat": "36.5520256", "lng": "126.579626"}, {"statNm": "\ud64d\uc131\ud734\uac8c\uc18c(\uc2dc\ud765\ubc29\ud5a5)", "addr": "\ucda9\uccad\ub0a8\ub3c4 \ud64d\uc131\uad70 \uc740\ud558\uba74 \uc11c\ud574\uc548\uace0\uc18d\ub3c4\ub85c 220 (\uae08\uad6d\ub9ac)", "lat": "36.5538232", "lng": "126.5818528"}, {"statNm": "\ubc8c\uace1\ud734\uac8c\uc18c(\ub17c\uc0b0\ubc29\ud5a5)", "addr": "\ucda9\uccad\ub0a8\ub3c4 \ub17c\uc0b0\uc2dc \ubc8c\uace1\uba74 \ud638\ub0a8\uace0\uc18d\ub3c4\ub85c 2465-10 (\uc2e0\uc591\ub9ac)", "lat": "36.2175076", "lng": "127.2740754"}, {"statNm": "\uc778\uc0bc\ub79c\ub4dc\ud734\uac8c\uc18c(\ud1b5\uc601\ubc29\ud5a5)", "addr": "\ucda9\uccad\ub0a8\ub3c4 \uae08\uc0b0\uad70 \uad70\ubd81\uba74 \uc5b4\ud544\uac01\ub85c 300 (\uc678\ubd80\ub9ac)", "lat": "36.1536077", "lng": "127.4953731"}, {"statNm": "\uc778\uc0bc\ub79c\ub4dc\ud734\uac8c\uc18c(\ud558\ub0a8\ubc29\ud5a5)", "addr": "\ucda9\uccad\ub0a8\ub3c4 \uae08\uc0b0\uad70 \uad70\ubd81\uba74 \ub300\uc554\uae38 34-30 (\uc678\ubd80\ub9ac)", "lat": "36.1550665", "lng": "127.4964759"}, {"statNm": "\uacf5\uc8fc\ud734\uac8c\uc18c(\ub2f9\uc9c4\ubc29\ud5a5)", "addr": "\ucda9\uccad\ub0a8\ub3c4 \uacf5\uc8fc\uc2dc \uc758\ub2f9\uba74 \ub2f9\uc9c4\uc601\ub355\uace0\uc18d\ub3c4\ub85c 71 (\uccad\ub8e1\ub9ac)", "lat": "36.4985499", "lng": "127.1668661"}, {"statNm": "\uacf5\uc8fc\ud734\uac8c\uc18c(\ub300\uc804\ubc29\ud5a5)", "addr": "\ucda9\uccad\ub0a8\ub3c4 \uacf5\uc8fc\uc2dc \uc758\ub2f9\uba74 \ub2f9\uc9c4\uc601\ub355\uace0\uc18d\ub3c4\ub85c 72 (\uc1a1\uc120\ub3d9)", "lat": "36.4967019", "lng": "127.1662711"}, {"statNm": "\uc608\uc0b0\ud734\uac8c\uc18c(\ub2f9\uc9c4\ubc29\ud5a5)", "addr": "\ucda9\uccad\ub0a8\ub3c4 \uc608\uc0b0\uad70 \uc2e0\uc591\uba74 \ub2f9\uc9c4\uc601\ub355\uace0\uc18d\ub3c4\ub85c 33 (\uc11c\uacc4\uc591\ub9ac)", "lat": "36.6193815", "lng": "126.8465667"}, {"statNm": "\uc608\uc0b0\ud734\uac8c\uc18c(\ub300\uc804\ubc29\ud5a5)", "addr": "\ucda9\uccad\ub0a8\ub3c4 \uc608\uc0b0\uad70 \uc2e0\uc591\uba74 \ub2f9\uc9c4\uc601\ub355\uace0\uc18d\ub3c4\ub85c 34 (\uc11c\uacc4\uc591\ub9ac)", "lat": "36.6229771", "lng": "126.8402835"}, {"statNm": "\ubd80\uc5ec\ubc31\uc81c\ud734\uac8c\uc18c(\uacf5\uc8fc\ubc29\ud5a5)", "addr": "\ucda9\uccad\ub0a8\ub3c4 \ubd80\uc5ec\uad70 \ub0b4\uc0b0\uba74 \uc11c\ucc9c\uacf5\uc8fc\uace0\uc18d\ub3c4\ub85c 26 (\uc728\uc554\ub9ac)", "lat": "36.2589649", "lng": "126.8004163"}, {"statNm": "\ubd80\uc5ec\ubc31\uc81c\ud734\uac8c\uc18c(\uc11c\ucc9c\ubc29\ud5a5)", "addr": "\ucda9\uccad\ub0a8\ub3c4 \ubd80\uc5ec\uad70 \ub0b4\uc0b0\uba74 \uc11c\ucc9c\uacf5\uc8fc\uace0\uc18d\ub3c4\ub85c 25 (\uc728\uc554\ub9ac)", "lat": "36.2570854", "lng": "126.7961141"}, {"statNm": "\ub86f\ub370\ub9c8\ud2b8 \uc11c\uc0b0\uc810", "addr": "\ucda9\uccad\ub0a8\ub3c4 \uc11c\uc0b0\uc2dc \ucda9\uc758\ub85c 27 (\uc608\ucc9c\ub3d9)", "lat": "36.7727044", "lng": "126.4395537"}, {"statNm": "GS\uc7a5\ud56d\uc194\ubc14\ub78c\uc810", "addr": "\ucda9\uccad\ub0a8\ub3c4 \uc11c\ucc9c\uad70 \uc7a5\ud56d\uc74d \uc1a1\ub9bc\ub9ac 755-12", "lat": "36.024538", "lng": "126.66773"}, {"statNm": "\ud0dc\uc548\ud574\uc548\uad6d\ub9bd\uacf5\uc6d0 \uc0bc\ubd09\uc8fc\ucc28\uc7a5", "addr": "\ucda9\uccad\ub0a8\ub3c4 \ud0dc\uc548\uad70 \uc548\uba74\uc74d \ucc3d\uae30\ub9ac 1304-6", "lat": "36.570842", "lng": "126.315921"}, {"statNm": "\ud0dc\uc548\ud574\uc548\uad6d\ub9bd\uacf5\uc6d0 \ud559\uc554\ud3ec\uc57c\uc601\uc7a5", "addr": "\ucda9\uccad\ub0a8\ub3c4 \ud0dc\uc548\uad70 \uc6d0\ubd81\uba74 \ubc29\uac08\ub9ac 515-79", "lat": "36.896882", "lng": "126.206457"}, {"statNm": "\ub86f\ub370\ub9c8\ud2b8 \ucc9c\uc548\uc810", "addr": "\ucda9\uccad\ub0a8\ub3c4 \ucc9c\uc548\uc2dc \uc11c\ubd81\uad6c \uc6d4\ubd09\ub85c 95-0 (\uc30d\uc6a92\ub3d9)", "lat": "36.799709", "lng": "127.117648"}, {"statNm": "\ub86f\ub370\ub9c8\ud2b8 \ud64d\uc131\uc810", "addr": "\ucda9\uccad\ub0a8\ub3c4 \ud64d\uc131\uad70 \ud64d\uc131\uc74d \uc870\uc591\ub85c247\ubc88\uae38 9 (\uace0\uc554\ub9ac)", "lat": "36.600955", "lng": "126.676311"}, {"statNm": "\uc608\uc0b0\uad70\uccad", "addr": "\ucda9\uccad\ub0a8\ub3c4 \uc608\uc0b0\uad70 \uc608\uc0b0\uc74d \uad70\uccad\ub85c 22, \uc9c0\ud558\uc8fc\ucc28\uc7a5 \uc815\uba74", "lat": "36.6801958", "lng": "126.8453442"}, {"statNm": "\ub17c\uc0b0\uc2dc\uad6d\ubbfc\uccb4\uc721\uc13c\ud130", "addr": "\ucda9\uccad\ub0a8\ub3c4 \ub17c\uc0b0\uc2dc \ub17c\uc0b0\ub300\ub85c 382, \ub17c\uc0b0\uac74\uac15\uad00\ub9ac\uc13c\ud130 \uc606", "lat": "36.195595", "lng": "127.1023503"}, {"statNm": "\uc5f0\ubb34\ubb38\ud654\uccb4\uc721\uc13c\ud130", "addr": "\ucda9\uccad\ub0a8\ub3c4 \ub17c\uc0b0\uc2dc \uc5f0\ubb34\ub85c 166\ubc88\uae38 64, 2\uc8fc\ucc28\uc7a5", "lat": "36.1261993", "lng": "127.0959728"}, {"statNm": "\uc8fc\uad50\uba74 \ud589\uc815\ubcf5\uc9c0\uc13c\ud130", "addr": "\ucda9\uccad\ub0a8\ub3c4 \ubcf4\ub839\uc2dc \uc8fc\uad50\uba74 \uc6b8\uacc4\ud070\uae38 396", "lat": "36.3902835", "lng": "126.56861"}, {"statNm": "\ub300\ucc9c\ud574\uc218\uc695\uc7a5 \uc81c1\uc8fc\ucc28\uc7a5", "addr": "\ucda9\uccad\ub0a8\ub3c4 \ubcf4\ub839\uc2dc \uc2e0\ud751\ub3d9 1437-3", "lat": "36.3069531", "lng": "126.51994"}, {"statNm": "\uba38\ub4dc\uad11\uc7a5", "addr": "\ucda9\uccad\ub0a8\ub3c4 \ubcf4\ub839\uc2dc \uc2e0\ud751\ub3d9 2279, \uc785\uad6c \uc6b0\uce21 \uc548\ucabd", "lat": "36.3171775", "lng": "126.5135237"}, {"statNm": "\ubb34\ucc3d\ud3ec\ud574\uc218\uc695\uc7a5 \uc81c6\uacf5\uc601\uc8fc\ucc28\uc7a5", "addr": "\ucda9\uccad\ub0a8\ub3c4 \ubcf4\ub839\uc2dc \uc6c5\ucc9c\uc74d \ub3c5\uc0b0\ub9ac 784-2, \uc785\uad6c \uc88c\uce21", "lat": "36.2384111", "lng": "126.5310201"}, {"statNm": "\uc8fc\ud3ec\uba74\uc0ac\ubb34\uc18c", "addr": "\ucda9\uccad\ub0a8\ub3c4 \ubcf4\ub839\uc2dc \uc8fc\ud3ec\uba74 \ubcf4\ub839\uc74d\uc131\uae38 38-1", "lat": "36.4149256", "lng": "126.5878437"}, {"statNm": "\uc11c\ucc9c\ud2b9\ud654\uc2dc\uc7a5", "addr": "\ucda9\uccad\ub0a8\ub3c4 \uc11c\ucc9c\uad70 \uc11c\ucc9c\uc74d \uad70\uc0ac\ub9ac 703, \uc6b0\uce21 \uc8fc\ucc28\uc7a5 \uc785\uad6c", "lat": "36.0752406", "lng": "126.6858211"}, {"statNm": "\ud55c\uc0b0119\uc548\uc804\uc13c\ud130 \uacf5\uc601\uc8fc\ucc28\uc7a5", "addr": "\ucda9\uccad\ub0a8\ub3c4 \uc11c\ucc9c\uad70 \ud55c\uc0b0\uba74 \uc9c0\ud604\ub9ac 8, \uac74\ubb3c \uc6b0\uce21", "lat": "36.0836479", "lng": "126.8070099"}, {"statNm": "\ud310\uad50\uba74\ud589\uc815\ubcf5\uc9c0\uc13c\ud130", "addr": "\ucda9\uccad\ub0a8\ub3c4 \uc11c\ucc9c\uad70 \ud310\uad50\uba74 \ud604\uc554\ub9ac 183-1, \uc785\uad6c \uc88c\uce21", "lat": "36.1578447", "lng": "126.689357"}, {"statNm": "\ucc9c\uc548\ubc15\ubb3c\uad00", "addr": "\ucda9\uccad\ub0a8\ub3c4 \ucc9c\uc548\uc2dc \ub3d9\ub0a8\uad6c \uc0bc\ub8e1\ub3d9 401-17, \uc785\uad6c \uc88c\uce21 \uc8fc\ucc28\uc7a5", "lat": "36.785816", "lng": "127.1649241"}, {"statNm": "\uc11c\ubd80\ub18d\ud611 \uad11\ub9ac\uc9c0\uc810", "addr": "\ucda9\uccad\ub0a8\ub3c4 \ud64d\uc131\uad70 \uc11c\ubd80\uba74 \uc11c\ubd80\ub85c 777", "lat": "36.5978325", "lng": "126.504842"}, {"statNm": "\ucda9\uccad\ub0a8\ub3c4\uccad", "addr": "\ucda9\uccad\ub0a8\ub3c4 \ud64d\uc131\uad70 \ud64d\ubd81\uc74d \ucda9\ub0a8\ub300\ub85c 21, \uc785\uad6c \uc88c\uce21 \ub05d", "lat": "36.6579411", "lng": "126.6713469"}, {"statNm": "\ube14\ub8e8\ud578\uc988 \uc11c\uc0b0\ud604\ub300\uc11c\ube44\uc2a4", "addr": "\ucda9\uccad\ub0a8\ub3c4 \uc11c\uc0b0\uc2dc \uc218\uc11d\ub3d9 204-19", "lat": "36.7820781", "lng": "126.497637"}, {"statNm": "\ube14\ub8e8\ud578\uc988 \ubd81\ucc9c\uc548\ud604\ub300\uc11c\ube44\uc2a4", "addr": "\ucda9\uccad\ub0a8\ub3c4 \ucc9c\uc548\uc2dc \uc11c\ubd81\uad6c \uc2e0\ub2f9\uc0c8\ud130 2\uae38 28, \uce74\ud398 \uc606", "lat": "36.8510372", "lng": "127.1577098"}, {"statNm": "\ube14\ub8e8\ud578\uc988 \ub0b4\ud3ec\ud604\ub300\uc11c\ube44\uc2a4", "addr": "\ucda9\uccad\ub0a8\ub3c4 \ud64d\uc131\uad70 \ud64d\ubd81\uc74d \ud64d\ubd81\ub85c 453\ubc88\uae38 50", "lat": "36.6501521", "lng": "126.6896382"}, {"statNm": "\ube14\ub8e8\ud578\uc988 \uc624\uad00\uc810", "addr": "\ucda9\uccad\ub0a8\ub3c4 \ud64d\uc131\uad70 \ud64d\uc131\uc74d \ucda9\uc11c\ub85c 1402", "lat": "36.6006257", "lng": "126.6535383"}, {"statNm": "\ub2f9\uc9c4\ud569\ub355\uc74d\ubbfc\ud68c\uad00", "addr": "\ucda9\uccad\ub0a8\ub3c4 \ub2f9\uc9c4\uc2dc \ud569\ub355\uc74d \uc911\ubc29\ub85c 7", "lat": "36.812931", "lng": "126.765763"}, {"statNm": "\ub2f9\uc9c4\uc2dc\uccad", "addr": "\ucda9\uccad\ub0a8\ub3c4 \ub2f9\uc9c4\uc2dc \uc2dc\uccad1\ub85c 1", "lat": "36.8906781", "lng": "126.6453379"}, {"statNm": "\uc544\uc0b0\uc2dc\uccad", "addr": "\ucda9\uccad\ub0a8\ub3c4 \uc544\uc0b0\uc2dc \uc2dc\ubbfc\ub85c 456", "lat": "36.790230", "lng": "127.001773"}, {"statNm": "\ud64d\uc131\ud734\uac8c\uc18c(\uc2dc\ud765\ubc29\ud5a5)", "addr": "\ucda9\uccad\ub0a8\ub3c4 \ud64d\uc131\uad70 \uc740\ud558\uba74 \uc11c\ud574\uc548\uace0\uc18d\ub3c4\ub85c 220", "lat": "36.5539232", "lng": "126.5816528"}, {"statNm": "\ud64d\uc131\ud734\uac8c\uc18c(\ubaa9\ud3ec\ubc29\ud5a5)", "addr": "\ucda9\uccad\ub0a8\ub3c4 \ud64d\uc131\uad70 \uc740\ud558\uba74 \uc11c\ud574\uc548\uace0\uc18d\ub3c4\ub85c 221", "lat": "36.5521256", "lng": "126.579426"}, {"statNm": "\ub450\ub9c8\uba74\uc0ac\ubb34\uc18c", "addr": "\ucda9\uccad\ub0a8\ub3c4 \uacc4\ub8e1\uc2dc \ub450\ub9c8\uba74 \ud325\uac70\ub9ac2\uae38 14", "lat": "36.266718", "lng": "127.272804"}, {"statNm": "\uacf5\uc8fc\ud734\uac8c\uc18c(\ub2f9\uc9c4\ubc29\ud5a5)", "addr": "\ucda9\uccad\ub0a8\ub3c4 \uacf5\uc8fc\uc2dc \uc758\ub2f9\uba74 \ub2f9\uc9c4\uc601\ub355\uace0\uc18d\ub3c4\ub85c 71", "lat": "36.4984", "lng": "127.166516"}, {"statNm": "\uacf5\uc8fc\ud734\uac8c\uc18c(\ub300\uc804\ubc29\ud5a5)", "addr": "\ucda9\uccad\ub0a8\ub3c4 \uacf5\uc8fc\uc2dc \ub2f9\uc9c4\uc601\ub355\uace0\uc18d\ub3c4\ub85c 72", "lat": "36.496799", "lng": "127.165376"}, {"statNm": "\uc0ac\uace1\uba74\uc0ac\ubb34\uc18c", "addr": "\ucda9\uccad\ub0a8\ub3c4 \uacf5\uc8fc\uc2dc \uc0ac\uace1\uba74 \ud638\uacc4\ub9ac 309", "lat": "36.502183", "lng": "127.025549"}, {"statNm": "\uc2e0\ud48d\uba74\uc0ac\ubb34\uc18c", "addr": "\ucda9\uccad\ub0a8\ub3c4 \uacf5\uc8fc\uc2dc \uc2e0\ud48d\uba74 \uc548\ub738\uae38 14", "lat": "36.51475", "lng": "126.955752"}, {"statNm": "\ubc8c\uace1\ud734\uac8c\uc18c(\ub300\uc804\ubc29\ud5a5)", "addr": "\ucda9\uccad\ub0a8\ub3c4 \ub17c\uc0b0\uc2dc \ubc8c\uace1\uba74 \ubc8c\uace1\ub85c 9-58", "lat": "36.210963", "lng": "127.270945"}, {"statNm": "\ub2f9\uc9c4\uadfc\ub85c\uc790\ubcf5\uc9c0\ud68c\uad00", "addr": "\ucda9\uccad\ub0a8\ub3c4 \ub2f9\uc9c4\uc2dc \uc1a1\uc545\uc74d \ubd80\uace1\uacf5\ub2e84\uae38 53-13", "lat": "36.961665", "lng": "126.775816"}, {"statNm": "\uc11d\ubb38\ubb38\ud654\uc2a4\ud3ec\uce20\uc13c\ud130", "addr": "\ucda9\uccad\ub0a8\ub3c4 \ub2f9\uc9c4\uc2dc \uc11d\ubb38\uba74 \ub300\ud638\ub9cc\ub85c 1543", "lat": "37.003233", "lng": "126.553698"}, {"statNm": "\uc1a1\uc545\ubb38\ud654\uc2a4\ud3ec\uce20\uc13c\ud0c0", "addr": "\ucda9\uccad\ub0a8\ub3c4 \ub2f9\uc9c4\uc2dc \ud2c0\ubaa8\uc2dc\ub85c 830", "lat": "36.907025", "lng": "126.691711"}, {"statNm": "\uad81\ucd0c\ub3d9 \uacf5\uc601\uc8fc\ucc28\uc7a5", "addr": "\ucda9\uccad\ub0a8\ub3c4 \ubcf4\ub839\uc2dc \uad81\ucd0c\ub3d9 43-2", "lat": "36.343237", "lng": "126.596518"}, {"statNm": "\uc7a5\ud604\ubcf4\uac74\uc9c4\ub8cc\uc18c", "addr": "\ucda9\uccad\ub0a8\ub3c4 \ubcf4\ub839\uc2dc \uccad\ub77c\uba74 \uc7a5\ud604\ub9ac 760-9", "lat": "36.420434", "lng": "126.662475"}, {"statNm": "\ub300\ucc9c\ud734\uac8c\uc18c(\ubaa9\ud3ec\ubc29\ud5a5)", "addr": "\ucda9\uccad\ub0a8\ub3c4 \ubcf4\ub839\uc2dc \uc8fc\uad50\uba74 \uc11c\ud574\uc548\uace0\uc18d\ub3c4\ub85c 199", "lat": "36.373665", "lng": "126.556021"}, {"statNm": "\ub300\ucc9c\ud734\uac8c\uc18c(\uc2dc\ud765\ubc29\ud5a5)", "addr": "\ucda9\uccad\ub0a8\ub3c4 \ubcf4\ub839\uc2dc \uc8fc\uad50\uba74 \uc11c\ud574\uc548\uace0\uc18d\ub3c4\ub85c 200", "lat": "36.375302", "lng": "126.557217"}, {"statNm": "\uccad\ub77c\uba74 \uc0ac\ubb34\uc18c", "addr": "\ucda9\uccad\ub0a8\ub3c4 \ubcf4\ub839\uc2dc \uccad\ub77c\uba74 \uc6d0\ubaa8\ub8e8\uae38 219", "lat": "36.390127", "lng": "126.67353"}, {"statNm": "\uc11c\uc0b0\ud734\uac8c\uc18c(\ubaa9\ud3ec\ubc29\ud5a5)", "addr": "\ucda9\uccad\ub0a8\ub3c4 \uc11c\uc0b0\uc2dc \ud574\ubbf8\uba74 \uc11c\ud574\uc548\uace0\uc18d\ub3c4\ub85c 241", "lat": "36.742968", "lng": "126.565298"}, {"statNm": "\ubd80\uc11d\uba74\uc8fc\ubbfc\uc790\uce58\uc13c\ud130", "addr": "\ucda9\uccad\ub0a8\ub3c4 \uc11c\uc0b0\uc2dc \ubd80\uc11d\uba74 \ucde8\ud3c9\ub9ac 364-2", "lat": "36.714723", "lng": "126.393378"}, {"statNm": "\uc2dc\ucd08\uba74\uc0ac\ubb34\uc18c", "addr": "\ucda9\uccad\ub0a8\ub3c4 \uc11c\ucc9c\uad70 \uc2dc\ucd08\uba74 \uc2dc\ucd08\ubd81\ub85c 37", "lat": "36.12169", "lng": "126.752839"}, {"statNm": "\uc628\uc591\uc628\ucc9c\uc2dc\uc7a5 \uacf5\uc601\uc8fc\ucc28\ud0c0\uc6cc", "addr": "\ucda9\uccad\ub0a8\ub3c4 \uc544\uc0b0\uc2dc \ucda9\ubb34\ub85c 25(\uc628\ucc9c\ub3d9 94-10), 1\uce35", "lat": "36.783706", "lng": "127.004024"}, {"statNm": "\ud0d5\uc815\uba74\uc0ac\ubb34\uc18c", "addr": "\ucda9\uccad\ub0a8\ub3c4 \uc544\uc0b0\uc2dc \ud0d5\uc815\uba74 \ud0d5\uc815\uba74\ub85c 36", "lat": "36.798054", "lng": "127.061386"}, {"statNm": "\uc608\uc0b0\ud734\uac8c\uc18c(\ub2f9\uc9c4\ubc29\ud5a5)", "addr": "\ucda9\uccad\ub0a8\ub3c4 \uc608\uc0b0\uad70 \uc2e0\uc591\uba74 \ub2f9\uc9c4\uc601\ub355\uace0\uc18d\ub3c4\ub85c 33", "lat": "36.619441", "lng": "126.846334"}, {"statNm": "\uacc4\ub8e1\uc2dc\uccad", "addr": "\ucda9\uccad\ub0a8\ub3c4 \uacc4\ub8e1\uc2dc \uc7a5\uc548\ub85c 46", "lat": "36.273688", "lng": "127.248959"}, {"statNm": "\uc6b0\uc131\uba74\uc0ac\ubb34\uc18c", "addr": "\ucda9\uccad\ub0a8\ub3c4 \uacf5\uc8fc\uc2dc \uc6b0\uc131\uba74 \ub3d9\ub300\ub9ac\uae38 57-1", "lat": "36.47051", "lng": "127.050165"}, {"statNm": "\uae08\ud559\uc0dd\ud0dc\uacf5\uc6d0\uc8fc\ucc28\uc7a5", "addr": "\ucda9\uccad\ub0a8\ub3c4 \uacf5\uc8fc\uc2dc \uae08\ud559\ub3d9 106", "lat": "36.434666", "lng": "127.123787"}, {"statNm": "\uc885\ud569\uc0ac\ud68c\ubcf5\uc9c0\uad00", "addr": "\ucda9\uccad\ub0a8\ub3c4 \uacf5\uc8fc\uc2dc \uc758\ub2f9\uba74 \uc758\ub2f9\ub85c 257", "lat": "36.494229", "lng": "127.136309"}, {"statNm": "\uacc4\ub8e1\ub18d\ud611\ud558\ub098\ub85c\ub9c8\ud2b8", "addr": "\ucda9\uccad\ub0a8\ub3c4 \ub17c\uc0b0\uc2dc \uc5f0\uc0b0\uba74 \uccad\ub3d9\ub85c 34", "lat": "36.208811", "lng": "127.196657"}, {"statNm": "\ucc44\uc6b4\uba74\uc0ac\ubb34\uc18c", "addr": "\ucda9\uccad\ub0a8\ub3c4 \ub17c\uc0b0\uc2dc \ucc44\uc6b4\uba74 \ucc44\uc6b4\ub85c41", "lat": "36.173704", "lng": "127.062575"}, {"statNm": "\ub2f9\uc9c4\ubb38\uc608\uc758\uc804\ub2f9", "addr": "\ucda9\uccad\ub0a8\ub3c4 \ub2f9\uc9c4\uc2dc \ubb34\uc218\ub3d92\uae38 25-21", "lat": "36.890211", "lng": "126.638026"}, {"statNm": "\ub86f\ub370\ub9ac\uc870\ud2b8\ubd80\uc5ec", "addr": "\ucda9\uccad\ub0a8\ub3c4 \ubd80\uc5ec\uad70 \uaddc\uc554\uba74 \ubc31\uc81c\ubb38\ub85c 400, \uc9c0\ud5581\uce35, J", "lat": "36.303895", "lng": "126.900692"}, {"statNm": "\ubd80\uc5ec\uad70\uccad \ub4a4 \uc8fc\ucc28\uc7a5", "addr": "\ucda9\uccad\ub0a8\ub3c4 \ubd80\uc5ec\uad70 \ubd80\uc5ec\uc74d \ub3d9\ub0a8\ub9ac 732-1", "lat": "36.275198", "lng": "126.909334"}, {"statNm": "\ubc30\ubc29\uc74d \ud589\uc815\ubcf5\uc9c0\uc13c\ud130", "addr": "\ucda9\uccad\ub0a8\ub3c4 \uc544\uc0b0\uc2dc \ubc30\ubc29\uc74d \ubc30\ubc29\ub85c 38", "lat": "36.773426", "lng": "127.05331"}, {"statNm": "\uc6a9\ud654\ub3d9\uc81c2\uacf5\uc601\uc8fc\ucc28\uc7a5", "addr": "\ucda9\uccad\ub0a8\ub3c4 \uc544\uc0b0\uc2dc \uc6a9\ud654\ub3d9 1143", "lat": "36.775724", "lng": "127.010905"}, {"statNm": "\ud658\uacbd\uacfc\ud559\uacf5\uc6d0", "addr": "\ucda9\uccad\ub0a8\ub3c4 \uc544\uc0b0\uc2dc \ubc30\ubbf8\ub3d9 3-6", "lat": "36.798424", "lng": "126.976628"}, {"statNm": "\ubb38\uc131\ub3d9 \uc8fc\ubbfc\uc13c\ud130", "addr": "\ucda9\uccad\ub0a8\ub3c4 \ucc9c\uc548\uc2dc \ub3d9\ub0a8\uad6c \ubb38\ud654\ub85c 15", "lat": "36.811157", "lng": "127.150341"}, {"statNm": "\uc131\ud658\ubb38\ud654\ud68c\uad00", "addr": "\ucda9\uccad\ub0a8\ub3c4 \ucc9c\uc548\uc2dc \uc11c\ubd81\uad6c \uc131\ud658\uc74d \uc131\uc9c4\ub85c 15", "lat": "36.912085", "lng": "127.135804"}, {"statNm": "\uc2e0\ubc29\ub3d9\uc0ac\ubb34\uc18c \uc55e \uacf5\uc601\uc8fc\ucc28\uc7a5", "addr": "\ucda9\uccad\ub0a8\ub3c4 \ucc9c\uc548\uc2dc \ub3d9\ub0a8\uad6c \ucc9c\uc548\ucc9c\ubcc0\uae38 129-41", "lat": "36.786072", "lng": "127.122937"}, {"statNm": "\ucc9c\uc548\uc2dc \uc11c\ubd81\uad6c\uccad", "addr": "\ucda9\uccad\ub0a8\ub3c4 \ucc9c\uc548\uc2dc \uc11c\ubd81\uad6c \uc131\uac70\uc74d \ubd09\uc8fc\ub85c 75", "lat": "36.877727", "lng": "127.154154"}, {"statNm": "\uc54c\ud504\uc2a4\ub9c8\uc744", "addr": "\ucda9\uccad\ub0a8\ub3c4 \uccad\uc591\uad70 \uc815\uc0b0\uba74 \ucc9c\uc7a5\ud638\uae38 223-35", "lat": "36.409337", "lng": "126.914454"}, {"statNm": "\uacf5\uc8fc\uc2dc\uccad \uc8fc\ucc28\uc7a5", "addr": "\ucda9\uccad\ub0a8\ub3c4 \uacf5\uc8fc\uc2dc \ubd09\ud669\ub3d9 304-6", "lat": "36.44647", "lng": "127.119445"}, {"statNm": "\uc7a5\ud56d\uc804\ud1b5\uc2dc\uc7a5", "addr": "\ucda9\uccad\ub0a8\ub3c4 \uc11c\ucc9c\uad70 \uc7a5\ud56d\uc74d \uc131\ud654\ub85c 92", "lat": "36.016237", "lng": "126.693534"}, {"statNm": "\ucc9c\uc548\uc0c1\ub85d\ub9ac\uc870\ud2b8", "addr": "\ucda9\uccad\ub0a8\ub3c4 \ucc9c\uc548\uc2dc \ub3d9\ub0a8\uad6c \uc218\uc2e0\uba74 \uc218\uc2e0\ub85c 576", "lat": "36.742044", "lng": "127.286159"}, {"statNm": "\ub3c5\ub9bd\uae30\ub150\uad00", "addr": "\ucda9\uccad\ub0a8\ub3c4 \ucc9c\uc548\uc2dc \ub3d9\ub0a8\uad6c \ubaa9\ucc9c\uc74d \ub0a8\ud654\ub9ac 230-1", "lat": "36.778612", "lng": "127.231586"}, {"statNm": "\uc608\uc0b0\ud734\uac8c\uc18c(\ub300\uc804\ubc29\ud5a5)", "addr": "\ucda9\uccad\ub0a8\ub3c4 \uc608\uc0b0\uad70 \uc2e0\uc591\uba74 \ub2f9\uc9c4\uc601\ub355\uace0\uc18d\ub3c4\ub85c 34", "lat": "36.62409", "lng": "126.839632"}, {"statNm": "\ub355\uc0b0\uba74 \uc885\ud569\ubcf5\uc9c0\uc13c\ud130", "addr": "\ucda9\uccad\ub0a8\ub3c4 \uc608\uc0b0\uad70 \ub355\uc0b0\uba74 \uc2e0\ud3c9\ub9ac 362-8", "lat": "36.700147", "lng": "126.665731"}, {"statNm": "\uc0bd\uad50\uc74d \uad6d\ubbfc\uccb4\uc721\uc13c\ud130", "addr": "\ucda9\uccad\ub0a8\ub3c4 \uc608\uc0b0\uad70 \uc0bd\uad50\uc74d \uc2e0\uac00\uaf43\uc0b0\uc11c\uae38 115", "lat": "36.68547", "lng": "126.740149"}, {"statNm": "\uce60\uac11\uc0b0\uc790\uc5f0\ud734\uc591\ub9bc", "addr": "\ucda9\uccad\ub0a8\ub3c4 \uccad\uc591\uad70 \ub300\uce58\uba74 \uce60\uac11\uc0b0\ub85c 668-103", "lat": "36.432352", "lng": "126.844029"}, {"statNm": "\ubaa8\uc885\ub3d9 \uc81c1\uacf5\uc601\uc8fc\ucc28\uc7a5", "addr": "\ucda9\uccad\ub0a8\ub3c4 \uc544\uc0b0\uc2dc \ubaa8\uc885\ub3d9 562-4", "lat": "36.784045", "lng": "127.013232"}, {"statNm": "\uc778\uc8fc\uba74 \uac78\ub9e4\ub9ac \uc81c3\uacf5\uc601\uc8fc\ucc28\uc7a5", "addr": "\ucda9\uccad\ub0a8\ub3c4 \uc544\uc0b0\uc2dc \uc778\uc8fc\uba74 \uac78\ub9e4\ub9ac 1049", "lat": "36.872926", "lng": "126.879815"}, {"statNm": "\uc774\uc778\ud734\uac8c\uc18c(\ucc9c\uc548\ubc29\ud5a5)", "addr": "\ucda9\uccad\ub0a8\ub3c4 \uacf5\uc8fc\uc2dc \uc774\uc778\uba74 \ub17c\uc0b0\ucc9c\uc548\uace0\uc18d\ub3c4\ub85c 32", "lat": "36.352899", "lng": "127.069722"}, {"statNm": "\ud0c4\ucc9c\ud734\uac8c\uc18c(\uc21c\ucc9c\ubc29\ud5a5)", "addr": "\ucda9\uccad\ub0a8\ub3c4 \uacf5\uc8fc\uc2dc \ud0c4\ucc9c\uba74 \ub17c\uc0b0\ucc9c\uc548\uace0\uc18d\ub3c4\ub85c 27", "lat": "36.319252", "lng": "127.070052"}, {"statNm": "\uc815\uc548\ud734\uac8c\uc18c(\uc21c\ucc9c\ubc29\ud5a5)", "addr": "\ucda9\uccad\ub0a8\ub3c4 \uacf5\uc8fc\uc2dc \uc815\uc548\uba74 \ub17c\uc0b0\ucc9c\uc548\uace0\uc18d\ub3c4\ub85c 57", "lat": "36.57176", "lng": "127.112707"}, {"statNm": "\uc815\uc548\ud734\uac8c\uc18c(\ucc9c\uc548\ubc29\ud5a5)", "addr": "\ucda9\uccad\ub0a8\ub3c4 \uacf5\uc8fc\uc2dc \uc815\uc548\uba74 \ub17c\uc0b0\ucc9c\uc548\uace0\uc18d\ub3c4\ub85c 58", "lat": "36.569724", "lng": "127.115041"}, {"statNm": "\uc5ec\uac1d\uc2e0\ud130\ubbf8\ub110 \uc8fc\ucc28\uc7a5", "addr": "\ucda9\uccad\ub0a8\ub3c4 \ud0dc\uc548\uad70 \uadfc\ud765\uba74 \uc2e0\uc9c4\ub3c4\ub9ac 528", "lat": "36.678174", "lng": "126.136886"}, {"statNm": "\ud0dc\uc548\uad6d\ub9bd\uacf5\uc6d0 \ubabd\uc0b0\ud3ec \uc8fc\ucc28\uc7a5", "addr": "\ucda9\uccad\ub0a8\ub3c4 \ud0dc\uc548\uad70 \ub0a8\uba74 \uc2e0\uc7a5\ub9ac 360", "lat": "36.672267", "lng": "126.289719"}, {"statNm": "\ud0dc\uc548\uad6d\ubbfc\uccb4\uc721\uc13c\ud130", "addr": "\ucda9\uccad\ub0a8\ub3c4 \ud0dc\uc548\uad70 \ud0dc\uc548\uc74d \ub3d9\ubb38\ub9ac 9-7", "lat": "36.754625", "lng": "126.311901"}, {"statNm": "\uae08\ub9c8\uba74 \ud558\ub098\ub85c\ub9c8\ud2b8", "addr": "\ucda9\uccad\ub0a8\ub3c4 \ud64d\uc131\uad70 \uae08\ub9c8\uba74 \uac00\uc0b0\ub9ac 488", "lat": "36.626358", "lng": "126.735388"}, {"statNm": "\ub0a8\ub2f9\ud56d \uc8fc\ucc28\uc7a5", "addr": "\ucda9\uccad\ub0a8\ub3c4 \ud64d\uc131\uad70 \uc11c\ubd80\uba74 \ub0a8\ub2f9\ub9ac 859-2", "lat": "36.539213", "lng": "126.471536"}, {"statNm": "\ub17c\uc0b0\uacf5\uace0 \uc55e \uacf5\uc6a9\uc8fc\ucc28\uc7a5", "addr": "\ucda9\uccad\ub0a8\ub3c4 \ub17c\uc0b0\uc2dc \ucde8\uc554\ub3d9 822", "lat": "36.195389", "lng": "127.087528"}, {"statNm": "\uc120\uc0e4\uc778\ub79c\ub4dc \uc55e \uacf5\uc6a9\uc8fc\ucc28\uc7a5", "addr": "\ucda9\uccad\ub0a8\ub3c4 \ub17c\uc0b0\uc2dc \uc5f0\ubb34\uc74d \uc8fd\ud3c9\ub9ac 331-41", "lat": "36.103139", "lng": "127.106250"}, {"statNm": "\uad6d\ubbfc\uc5f0\uae08\uacf5\ub2e8 \ubcf4\ub839\uc0ac\uc625", "addr": "\ucda9\uccad\ub0a8\ub3c4 \ubcf4\ub839\uc2dc \ub3d9\ub300\ub3d9 576-1", "lat": "36.350944", "lng": "126.610750"}, {"statNm": "\uad6d\ubbfc\uac74\uac15\ubcf4\ud5d8\uacf5\ub2e8 \uc11c\ucc9c\ucd9c\uc7a5\uc18c", "addr": "\ucda9\uccad\ub0a8\ub3c4 \uc11c\ucc9c\uad70 \uc11c\ucc9c\uc74d \uad70\uc0ac\ub9ac 181-3", "lat": "36.074444", "lng": "126.698056"}, {"statNm": "\ud55c\uad6d\uae30\uc220\uad50\uc721\ub300\ud559\uad50(\uc81c1\ucea0\ud37c\uc2a4)", "addr": "\ucda9\uccad\ub0a8\ub3c4 \ucc9c\uc548\uc2dc \ub3d9\ub0a8\uad6c \ubcd1\ucc9c\uba74 \uac00\uc804\ub9ac 307", "lat": "36.760444", "lng": "127.278278"}, {"statNm": "\uccad\uc218\uacf5\uc6d0 \uc8fc\ucc28\uc7a5", "addr": "\ucda9\uccad\ub0a8\ub3c4 \ucc9c\uc548\uc2dc \ub3d9\ub0a8\uad6c \uccad\uc218\ub3d9 270", "lat": "36.787111", "lng": "127.147194"}, {"statNm": "\ub3c4\uc194\uacf5\uc6d0", "addr": "\ucda9\uccad\ub0a8\ub3c4 \ucc9c\uc548\uc2dc \ub3d9\ub0a8\uad6c \uc2e0\ubd80\ub3d9 132-8", "lat": "36.825001", "lng": "127.159452"}, {"statNm": "\ud0dc\uc548\ubcf4\uac74\uc758\ub8cc\uc6d0 \uc81c2\uc8fc\ucc28\uc7a5", "addr": "\ucda9\uccad\ub0a8\ub3c4 \ud0dc\uc548\uad70 \ud0dc\uc548\uc74d \ud3c9\ucc9c\ub9ac 500-4", "lat": "36.752861", "lng": "126.324528"}, {"statNm": "\uc0c1\uc6d4\uba74\uc0ac\ubb34\uc18c", "addr": "\ucda9\uccad\ub0a8\ub3c4 \ub17c\uc0b0\uc2dc \uc0c1\uc6d4\uba74 \uc2e0\ucda9\ub9ac 54-2", "lat": "36.295583", "lng": "127.141472"}, {"statNm": "\uae08\uc0b0\uc138\uacc4\uc778\uc0bc\uc5d1\uc2a4\ud3ec", "addr": "\ucda9\uccad\ub0a8\ub3c4 \uae08\uc0b0\uad70 \uae08\uc0b0\uc74d \uc2e0\ub300\ub9ac 355", "lat": "36.097873", "lng": "127.503598"}, {"statNm": "\uc2e0\ub3c4\uc548\uba74\uc0ac\ubb34\uc18c \uc8fc\ucc28\uc7a5", "addr": "\ucda9\uccad\ub0a8\ub3c4 \uacc4\ub8e1\uc2dc \uc2e0\ub3c4\uc548\uba74 \ub0a8\uc120\ub9ac 1233", "lat": "36.300306", "lng": "127.242028"}, {"statNm": "\uc758\ub2f9\uba74\uc0ac\ubb34\uc18c", "addr": "\ucda9\uccad\ub0a8\ub3c4 \uacf5\uc8fc\uc2dc \uc758\ub2f9\uba74 \uccad\ub8e1\ub9ac 661-1", "lat": "36.499444", "lng": "127.141694"}, {"statNm": "\uc720\uad6c\uc74d \ud589\uc815\ubcf5\uc9c0\uc13c\ud130", "addr": "\ucda9\uccad\ub0a8\ub3c4 \uacf5\uc8fc\uc2dc \uc720\uad6c\uc74d \uc11d\ub0a8\ub9ac 388-2", "lat": "36.552194", "lng": "126.950667"}, {"statNm": "\uc8fc\uc0b0\uba74\uc0ac\ubb34\uc18c \uc8fc\ucc28\uc7a5", "addr": "\ucda9\uccad\ub0a8\ub3c4 \ubcf4\ub839\uc2dc \uc8fc\uc0b0\uba74 \uc57c\ub8e1\ub9ac 181-1", "lat": "36.198306", "lng": "126.632250"}, {"statNm": "\uccad\uc18c\ub18d\uacf5\ub2e8\uc9c0", "addr": "\ucda9\uccad\ub0a8\ub3c4 \ubcf4\ub839\uc2dc \uccad\uc18c\uba74 \uc7a5\uace1\ub9ac 1175", "lat": "36.430889", "lng": "126.583556"}, {"statNm": "\uc784\ucc9c\uba74\ud589\uc815\ubcf5\uc9c0\uc13c\ud130", "addr": "\ucda9\uccad\ub0a8\ub3c4 \ubd80\uc5ec\uad70 \uc784\ucc9c\uba74 \uad70\uc0ac\ub9ac 306-1", "lat": "36.190750", "lng": "126.894333"}, {"statNm": "\ub300\uc0b0\uc9c0\ubc29\ud574\uc591\uc218\uc0b0\uccad", "addr": "\ucda9\uccad\ub0a8\ub3c4 \uc11c\uc0b0\uc2dc \uc7a0\ud64d\ub3d9 344", "lat": "36.791139", "lng": "126.482556"}, {"statNm": "\uc2e0\ucc3d\uc5ed \uacf5\uc601\uc8fc\ucc28\uc7a5", "addr": "\ucda9\uccad\ub0a8\ub3c4 \uc544\uc0b0\uc2dc \uc2e0\ucc3d\uba74 \ud589\ubaa9\ub9ac 346-2", "lat": "36.770083", "lng": "126.951333"}, {"statNm": "\uc778\uc8fc\uba74 \uac78\ub9e4\ub9ac \uc81c1\uacf5\uc601\uc8fc\ucc28\uc7a5", "addr": "\ucda9\uccad\ub0a8\ub3c4 \uc544\uc0b0\uc2dc \uc778\uc8fc\uba74 \uac78\ub9e4\ub9ac 1004", "lat": "36.878250", "lng": "126.869750"}, {"statNm": "\uc544\uc0b0\ud14c\ud06c\ub178\ubc38\ub9ac \uc81c2\uacf5\uc601\uc8fc\ucc28\uc7a5", "addr": "\ucda9\uccad\ub0a8\ub3c4 \uc544\uc0b0\uc2dc \ub454\ud3ec\uba74 \uc11d\uace1\ub9ac 1480", "lat": "36.923306", "lng": "127.062778"}, {"statNm": "\ub3c4\uace0\uba74\uc0ac\ubb34\uc18c", "addr": "\ucda9\uccad\ub0a8\ub3c4 \uc544\uc0b0\uc2dc \ub3c4\uace0\uba74 \uc2e0\uc5b8\ub9ac 64-3", "lat": "36.757278", "lng": "126.877861"}, {"statNm": "\ud55c\uad6d\uc804\uae30\uc548\uc804\uacf5\uc0ac \ucda9\ub0a8\uc911\ubd80\uc9c0\uc0ac", "addr": "\ucda9\uccad\ub0a8\ub3c4 \uc608\uc0b0\uad70 \uc624\uac00\uba74 \uc88c\ubc29\ub9ac 19-16", "lat": "36.686278", "lng": "126.779278"}, {"statNm": "\uc885\ud569\uc6b4\ub3d9\uc7a5", "addr": "\ucda9\uccad\ub0a8\ub3c4 \uc608\uc0b0\uad70 \uc608\uc0b0\uc74d \ud5a5\ucc9c\ub9ac 253-7", "lat": "36.678139", "lng": "126.862028"}, {"statNm": "\uc131\uac70\uc74d\uc0ac\ubb34\uc18c", "addr": "\ucda9\uccad\ub0a8\ub3c4 \ucc9c\uc548\uc2dc \uc11c\ubd81\uad6c \uc131\uac70\uc74d \uc800\ub9ac 57-26", "lat": "36.877667", "lng": "127.198722"}, {"statNm": "\ud0dc\uc548\uad70\ub18d\uc5c5\uae30\uc220\uc13c\ud130", "addr": "\ucda9\uccad\ub0a8\ub3c4 \ud0dc\uc548\uad70 \ud0dc\uc548\uc74d \uc1a1\uc554\ub9ac 770-2", "lat": "36.733083", "lng": "126.306000"}, {"statNm": "\ub0b4\ud3ec\ubcf4\ubd80\uc0c1\ucd0c", "addr": "\ucda9\uccad\ub0a8\ub3c4 \uc608\uc0b0\uad70 \ub355\uc0b0\uba74 \uc0ac\ub3d9\ub9ac 286", "lat": "36.691750", "lng": "126.653194"}, {"statNm": "\uc608\uc0b0\uad70\ubb38\uc608\ud68c\uad00", "addr": "\ucda9\uccad\ub0a8\ub3c4 \uc608\uc0b0\uad70 \uc608\uc0b0\uc74d \uc608\uc0b0\ub9ac 60-5", "lat": "36.685417", "lng": "126.848694"}, {"statNm": "\ud55c\uad6d\uc911\ubd80\ubc1c\uc804\u321c \ubcf8\uc0ac", "addr": "\ucda9\uccad\ub0a8\ub3c4 \ubcf4\ub839\uc2dc \ub300\ucc9c\ub3d9 460-137", "lat": "36.355778", "lng": "126.589306"}, {"statNm": "\ubcf4\ub839\uc2dc\uccad (\uc815\ubb38) \uc8fc\ucc28\uc7a5", "addr": "\ucda9\uccad\ub0a8\ub3c4 \ubcf4\ub839\uc2dc \uba85\ucc9c\ub3d9 269-4", "lat": "36.332917", "lng": "126.613500"}, {"statNm": "\ub18d\uc5c5\uae30\uc220\uc13c\ud130", "addr": "\ucda9\uccad\ub0a8\ub3c4 \uc544\uc0b0\uc2dc \uc5fc\uce58\uc74d \uc5fc\uc131\ub9ac 186-2", "lat": "36.81554132", "lng": "126.97615051"}, {"statNm": "\ubc8c\uace1\ud734\uac8c\uc18c(\ub17c\uc0b0\ubc29\ud5a5)", "addr": "\ucda9\uccad\ub0a8\ub3c4 \ub17c\uc0b0\uc2dc \ubc8c\uace1\uba74 \ud638\ub0a8\uc9c0\uc120\uace0\uc18d\ub3c4\ub85c 25", "lat": "36.21757282", "lng": "127.273271922"}, {"statNm": "\uad6d\uad70\ub300\ucc9c\ucf58\ub3c4 1\uad00", "addr": "\ucda9\uccad\ub0a8\ub3c4 \ubcf4\ub839\uc2dc \uac13\ubc14\uc704 1\uae38 10-30", "lat": "36.30158489", "lng": "126.52162369"}, {"statNm": "\uc2e0\uc815\ud638\uc218\uacf5\uc6d0", "addr": "\ucda9\uccad\ub0a8\ub3c4 \uc544\uc0b0\uc2dc \ubc29\ucd95\ub3d9 5", "lat": "36.77253457", "lng": "126.98285656"}, {"statNm": "\ud0c4\ucc9c\uba74\uc0ac\ubb34\uc18c", "addr": "\ucda9\uccad\ub0a8\ub3c4 \uacf5\uc8fc\uc2dc \ud0c4\ucc9c\uba74 \uc0bc\uac01\ub9ac 523-2", "lat": "36.330183", "lng": "127.029905"}, {"statNm": "\uae08\uc0b0 \uc778\uc0bc\uace8 \uc624\ud1a0\ucea0\ud551\uc7a5", "addr": "\ucda9\uccad\ub0a8\ub3c4 \uae08\uc0b0\uad70 \uc81c\uc6d0\uba74 \uc6a9\ud654\ub9ac 215", "lat": "36.089127", "lng": "127.587709"}, {"statNm": "\uccad\uc18c\ub144 \uc218\ub828\uad00 \uc8fc\ucc28\uc7a5", "addr": "\ucda9\uccad\ub0a8\ub3c4 \ubcf4\ub839\uc2dc \uc131\uc8fc\uba74 \uc131\uc8fc\ub9ac 229-5", "lat": "36.327831", "lng": "126.652794"}, {"statNm": "\ucda9\ub0a8\uc815\uc2ec\uc6d0 \uc815\uc2ec\uc2e4\ub0b4\uc218\uc601\uc7a5 \uc8fc\ucc28\uc7a5", "addr": "\ucda9\uccad\ub0a8\ub3c4 \ubcf4\ub839\uc2dc \uc8fc\uad50\uba74 \uad00\ucc3d\ub9ac 407-4", "lat": "36.376872", "lng": "126.584316"}, {"statNm": "\ubb34\ucc3d\ud3ec \uc81c3\uacf5\uc601\uc8fc\ucc28\uc7a5", "addr": "\ucda9\uccad\ub0a8\ub3c4 \ubcf4\ub839\uc2dc \uc6c5\ucc9c\uc74d \uad00\ub2f9\ub9ac 806-1", "lat": "36.242481", "lng": "126.536719"}, {"statNm": "\ud64d\uc0b0\uba74\ud589\uc815\ubcf5\uc9c0\uc13c\ud130", "addr": "\ucda9\uccad\ub0a8\ub3c4 \ubd80\uc5ec\uad70 \ud64d\uc0b0\uba74 \ubd81\ucd0c\ub9ac188-7", "lat": "36.216059", "lng": "126.759802"}, {"statNm": "\uc678\uc0b0\uba74\ud589\uc815\ubcf5\uc9c0\uc13c\ud130", "addr": "\ucda9\uccad\ub0a8\ub3c4 \ubd80\uc5ec\uad70 \uc678\uc0b0\uba74 \ub9cc\uc218\ub9ac 14-3", "lat": "36.303994", "lng": "126.708435"}, {"statNm": "\ud574\ubbf8\uba74 \ud589\uc815\ubcf5\uc9c0\uc13c\ud130", "addr": "\ucda9\uccad\ub0a8\ub3c4 \uc11c\uc0b0\uc2dc \ud574\ubbf8\uba74 \uc74d\ub0b4\ub9ac 353", "lat": "36.71382", "lng": "126.544294"}, {"statNm": "\uc2e0\ucc3d\uba74\uc0ac\ubb34\uc18c", "addr": "\ucda9\uccad\ub0a8\ub3c4 \uc544\uc0b0\uc2dc \uc2e0\ucc3d\uba74 \uc624\ubaa9\ub9ac 2-1", "lat": "36.803791", "lng": "126.935798"}, {"statNm": "\uace0\ub355\uba74\ud589\uc815\ubcf5\uc9c0\uc13c\ud130", "addr": "\ucda9\uccad\ub0a8\ub3c4 \uc608\uc0b0\uad70 \uace0\ub355\uba74 \ub300\ucc9c\ub9ac 711", "lat": "36.745276", "lng": "126.702067"}, {"statNm": "\ub300\uc220\uba74\ud589\uc815\ubcf5\uc9c0\uc13c\ud130", "addr": "\ucda9\uccad\ub0a8\ub3c4 \uc608\uc0b0\uad70 \ub300\uc220\uba74 \ud654\ucc9c\ub9ac 873-1", "lat": "36.657413", "lng": "126.892263"}, {"statNm": "\ud669\uc0c8\uacf5\uc6d0", "addr": "\ucda9\uccad\ub0a8\ub3c4 \uc608\uc0b0\uad70 \uad11\uc2dc\uba74 \ub300\ub9ac 230", "lat": "36.544609", "lng": "126.796359"}, {"statNm": "\uad11\uc2dc\uba74 \uacf5\uc601\uc8fc\ucc28\uc7a5", "addr": "\ucda9\uccad\ub0a8\ub3c4 \uc608\uc0b0\uad70 \uad11\uc2dc\uba74 \uad11\uc2dc\ub9ac 77-3", "lat": "36.550491", "lng": "126.774935"}, {"statNm": "\uace0\ucd94\ubb38\ud654\ub9c8\uc744", "addr": "\ucda9\uccad\ub0a8\ub3c4 \uccad\uc591\uad70 \uccad\uc591\uc74d \uad70\ub7c9\ub9ac 533", "lat": "36.441637", "lng": "126.778965"}, {"statNm": "\uc18c\uc6d0\uba74\uc0ac\ubb34\uc18c", "addr": "\ucda9\uccad\ub0a8\ub3c4 \ud0dc\uc548\uad70 \uc18c\uc6d0\uba74 \uc2e0\ub355\ub9ac 272", "lat": "36.761467", "lng": "126.196421"}, {"statNm": "\ud0dc\uc548\ub85c\uceec\ud478\ub4dc\uc0ac\uc5c5\ub2e8(\uc9c1\ub9e4\uc7a5)", "addr": "\ucda9\uccad\ub0a8\ub3c4 \ud0dc\uc548\uad70 \ub0a8\uba74 \ub2f9\uc554\ub9ac 529-1", "lat": "36.611732", "lng": "126.315033"}, {"statNm": "\ud55c\uad6d\uc804\uae30\uc548\uc804\uacf5\uc0ac \uc804\uae30\uc548\uc804\uad50\uc721\uc6d0", "addr": "\ucda9\uccad\ub0a8\ub3c4 \uc544\uc0b0\uc2dc \uace0\ub3c4\uba74 \uc2e0\ud1b5\ub9ac 247-1", "lat": "36.771004", "lng": "126.895144"}, {"statNm": "\ud55c\uad6d\uc11c\ubd80\ubc1c\uc804 \ubcf8\uc0ac", "addr": "\ucda9\uccad\ub0a8\ub3c4 \ud0dc\uc548\uad70 \ud0dc\uc548\uc74d \ud3c9\ucc9c\ub9ac 1488", "lat": "36.75257", "lng": "126.317007"}, {"statNm": "\uc544\uc0b0\uc2dc\uccad(\ubcf8\uccad)", "addr": "\ucda9\uccad\ub0a8\ub3c4 \uc544\uc0b0\uc2dc \uc628\ucc9c\ub3d9 1880", "lat": "36.790391", "lng": "127.004235"}, {"statNm": "\uc628\ucc9c\ub3d9 \uc81c1\uacf5\uc601\uc8fc\ucc28\uc7a5", "addr": "\ucda9\uccad\ub0a8\ub3c4 \uc544\uc0b0\uc2dc \uc628\ucc9c\ub3d9 1926", "lat": "36.792866415734", "lng": "126.99650154"}, {"statNm": "\uc1a1\uc545\uba74\uc0ac\ubb34\uc18c", "addr": "\ucda9\uccad\ub0a8\ub3c4 \uc544\uc0b0\uc2dc \uc1a1\uc545\uba74 \uc1a1\uc545\ub85c 790", "lat": "36.731627176618", "lng": "127.00878467"}, {"statNm": "\uad6d\ubbfc\uac74\uac15\ubcf4\ud5d8\uacf5\ub2e8 \uc608\uc0b0\uc9c0\uc0ac", "addr": "\ucda9\uccad\ub0a8\ub3c4 \uc608\uc0b0\uad70 \uc608\uc0b0\uc74d \ubc9a\uaf43\ub85c 242", "lat": "36.7020774", "lng": "126.8391409"}, {"statNm": "\uc81c2\ud14c\ud06c\ub178\ubc38\ub9ac \uacf5\uc601\uc8fc\ucc28\uc7a5", "addr": "\ucda9\uccad\ub0a8\ub3c4 \uc544\uc0b0\uc2dc \ub454\ud3ec\uba74 \uc11d\uace1\ub9ac 1949", "lat": "36.9067799", "lng": "127.0562304"}, {"statNm": "\ud55c\uad6d\uc870\ud3d0\uacf5\uc0ac \uc81c\uc9c0\ubcf8\ubd80", "addr": "\ucda9\uccad\ub0a8\ub3c4 \ubd80\uc5ec\uad70 \ubd80\uc5ec\uc74d \uc5fc\ucc3d\ub9ac 131-2", "lat": "36.266306665165", "lng": "126.96082173"}, {"statNm": "\ud55c\uad6d\uc911\ubd80\ubc1c\uc804\u321c \uc5d0\ub108\uc9c0\uc6d4\ub4dc", "addr": "\ucda9\uccad\ub0a8\ub3c4 \ubcf4\ub839\uc2dc \uc624\ucc9c\uba74 \uc624\ucc9c\ud574\uc548\ub85c 89-37", "lat": "36.4028858", "lng": "126.495998"}, {"statNm": "\ud55c\uad6d\uc911\ubd80\ubc1c\uc804\u321c \uc2e0\ubcf4\ub839\ubc1c\uc804\ubcf8\ubd80 \uc625\uc678\uc8fc\ucc28\uc7a5", "addr": "\ucda9\uccad\ub0a8\ub3c4 \ubcf4\ub839\uc2dc \uc8fc\uad50\uba74 \uc1a1\ub3c4\uae38 201", "lat": "36.384038660207", "lng": "126.49074943"}, {"statNm": "\uc11c\uc0b0\uad6d\ubbfc\uccb4\uc721\uc13c\ud130\uc55e \uc8fc\ucc28\uc7a5", "addr": "\ucda9\uccad\ub0a8\ub3c4 \uc11c\uc0b0\uc2dc \uc548\uacac\ub85c", "lat": "36.797993", "lng": "126.435995"}, {"statNm": "\ub86f\ub370\ub9c8\ud2b8 \uc11c\uc0b0\uc810 \uc57c\uc678\uc8fc\ucc28\uc7a5", "addr": "\ucda9\uccad\ub0a8\ub3c4 \uc11c\uc0b0\uc2dc \ucda9\uc758\ub85c", "lat": "37.866972", "lng": "127.759168"}, {"statNm": "\uc11c\uc0b0\ub3d9\ubd80\uc804\ud1b5\uc2dc\uc7a5 \uacf5\uc601\uc8fc\ucc28\uc7a5", "addr": "\ucda9\uccad\ub0a8\ub3c4 \uc11c\uc0b0\uc2dc \ub3d9\ubb38\ub3d9 800\ubc88\uc9c0", "lat": "36.783777", "lng": "126.454604"}, {"statNm": "\uc0bd\uad50\ud638 \uad00\uad11\uc9c0", "addr": "\ucda9\uccad\ub0a8\ub3c4 \ub2f9\uc9c4\uc2dc \uc2e0\ud3c9\uba74 \uc6b4\uc815\ub9ac", "lat": "36.891651", "lng": "126.820292"}, {"statNm": "\ub2f9\uc9c4\uc885\ud569\uc6b4\ub3d9\uc7a5 \uc81c1\uc8fc\ucc28\uc7a5", "addr": "\ucda9\uccad\ub0a8\ub3c4 \ub2f9\uc9c4\uc2dc \uace0\ub300\uba74 \uace0\ub300\ub85c", "lat": "36.921956", "lng": "126.601100"}, {"statNm": "\ub300\ucc9c\ud574\uc218\uc695\uc7a5 \uc81c3 \uacf5\uc601\uc8fc\ucc28\uc7a5", "addr": "\ucda9\uccad\ub0a8\ub3c4 \ubcf4\ub839\uc2dc \uc2e0\ud751\ub3d9", "lat": "36.313093", "lng": "126.514630"}, {"statNm": "\ud0d5\uc815\uc628\uc0d8\ub3c4\uc11c\uad00", "addr": "\ucda9\uccad\ub0a8\ub3c4 \uc544\uc0b0\uc2dc \ud0d5\uc815\uba74 \ud55c\ub0b4\ub85c", "lat": "36.793252", "lng": "127.053260"}, {"statNm": "\ud604\ub300\uc81c\ucca0\ubb38\ud654\uc13c\ud130", "addr": "\ucda9\uccad\ub0a8\ub3c4 \ub2f9\uc9c4\uc2dc \uc1a1\uc0b0\uba74 \uc720\uace13\uae38 6", "lat": "36.965624", "lng": "126.690661"}, {"statNm": "\uc218\uc11d\ub3d9 \ud589\uc815\ubcf5\uc9c0\uc13c\ud130", "addr": "\ucda9\uccad\ub0a8\ub3c4 \uc11c\uc0b0\uc2dc \ubb34\uc11d1\ub85c 2", "lat": "36.771207", "lng": "126.467359"}, {"statNm": "\ub9c8\uc0b0\uba74\uacf5\uc6a9\uc8fc\ucc28\uc7a5", "addr": "\ucda9\uccad\ub0a8\ub3c4 \uc11c\ucc9c\uad70 \uc0bc\uc77c\ub85c265\ubc88\uae38 8", "lat": "36.117226", "lng": "126.791423"}, {"statNm": "\uc544\uc0b0\uc2dc\ubcf4\uac74\uc18c", "addr": "\ucda9\uccad\ub0a8\ub3c4 \uc544\uc0b0\uc2dc \ubc88\uc601\ub85c224\ubc88\uae38 20", "lat": "36.782764", "lng": "127.014406"}, {"statNm": "\ubcd1\ucc9c\uba74 \ud589\uc815\ubcf5\uc9c0\uc13c\ud130", "addr": "\ucda9\uccad\ub0a8\ub3c4 \ucc9c\uc548\uc2dc \ub3d9\ub0a8\uad6c \ubcd1\ucc9c\uba74 \ubcd1\ucc9c2\ub85c 57", "lat": "36.765921", "lng": "127.302360"}, {"statNm": "\uc131\uc815\ub3d9 \uacf5\uc601\uc8fc\ucc28\uc7a5", "addr": "\ucda9\uccad\ub0a8\ub3c4 \ucc9c\uc548\uc2dc \uc11c\ubd81\uad6c \ub3d9\uc11c\ub300\ub85c 110-9", "lat": "36.825077", "lng": "127.135434"}, {"statNm": "\uc544\uc0b0\ud604\ub300\uc11c\ube44\uc2a4", "addr": "\ucda9\uccad\ub0a8\ub3c4 \uc544\uc0b0\uc2dc \uc628\ucc9c\ub300\ub85c 1790", "lat": "36.773307", "lng": "127.034741"}, {"statNm": "\ub17c\uc0b0\ub18d\ud611 \ud558\ub098\ub85c\ub9c8\ud2b8", "addr": "\ucda9\uccad\ub0a8\ub3c4 \ub17c\uc0b0\uc2dc \ub300\ud559\ub85c 48", "lat": "36.177613", "lng": "127.103526"}, {"statNm": "\ub17c\uc0b0\ubb38\ud654\uc6d0 \uc606 \uacf5\uc6a9\uc8fc\ucc28\uc7a5", "addr": "\ucda9\uccad\ub0a8\ub3c4 \ub17c\uc0b0\uc2dc \uad00\ucd09\ub85c 113-12", "lat": "36.197894", "lng": "127.107784"}, {"statNm": "\ube59\uadf8\ub808 \uc57c\uc678\uc8fc\ucc28\uc7a5", "addr": "\ucda9\uccad\ub0a8\ub3c4 \ub17c\uc0b0\uc2dc \ub3d9\uc548\ub85c 1407", "lat": "36.136940", "lng": "127.148531"}, {"statNm": "\uc0bc\uc120\uc0b0\uc218\ubaa9\uc6d0", "addr": "\ucda9\uccad\ub0a8\ub3c4 \ub2f9\uc9c4\uc2dc \uc0bc\uc120\uc0b0\uc218\ubaa9\uc6d0\uae38 80-10", "lat": "36.909682", "lng": "126.587451"}, {"statNm": "\ud658\uc0c1\uc758\ubc14\ub2e4 \ub9ac\uc870\ud2b8 \uc8fc\ucc28\uc7a5", "addr": "\ucda9\uccad\ub0a8\ub3c4 \ubcf4\ub839\uc2dc \ub300\ucc9c\ud56d1\uae38 67-5", "lat": "36.323955", "lng": "126.505615"}, {"statNm": "\ub300\uc0b0\ub3c4\uc11c\uad00", "addr": "\ucda9\uccad\ub0a8\ub3c4 \uc11c\uc0b0\uc2dc \ub300\uc0b0\uc74d \ub300\uc0b01\ub85c 78-22", "lat": "36.940319", "lng": "126.439030"}, {"statNm": "\ub300\uc0b0\uc74d \ud589\uc815\ubcf5\uc9c0\uc13c\ud130", "addr": "\ucda9\uccad\ub0a8\ub3c4 \uc11c\uc0b0\uc2dc \ub300\uc0b0\uc74d \uad6c\uc9c4\ub85c 42-4", "lat": "36.939471", "lng": "126.433953"}, {"statNm": "\uc5f4\ub9b0\uc131\uc560\ubcd1\uc6d0", "addr": "\ucda9\uccad\ub0a8\ub3c4 \uc544\uc0b0\uc2dc \uc74c\ubd09\ub85c681\ubc88\uae38 75", "lat": "36.838791", "lng": "127.080400"}, {"statNm": "\uace0\ub0a8\ud328\ucd1d\ubc15\ubb3c\uad00", "addr": "\ucda9\uccad\ub0a8\ub3c4 \ud0dc\uc548\uad70 \uace0\ub0a8\uba74 \uc548\uba74\ub300\ub85c 4270-6", "lat": "36.420347", "lng": "126.409863"}, {"statNm": "\uc548\uba74\uc74d \uc2b9\uc5b8\ub9ac \uacf5\uc601\uc8fc\ucc28\uc7a5", "addr": "\ucda9\uccad\ub0a8\ub3c4 \ud0dc\uc548\uad70 \uad6c\uc5b5\ub9d0\uae38 8", "lat": "36.516931", "lng": "126.347990"}, {"statNm": "\ucc9c\uc548\uc2dc\uc885\ud569\ubcf5\uc9c0\uc0ac\ud68c\ubcf5\uc9c0\uad00", "addr": "\ucda9\uccad\ub0a8\ub3c4 \ucc9c\uc548\uc2dc \ub3d9\ub0a8\uad6c \ucc9c\uc548\ub300\ub85c 361", "lat": "36.780880", "lng": "127.164682"}, {"statNm": "\uacf5\uc8fc\uae30\uc801\uc758\ub3c4\uc11c\uad00", "addr": "\ucda9\uccad\ub0a8\ub3c4 \uacf5\uc8fc\uc2dc \ubb34\ub839\ub85c 550-53", "lat": "36.472317", "lng": "127.153245"}, {"statNm": "\uc720\uad6c\uc74d \uacf5\uc601\uc8fc\ucc28\uc7a51", "addr": "\ucda9\uccad\ub0a8\ub3c4 \uacf5\uc8fc\uc2dc \uc911\uc5592\uae38 88", "lat": "36.552620", "lng": "126.952892"}, {"statNm": "\uc131\uc8fc\uba74 \ubcf4\uac74\uc9c0\uc18c \ub4a4 \uc8fc\ucc28\uc7a5", "addr": "\ucda9\uccad\ub0a8\ub3c4 \ubcf4\ub839\uc2dc \uc131\uc8fc\uba74 \uc2ec\uc6d0\uacc4\uace1\ub85c 6-21", "lat": "36.335386", "lng": "126.651396"}, {"statNm": "\ubbf8\uc0b0\uba74\uc0ac\ubb34\uc18c", "addr": "\ucda9\uccad\ub0a8\ub3c4 \ubcf4\ub839\uc2dc \ub0b4\ud3c9\ubd09\uc131\uae38 5", "lat": "36.210281", "lng": "126.675983"}, {"statNm": "\uc6c5\ucc9c\ubcf5\uc9c0\ud68c\uad00", "addr": "\ucda9\uccad\ub0a8\ub3c4 \ubcf4\ub839\uc2dc \uc6c5\ucc9c\uc74d \uc7a5\ud1302\uae38 15", "lat": "36.232605", "lng": "126.601618"}, {"statNm": "\uad00\ucc3d\uc77c\ubc18\uc0b0\uc5c5\ub2e8\uc9c0 \uadfc\ub85c\uc790 \ubcf5\uc9c0\uc13c\ud130", "addr": "\ucda9\uccad\ub0a8\ub3c4 \ubcf4\ub839\uc2dc \uad00\ucc3d\uacf5\ub2e8\uae38 229", "lat": "36.382278", "lng": "126.578562"}, {"statNm": "\ub300\ucc9c3\ub3d9\uc0ac\ubb34\uc18c", "addr": "\ucda9\uccad\ub0a8\ub3c4 \ubcf4\ub839\uc2dc \ub300\uccad\ub85c 167", "lat": "36.355868", "lng": "126.611332"}, {"statNm": "\uad6c\uc2dc\uc8fc\ucc28\uc7a5", "addr": "\ucda9\uccad\ub0a8\ub3c4 \ubcf4\ub839\uc2dc \uad6c\uc2dc1\uae38 10", "lat": "36.348092", "lng": "126.592994"}, {"statNm": "\uc678\uc554\ub9c8\uc744 \uc8fc\ucc28\uc7a5", "addr": "\ucda9\uccad\ub0a8\ub3c4 \uc544\uc0b0\uc2dc \uac15\ub2f9\ub85c 21", "lat": "36.730560", "lng": "127.012848"}, {"statNm": "\ucda9\uccad\ub0a8\ub3c4\uc758\ud68c\uc8fc\ucc28\uc7a5", "addr": "\ucda9\uccad\ub0a8\ub3c4 \uc608\uc0b0\uad70 \uc0bd\uad50\uc74d \ub3c4\uccad\ub300\ub85c 600", "lat": "36.660767", "lng": "126.674198"}, {"statNm": "\ub18d\uc5c5\uae30\uc220\uc13c\ud130 \uacf5\uc601\uc8fc\ucc28\uc7a5", "addr": "\ucda9\uccad\ub0a8\ub3c4 \uacf5\uc8fc\uc2dc \uc6b0\uc131\uba74 \ub0b4\uc0b0\ubaa9\ucc9c\uae38 52-15", "lat": "36.493974", "lng": "127.097665"}, {"statNm": "\uc800\uc7a3\uac70\ub9ac \uc8fc\ucc28\uc7a5", "addr": "\ucda9\uccad\ub0a8\ub3c4 \uc544\uc0b0\uc2dc \uc678\uc554\ub85c 1030-14", "lat": "36.728585", "lng": "127.012291"}, {"statNm": "\uc608\uc0b0\uad70 \ub178\uc778\uc885\ud569\ubcf5\uc9c0\uad00 (\ud604\uc7ac: \uc608\uc0b0\uad70 \uc0ac\ub791\ucc44)", "addr": "\ucda9\uccad\ub0a8\ub3c4 \uc608\uc0b0\uad70 \uc608\uc0b0\uc74d \ubc9a\uaf43\ub85c155\ubc88\uae38 10", "lat": "36.694550", "lng": "126.835438"}, {"statNm": "\uc608\uc0b0\uc77c\ubc18\uc0b0\uc5c5\ub2e8\uc9c0", "addr": "\ucda9\uccad\ub0a8\ub3c4 \uc608\uc0b0\uad70 \uc0bd\uad50\uc74d \uc0b0\ub2e82\uae38 76-18", "lat": "36.671013", "lng": "126.751569"}, {"statNm": "\ub355\uc0b0\uba74 \uacf5\uc601\uc8fc\ucc28\uc7a5", "addr": "\ucda9\uccad\ub0a8\ub3c4 \uc608\uc0b0\uad70 \ub355\uc0b0\uba74 \ub355\uc0b0\uc628\ucc9c\ub85c 422-3", "lat": "36.703663", "lng": "126.667724"}, {"statNm": "\uc2e0\ub840\uc6d0 \uacf5\uc601\uc8fc\ucc28\uc7a5", "addr": "\ucda9\uccad\ub0a8\ub3c4 \uc608\uc0b0\uad70 \uc2e0\ub840\uc6d0\ub85c 216", "lat": "36.727420", "lng": "126.846370"}, {"statNm": "\uc218\ub355\uc0ac", "addr": "\ucda9\uccad\ub0a8\ub3c4 \uc608\uc0b0\uad70 \ub355\uc0b0\uba74 \uc218\ub355\uc0ac\uc548\uae38 79", "lat": "36.662635", "lng": "126.622396"}, {"statNm": "\uc774\uc6d0\uba74 \uba74\uc0ac\ubb34\uc18c", "addr": "\ucda9\uccad\ub0a8\ub3c4 \ud0dc\uc548\uad70 \uc774\uc6d0\uba74 \ubd84\uc9c0\uae38 14", "lat": "36.869725", "lng": "126.280576"}, {"statNm": "\uc2e0\ub450\ub9ac\uc0ac\uad6c\uc13c\ud130", "addr": "\ucda9\uccad\ub0a8\ub3c4 \ud0dc\uc548\uad70 \uc2e0\ub450\ud574\ubcc0\uae38 201-49", "lat": "36.842925", "lng": "126.194965"}, {"statNm": "\ub0a8\uba74 \ub2f9\uc554\ud3ec\uad6c", "addr": "\ucda9\uccad\ub0a8\ub3c4 \ud0dc\uc548\uad70 \ub0a8\uba74 \ub2f9\uc554\ub9ac 1-64", "lat": "36.621620", "lng": "126.355253"}, {"statNm": "\uc774\ub9c8\ud2b8 \ucc9c\uc548\uc11c\ubd81\uc810", "addr": "\ucda9\uccad\ub0a8\ub3c4 \ucc9c\uc548\uc2dc \uc11c\ubd81\uad6c \uc0bc\uc131\ub300\ub85c 20", "lat": "36.838689", "lng": "127.121925"}, {"statNm": "\uc774\ub9c8\ud2b8 \ucc9c\uc548\uc810", "addr": "\ucda9\uccad\ub0a8\ub3c4 \ucc9c\uc548\uc2dc \uc11c\ubd81\uad6c \ucda9\ubb34\ub85c 187", "lat": "36.795809", "lng": "127.126998"}, {"statNm": "\ud569\ub355\uc218\ub9ac\ubbfc\uc18d\ubc15\ubb3c\uad00", "addr": "\ucda9\uccad\ub0a8\ub3c4 \ub2f9\uc9c4\uc2dc \ud569\ub355\uc74d \ub355\ud3c9\ub85c 379-9", "lat": "36.7939194", "lng": "126.7834256"}, {"statNm": "\ubcd1\ucc9c \uc81c1\uacf5\uc601\uc8fc\ucc28\uc7a5", "addr": "\ucda9\uccad\ub0a8\ub3c4 \ucc9c\uc548\uc2dc \ub3d9\ub0a8\uad6c \ubcd1\ucc9c\ub9ac 211-1", "lat": "36.7594717", "lng": "127.2990732"}, {"statNm": "\uc30d\uc6a9 \uc81c1\uacf5\uc601\uc8fc\ucc28\uc7a5", "addr": "\ucda9\uccad\ub0a8\ub3c4 \ucc9c\uc548\uc2dc \uc11c\ubd81\uad6c \ubbf8\ub77c3\uae38 16", "lat": "36.80093727", "lng": "127.13087972"}, {"statNm": "\uc2e0\uad00\ub3d9 \uacf5\uc601\uc8fc\ucc28\uc7a5", "addr": "\ucda9\uccad\ub0a8\ub3c4 \uacf5\uc8fc\uc2dc \uc2e0\uad00\ub3d9 4", "lat": "36.4753", "lng": "127.1464"}, {"statNm": "\uae08\uac15\ub300\ud559\uad50", "addr": "\ucda9\uccad\ub0a8\ub3c4 \ub17c\uc0b0\uc2dc \uc0c1\uc6d4\uba74 \uc0c1\uc6d4\ub85c 522", "lat": "36.3064", "lng": "127.1964"}, {"statNm": "\ud55c\uad6d\ub3c4\ub85c\uacf5\uc0ac \ub2f9\uc9c4\uc9c0\uc0ac", "addr": "\ucda9\uccad\ub0a8\ub3c4 \ub2f9\uc9c4\uc2dc \uc1a1\uc545\uc74d \ubc18\ucd0c\ub85c 236", "lat": "36.89811150", "lng": "126.70337680"}, {"statNm": "\ucda9\uccad\uad8c \ub300\uae30\ud658\uacbd\uc5f0\uad6c\uc18c", "addr": "\ucda9\uccad\ub0a8\ub3c4 \uc11c\uc0b0\uc2dc \uc218\uc11d1\uae38 124-1", "lat": "36.7767933", "lng": "126.49382"}, {"statNm": "\uc544\uc0b0 \uc7a5\uc560\uc778 \uad6d\ubbfc\uccb4\uc721\uc13c\ud130", "addr": "\ucda9\uccad\ub0a8\ub3c4 \uc544\uc0b0\uc2dc \uace1\uad50\ucc9c\ub85c 27\ubc88\uae38 33", "lat": "36.78853730", "lng": "126.98158640"}, {"statNm": "\uc544\uc0b0\uc2dc \uad6d\ubbfc\uccb4\uc721\uc13c\ud130", "addr": "\ucda9\uccad\ub0a8\ub3c4 \uc544\uc0b0\uc2dc \ubaa8\uc885\ubd81\ub85c 76\ubc88\uae38 62", "lat": "36.78925530", "lng": "127.02785040"}, {"statNm": "\uc544\uc0b0\uc2dc \ubc30\ubbf8\uc218\uc601\uc7a5", "addr": "\ucda9\uccad\ub0a8\ub3c4 \uc544\uc0b0\uc2dc \uc2e4\uc625\ub85c234", "lat": "36.79690161", "lng": "126.97617880"}, {"statNm": "\uc544\uc0b0\uc2dc \ubc30\ubc29\uc2a4\ud3ec\uce20\uc13c\ud130", "addr": "\ucda9\uccad\ub0a8\ub3c4 \uc544\uc0b0\uc2dc \ubc30\ubc29\uc74d \ubd81\uc218\ub9ac 1783", "lat": "36.76932761", "lng": "127.07524022"}, {"statNm": "\uc544\uc0b0\uc2dc \uc2e0\uc815\ud638 \uc8fc\ucc28\uc7a5(\ub290\ud2f0\ub098\ubb34\uc27c\ud130)", "addr": "\ucda9\uccad\ub0a8\ub3c4 \uc544\uc0b0\uc2dc \ubc29\ucd95\ub3d9 655-5", "lat": "36.764381", "lng": "126.974670"}, {"statNm": "\uc2e0\ub840\uc6d0 \ud604\ub300\uc544\ud30c\ud2b8 \ub4a4 \uacf5\uc601\uc8fc\ucc28\uc7a5", "addr": "\ucda9\uccad\ub0a8\ub3c4 \uc608\uc0b0\uad70 \uc608\uc0b0\uc74d \uc2e0\ub840\uc6d0\ub9ac 611-151", "lat": "36.7231131", "lng": "126.8399521"}, {"statNm": "\uc8fc\uad50\ub9ac \uacf5\uc601\uc8fc\ucc28\uc7a5", "addr": "\ucda9\uccad\ub0a8\ub3c4 \uc608\uc0b0\uad70 \uc608\uc0b0\uc74d \uc8fc\uad50\ub9ac 243-2", "lat": "36.68369320", "lng": "126.82993650"}, {"statNm": "\ub300\ud68c\ub9ac \uacf5\uc601\uc8fc\ucc28\uc7a5", "addr": "\ucda9\uccad\ub0a8\ub3c4 \uc608\uc0b0\uad70 \uc608\uc0b0\uc74d \ub300\ud68c\ub9ac 221-3", "lat": "36.67545140", "lng": "126.84875610"}, {"statNm": "\ub450\uc815\uc5ed \uc81c1\uacf5\uc601\uc8fc\ucc28\uc7a5", "addr": "\ucda9\uccad\ub0a8\ub3c4 \ucc9c\uc548\uc2dc \uc11c\ubd81\uad6c \ub450\uc815\ub3d9 91-1", "lat": "36.8319261", "lng": "127.150577"}, {"statNm": "\ubd81\uba74\ud589\uc815\ubcf5\uc9c0\uc13c\ud130", "addr": "\ucda9\uccad\ub0a8\ub3c4 \ucc9c\uc548\uc2dc \ub3d9\ub0a8\uad6c \uc704\ub840\uc131\ub85c 724", "lat": "36.82706920", "lng": "127.27312850"}, {"statNm": "\ubd88\ub2f9 \uc81c3\uacf5\uc601\uc8fc\ucc28\uc7a5", "addr": "\ucda9\uccad\ub0a8\ub3c4 \ucc9c\uc548\uc2dc \uc11c\ubd81\uad6c \ubd88\ub2f9\ub3d9 910", "lat": "36.8052064", "lng": "127.1083253"}, {"statNm": "\uc548\uc11c \uc81c1\uacf5\uc601\uc8fc\ucc28\uc7a5", "addr": "\ucda9\uccad\ub0a8\ub3c4 \ucc9c\uc548\uc2dc \ub3d9\ub0a8\uad6c \uc548\uc11c\ub3d9 526-39", "lat": "36.83808010", "lng": "127.173561"}, {"statNm": "\uccad\uc591\uad70\uccad", "addr": "\ucda9\uccad\ub0a8\ub3c4 \uccad\uc591\uad70 \uccad\uc591\uc74d \ubb38\ud654\uc608\uc220\ub85c 222", "lat": "36.457744", "lng": "126.8024272"}, {"statNm": "\ud64d\uc131\uad70\uccad", "addr": "\ucda9\uccad\ub0a8\ub3c4 \ud64d\uc131\uad70 \ud64d\uc131\uc74d \uc544\ubb38\uae38 27", "lat": "36.60157247", "lng": "126.66184645"}, {"statNm": "\uba74\ucc9c\ub18d\ud611\ud558\ub098\ub85c\ub9c8\ud2b8", "addr": "\ucda9\uccad\ub0a8\ub3c4 \ub2f9\uc9c4\uc2dc \uba74\ucc9c\uba74 \uc131\uc0c1\ub9ac 331-1", "lat": "36.3814715", "lng": "126.67609"}, {"statNm": "\uad6d\ub9bd\uc0dd\ud0dc\uc6d0", "addr": "\ucda9\uccad\ub0a8\ub3c4 \uc11c\ucc9c\uad70 \ub9c8\uc11c\uba74 \uae08\uac15\ub85c 1210", "lat": "36.0259870", "lng": "126.72130330"}, {"statNm": "\ud55c\uad6d\uc0dd\uc0b0\uae30\uc220\uc5f0\uad6c\uc6d0(\ubcf8\uc6d0)", "addr": "\ucda9\uccad\ub0a8\ub3c4 \ucc9c\uc548\uc2dc \uc785\uc7a5\uba74 \uc591\ub300\uae30\ub85c\uae38 89", "lat": "36.90433050", "lng": "127.24596270"}, {"statNm": "\uac15\uacbd\uc2e4\ub0b4\uc218\uc601\uc7a5 \uc8fc\ucc28\uc7a5", "addr": "\ucda9\uccad\ub0a8\ub3c4 \ub17c\uc0b0\uc2dc \uc0b0\uc5911\uae382", "lat": "36.1467016", "lng": "127.0217375"}, {"statNm": "\ubcf4\ub839\ub178\uc778\uc885\ud569\ubcf5\uc9c0\uad00", "addr": "\ucda9\uccad\ub0a8\ub3c4 \ubcf4\ub839\uc2dc \ub300\ucc9c\ub85c113", "lat": "36.356482", "lng": "126.603618"}, {"statNm": "\ucc9c\ubd81\uba74\uc0ac\ubb34\uc18c", "addr": "\ucda9\uccad\ub0a8\ub3c4 \ubcf4\ub839\uc2dc \ucc9c\ubd81\uba74 \ud64d\ubcf4\ub85c462", "lat": "36.478917", "lng": "126.527148"}, {"statNm": "\uac00\uc871\ud589\ubcf5\uc13c\ud130", "addr": "\ucda9\uccad\ub0a8\ub3c4 \ubd80\uc5ec\uad70 \uaddc\uc554\uba74 \uc544\ub9841\ub85c64", "lat": "36.303378", "lng": "126.888337"}, {"statNm": "\uc591\ud654\uba74\ud589\uc815\ubcf5\uc9c0\uc13c\ud130", "addr": "\ucda9\uccad\ub0a8\ub3c4 \ubd80\uc5ec\uad70 \uc591\ud654\uba74 \uc785\ud3ec\ub85c53\ubc88\uae386", "lat": "36.135361", "lng": "126.881139"}, {"statNm": "\uc740\uc0b0\uba74 \uccb4\uc721\ud68c\uad00 \uc8fc\ucc28\uc7a5", "addr": "\ucda9\uccad\ub0a8\ub3c4 \ubd80\uc5ec\uad70 \uc740\uc0b0\uba74 \ucda9\uc758\ub85c694", "lat": "36.309895", "lng": "126.854948"}, {"statNm": "\uace0\ubd81\uba74\ud589\uc815\ubcf5\uc9c0\uc13c\ud130", "addr": "\ucda9\uccad\ub0a8\ub3c4 \uc11c\uc0b0\uc2dc \uace0\ubd81\uba74 \uace0\ubd811\ub85c294", "lat": "36.66713", "lng": "126.533325"}, {"statNm": "\uc11c\uc0b0\uc2dc \uad50\uc721\uc9c0\uc6d0\uccad", "addr": "\ucda9\uccad\ub0a8\ub3c4 \uc11c\uc0b0\uc2dc \ubb38\ud654\ub85c112", "lat": "36.787087", "lng": "126.44321"}, {"statNm": "\uc0bd\uad50\uc74d \uc8fc\ubbfc\ubcf5\ud569\uc9c0\uc6d0\uc13c\ud0c0", "addr": "\ucda9\uccad\ub0a8\ub3c4 \uc608\uc0b0\uad70 \uc0bd\uad50\uc74d \uc608\ud559\ub85c65", "lat": "36.664504", "lng": "126.675116"}, {"statNm": "\ube44\ubd09\uba74\uc0ac\ubb34\uc18c", "addr": "\ucda9\uccad\ub0a8\ub3c4 \uccad\uc591\uad70 \ube44\ubd09\uba74 \ucda9\uc808\ub85c1994", "lat": "36.519226", "lng": "126.78647"}, {"statNm": "\uae08\uc0b0\uad70\ub18d\uc5c5\uae30\uc220\uc13c\ud130", "addr": "\ucda9\uccad\ub0a8\ub3c4 \uae08\uc0b0\uad70 \uae08\uc131\uba74 \uc758\ucd1d\uae3825", "lat": "36.125978", "lng": "127.495885"}, {"statNm": "\ubcf4\ub839\ub0c9\ud48d\uc695\uc7a5", "addr": "\ucda9\uccad\ub0a8\ub3c4 \ubcf4\ub839\uc2dc \uccad\ub77c\uba74 \uc758\ud3c9\ub9ac 50-19", "lat": "36.380421", "lng": "126.66722"}, {"statNm": "\uacc4\ub8e1\ubb38\ud654\uc608\uc220\uc758\uc804\ub2f9(\ubb38\ud654\uccb4\uc721\ub3d9)", "addr": "\ucda9\uccad\ub0a8\ub3c4 \uacc4\ub8e1\uc2dc \uc5c4\uc0ac\uba74 \ubb38\ud6541\ub85c13", "lat": "36.2732787", "lng": "127.2340162"}, {"statNm": "\uc138\ub3c4\uba74\ud589\uc815\ubcf5\uc9c0\uc13c\ud130", "addr": "\ucda9\uccad\ub0a8\ub3c4 \ubd80\uc5ec\uad70 \uc138\ub3c4\uba74 \uc138\ub3c4\uc911\uc559\ub85c8", "lat": "36.170061", "lng": "126.948268"}, {"statNm": "\ucda9\ud654\uba74\ud589\uc815\ubcf5\uc9c0\uc13c\ud130(\uae30\uc874\uc9c0\uc810 \ucd94\uac00\uc124\uce58)", "addr": "\ucda9\uccad\ub0a8\ub3c4 \ubd80\uc5ec\uad70 \ucda9\ud654\uba74 \ud314\ucda9\ub85c770", "lat": "36.181931", "lng": "126.821538"}, {"statNm": "\ucc9c\uc548\ud48d\uc138\uc77c\ubc18\uc0b0\uc5c5\ub2e8\uc9c0", "addr": "\ucda9\uccad\ub0a8\ub3c4 \ucc9c\uc548\uc2dc \ub3d9\ub0a8\uad6c \ud48d\uc138\uc0b0\ub2e84\ub85c81", "lat": "36.7295", "lng": "127.09835"}, {"statNm": "\uc11c\uc0b0\uc2dc\ubcf4\uac74\uc18c", "addr": "\ucda9\uccad\ub0a8\ub3c4 \uc11c\uc0b0\uc2dc \ud638\uc218\uacf5\uc6d06\ub85c 6", "lat": "36.7741847", "lng": "126.4445773"}, {"statNm": "\ud638\uc218\uacf5\uc6d0 \uacf5\uc601 \uc8fc\ucc28\uc7a5", "addr": "\ucda9\uccad\ub0a8\ub3c4 \uc11c\uc0b0\uc2dc \uc608\ucc9c\ub3d9 1277-3", "lat": "36.7725299", "lng": "126.4499532"}, {"statNm": "\uc6d0\ub3c4\uc2ec\uacf5\uc601\uc8fc\ucc28\uc7a5", "addr": "\ucda9\uccad\ub0a8\ub3c4 \uc11c\uc0b0\uc2dc \ub3d9\ubb38\ub3d9 934-9", "lat": "36.7830124", "lng": "126.4538115"}, {"statNm": "\ud558\ub098\ub85c\ub9c8\ud2b8 \uc11c\ubd80\uc9c0\uc810", "addr": "\ucda9\uccad\ub0a8\ub3c4 \uc11c\uc0b0\uc2dc \uace0\uc6b4\ub85c 106", "lat": "36.779558", "lng": "126.4493299"}, {"statNm": "\uace0\ub0a8\uba74\uc0ac\ubb34\uc18c", "addr": "\ucda9\uccad\ub0a8\ub3c4 \ud0dc\uc548\uad70 \uace0\ub0a8\uba74 \uc548\uba74\ub300\ub85c 4254-12", "lat": "36.4205076", "lng": "126.4093614"}, {"statNm": "\uc131\uc5f0\uba74 \ud589\uc815\ubcf5\uc9c0\uc13c\ud130", "addr": "\ucda9\uccad\ub0a8\ub3c4 \uc11c\uc0b0\uc2dc \uc131\uc5f0\uba74 \ub9c8\ub8e8\ub4e4\uae38 15", "lat": "36.838862", "lng": "126.4609179"}, {"statNm": "\uc6b4\uc0b0\uba74 \ud589\uc815\ubcf5\uc9c0\uc13c\ud130", "addr": "\ucda9\uccad\ub0a8\ub3c4 \uc11c\uc0b0\uc2dc \uc6b4\uc0b0\uba74 \uc6b4\uc554\ub85c 1016", "lat": "36.8110327", "lng": "126.5805842"}, {"statNm": "\uc74c\uc554\uba74 \ud589\uc815\ubcf5\uc9c0\uc13c\ud130", "addr": "\ucda9\uccad\ub0a8\ub3c4 \uc11c\uc0b0\uc2dc \uc74c\uc554\uba74 \ub3c4\ub2f9\ub9ac 1304-3", "lat": "36.7997617", "lng": "126.5176223"}, {"statNm": "\ubc30\ubc29\uc74d \uc9c0\uc0b0\uacf5\uc6d0 \uc81c1\uc8fc\ucc28\uc7a5", "addr": "\ucda9\uccad\ub0a8\ub3c4 \uc544\uc0b0\uc2dc \ubc30\ubc29\uc74d \uc5f0\ud654\ub85c 29", "lat": "36.7864532", "lng": "127.093815"}, {"statNm": "\uc544\uc0b0\uacbd\ucc30\uc11c", "addr": "\ucda9\uccad\ub0a8\ub3c4 \uc544\uc0b0\uc2dc \ub0a8\ubd80\ub85c 370-15", "lat": "36.7711908", "lng": "127.0220835"}, {"statNm": "\uc11c\ub3d9\uacf5\uc6d0 \uc11c\ubb38 \uc8fc\ucc28\uc7a5", "addr": "\ucda9\uccad\ub0a8\ub3c4 \ubd80\uc5ec\uad70 \ubd80\uc5ec\uc74d \uc2e0\uae30\uc815\ub85c 15", "lat": "36.2707777", "lng": "126.9093321"}, {"statNm": "\ub3c5\ub9bd\uae30\ub150\uad00 \uc8fc\ucc28\uc7a5", "addr": "\ucda9\uccad\ub0a8\ub3c4 \ucc9c\uc548\uc2dc \ub3d9\ub0a8\uad6c \ubaa9\ucc9c\uc74d \ub3c5\ub9bd\uae30\ub150\uad00\ub85c 1", "lat": "36.7798728", "lng": "127.231468"}, {"statNm": "\uacf5\uc8fc\uacbd\ucc30\uc11c", "addr": "\ucda9\uccad\ub0a8\ub3c4 \uacf5\uc8fc\uc2dc \ubc31\uc81c\ubb38\ud654\ub85c 2148-15", "lat": "36.4562367", "lng": "127.1096883"}, {"statNm": "\uc21c\ucc9c\ud5a5\ub300\ud559\uad50 \uc720\ud1a0\ud53c\uc544\uad00 \uc8fc\ucc28\uc7a5", "addr": "\ucda9\uccad\ub0a8\ub3c4 \uc544\uc0b0\uc2dc \uc2e0\ucc3d\uba74 \uc21c\ucc9c\ud5a5\ub85c 22-6", "lat": "36.7691362", "lng": "126.9329202"}, {"statNm": "\uc21c\ucc9c\ud5a5\ub300\ud559\uad50 \uba40\ud2f0\ubbf8\ub514\uc5b4\uad00 \uc8fc\ucc28\uc7a5", "addr": "\ucda9\uccad\ub0a8\ub3c4 \uc544\uc0b0\uc2dc \uc2e0\ucc3d\uba74 \uc21c\ucc9c\ud5a5\ub85c 22-11", "lat": "36.7687529", "lng": "126.9349425"}, {"statNm": "\uc21c\ucc9c\ud5a5\ub300\ud559\uad50 \ubbf8\ub514\uc5b4\ub7a9\uc2a4\uad00", "addr": "\ucda9\uccad\ub0a8\ub3c4 \uc544\uc0b0\uc2dc \uc2e0\ucc3d\uba74 \uc21c\ucc9c\ud5a5\ub85c 22-19", "lat": "36.772237533", "lng": "126.93100173"}, {"statNm": "\ud55c\uad6d\uc804\ud1b5\ubb38\ud654\ub300\ud559\uad50", "addr": "\ucda9\uccad\ub0a8\ub3c4 \ubd80\uc5ec\uad70 \uaddc\uc554\uba74 \ubc31\uc81c\ubb38\ub85c 367", "lat": "36.308482", "lng": "126.896821"}, {"statNm": "a\ud638\ud154", "addr": "\ucda9\uccad\ub0a8\ub3c4 \ub2f9\uc9c4\uc2dc \uc1a1\uc545\uc74d \ubd80\uace1\uacf5\ub2e8\ub85c 68-16", "lat": "36.943899", "lng": "126.793451"}, {"statNm": "\uce74\ud398 \ud751", "addr": "\ucda9\uccad\ub0a8\ub3c4 \ucc9c\uc548\uc2dc \ub3d9\ub0a8\uad6c \ubd81\uba74 \uc704\ub840\uc131\ub85c 824-36", "lat": "36.833267", "lng": "127.271989"}, {"statNm": "\ud574\uac00\uc778", "addr": "\ucda9\uccad\ub0a8\ub3c4 \ubcf4\ub839\uc2dc \ucc9c\ubd81\uba74 \ud64d\ubcf4\ub85c 337", "lat": "36.467423", "lng": "126.524430"}, {"statNm": "\uc7a5\uc218\uc6b0\ub801\uc308\ubc25", "addr": "\ucda9\uccad\ub0a8\ub3c4 \uc11c\uc0b0\uc2dc \uc131\uc5f0\uba74 \ucda9\uc758\ub85c 755", "lat": "36.836370", "lng": "126.440357"}, {"statNm": "\ub7ed\uc2a4\ud39c\uc158\ud154", "addr": "\ucda9\uccad\ub0a8\ub3c4 \ud0dc\uc548\uad70 \uc548\uba74\uc74d \ubc31\uc0ac\uc7a51\uae38 129-3", "lat": "36.584554", "lng": "126.315735"}, {"statNm": "\ub17c\uc0b0\ud6c8\ub828\uc18c \uc6b0\ub9ac\uc9d1\ud39c\uc158", "addr": "\ucda9\uccad\ub0a8\ub3c4 \ub17c\uc0b0\uc2dc \uc5f0\ubb34\uc74d \ud669\ud654\ub85c 360", "lat": "36.103573", "lng": "127.096903"}, {"statNm": "\uc0bc\ubd09\uc140\ud504\uc138\ucc28\uc7a5", "addr": "\ucda9\uccad\ub0a8\ub3c4 \ub2f9\uc9c4\uc2dc \uc11d\ubb38\uba74 \ub300\ud638\ub9cc\ub85c 1710", "lat": "37.012363", "lng": "126.539806"}, {"statNm": "\uc5d0\uc2a4\uc9c0\uc2a4\ud06c\ub9b0\uace8\ud504 \uc5c5\uc131\uc810", "addr": "\ucda9\uccad\ub0a8\ub3c4 \ucc9c\uc548\uc2dc \uc11c\ubd81\uad6c 2\uacf5\ub2e83\ub85c 102-12", "lat": "36.859792", "lng": "127.124573"}, {"statNm": "\ud1a0\uc131\uace8\ud504\ub79c\ub4dc", "addr": "\ucda9\uccad\ub0a8\ub3c4 \ub17c\uc0b0\uc2dc \uc740\uc9c4\uba74 \ud0d1\uc815\ub85c 311", "lat": "36.170850", "lng": "127.099409"}, {"statNm": "\ub534\ub69d\uc2dd\ub2f9", "addr": "\ucda9\uccad\ub0a8\ub3c4 \ud0dc\uc548\uad70 \uc548\uba74\uc74d \uc548\uba74\ub300\ub85c 3037", "lat": "36.507118", "lng": "126.350182"}, {"statNm": "\uc6d0\uc131K\uc2a4\ud06c\ub9b0\uace8\ud504", "addr": "\ucda9\uccad\ub0a8\ub3c4 \ucc9c\uc548\uc2dc \ub3d9\ub0a8\uad6c \ucc9c\uc548\ub300\ub85c 611", "lat": "36.802766", "lng": "127.163974"}, {"statNm": "\ud574\uc131\ube4c\ub529", "addr": "\ucda9\uccad\ub0a8\ub3c4 \uc544\uc0b0\uc2dc \ud0d5\uc815\uba74 \uc6a9\uba38\ub9ac\uae38 71", "lat": "36.7958179", "lng": "127.0538977"}, {"statNm": "\ud55c\uad6d\uc564\ucef4\ud37c\ub2c8(\uc8fc)", "addr": "\ucda9\uccad\ub0a8\ub3c4 \uae08\uc0b0\uad70 \ubd80\ub9ac\uba74 \uc801\ubcbd\uac15\ub85c 378", "lat": "36.0702876", "lng": "127.5880814"}, {"statNm": "\uad6d\ub9bd\ud2b9\uc218\uad50\uc721\uc6d0", "addr": "\ucda9\uccad\ub0a8\ub3c4 \uc544\uc0b0\uc2dc \ubc30\ubc29\uc74d \uacf5\uc6d0\ub85c 40", "lat": "36.787583", "lng": "127.100701"}, {"statNm": "\ud574\ubbf8\uacf5\uad70\ubd80\ub300", "addr": "\ucda9\uccad\ub0a8\ub3c4 \uc11c\uc0b0\uc2dc \ud574\ubbf8\uba74 \uae30\uc9c01\uae38 27", "lat": "36.7077975", "lng": "126.511287"}, {"statNm": "GS\uc218\ud37c\ub9c8\ucf13 \uc608\uc0b0\uc810", "addr": "\ucda9\uccad\ub0a8\ub3c4 \uc608\uc0b0\uad70 \uc608\uc0b0\uc74d \uc0b0\uc131\ub9ac", "lat": "36.68756300000", "lng": "126.8347979999"}, {"statNm": "GS\uc218\ud37c\ub9c8\ucf13 \uacf5\uc8fc\uc810", "addr": "\ucda9\uccad\ub0a8\ub3c4 \uacf5\uc8fc\uc2dc \ubb34\ub839\ub85c 310", "lat": "36.4554869999", "lng": "127.1341879999"}, {"statNm": "GS\uc218\ud37c\ub9c8\ucf13 \ub2f9\uc9c4\uc810", "addr": "\ucda9\uccad\ub0a8\ub3c4 \ub2f9\uc9c4\uc2dc \ub2f9\uc9c4\uc911\uc5592\ub85c 185-50", "lat": "36.89710499999", "lng": "126.6341589999"}, {"statNm": "\uc6a9\uace1\ub3d9 \ub354\uc274\uc544\ud30c\ud2b8", "addr": "\ucda9\uccad\ub0a8\ub3c4 \ucc9c\uc548\uc2dc \ub3d9\ub0a8\uad6c \uc0c8\ub9d01\uae38 47", "lat": "36.789922", "lng": "127.13199"}, {"statNm": "\ud0dc\uc548 \ubcc4\ube5b \uc624\ud1a0 \ucea0\ud551\uc7a5", "addr": "\ucda9\uccad\ub0a8\ub3c4 \ud0dc\uc548\uad70 \uc18c\uc6d0\uba74 \ubc95\uc0b0\uae38 160-20", "lat": "36.746068", "lng": "126.183626"}, {"statNm": "\uad6d\ubbfc\uc5f0\uae08\uacf5\ub2e8(\ubcf4\ub839\uc9c0\uc0ac)", "addr": "\ucda9\uccad\ub0a8\ub3c4 \ubcf4\ub839\uc2dc \ub3d9\ud604\ub85c 27", "lat": "36.351132", "lng": "126.610803"}, {"statNm": "\uae08\uc0b0\ucee8\ubca4\uc158\uc13c\ud130", "addr": "\ucda9\uccad\ub0a8\ub3c4 \uae08\uc0b0\uad70 \uae08\uc131\uba74 \uae08\uc0b0\ub85c 1665", "lat": "36.121968", "lng": "127.495858"}, {"statNm": "\ud55c\uad6d\uc804\uae30\uc548\uc804\uacf5\uc0ac \ucc9c\uc548\uc544\uc0b0\uc9c0\uc0ac", "addr": "\ucda9\uccad\ub0a8\ub3c4 \ucc9c\uc548\uc2dc \ub3d9\ub0a8\uad6c \ucda9\ubb34\ub85c 504", "lat": "36.798479", "lng": "127.161315"}, {"statNm": "\ucc9c\uc548 \uc774\uc81c\uc774\ud30c\ud06c\ub79c\ub4dc", "addr": "\ucda9\uccad\ub0a8\ub3c4 \ucc9c\uc548\uc2dc \uc11c\ubd81\uad6c \ubd88\ub2f925\ub85c 23", "lat": "36.803911", "lng": "127.103783"}, {"statNm": "\ud638\ud154\uae08\uac15", "addr": "\ucda9\uccad\ub0a8\ub3c4 \uacf5\uc8fc\uc2dc \uc804\ub9c92\uae38 16-11", "lat": "36.4704", "lng": "127.1310459"}, {"statNm": "\ubcf4\ub839 \ud574\uc591\uacbd\ucc30\uc11c", "addr": "\ucda9\uccad\ub0a8\ub3c4 \ubcf4\ub839\uc2dc \uc131\uc8fc\uc0b0\ub85c 49", "lat": "36.3352452", "lng": "126.6046069"}, {"statNm": "\ub0a8\uc11c\uc6b8\ub300\ud559\uad50", "addr": "\ucda9\uccad\ub0a8\ub3c4 \ucc9c\uc548\uc2dc \uc11c\ubd81\uad6c \uc131\ud658\uc74d \ub300\ud559\ub85c 91", "lat": "36.908793", "lng": "127.144338"}, {"statNm": "\uc8fc\uc2dd\ud68c\uc0ac \uc1a1\uc545\uc11c\ube44\uc2a4", "addr": "\ucda9\uccad\ub0a8\ub3c4 \ub2f9\uc9c4\uc2dc \uc1a1\uc545\uc74d \ub355\uc801\uace8\uae38 14", "lat": "36.917593", "lng": "126.707199"}, {"statNm": "\uc2a4\ud53c\ub4dc\uba54\uc774\ud2b8\uc608\uc0b0\uc810", "addr": "\ucda9\uccad\ub0a8\ub3c4 \uc608\uc0b0\uad70 \uc608\uc0b0\uc74d \uc608\uc0b0\ub85c 126", "lat": "36.678745", "lng": "126.838921"}, {"statNm": "\ubc29\ucd95\uc810 \ud604\ub300\uc790\ub3d9\ucc28(\uc8fc)", "addr": "\ucda9\uccad\ub0a8\ub3c4 \uc544\uc0b0\uc2dc \uc2e0\uc815\ub85c 757", "lat": "36.784174", "lng": "126.988567"}, {"statNm": "\ud55c\uad6d\ub18d\uc5b4\ucd0c\uacf5\uc0ac\ub17c\uc0b0\uc9c0\uc0ac", "addr": "\ucda9\uccad\ub0a8\ub3c4 \ub17c\uc0b0\uc2dc \uad00\ucd09\ub85c 152", "lat": "36.200589", "lng": "127.105235"}, {"statNm": "\ud55c\uad6d\ub18d\uc5b4\ucd0c\uacf5\uc0ac \uacf5\uc8fc\uc9c0\uc0ac", "addr": "\ucda9\uccad\ub0a8\ub3c4 \uacf5\uc8fc\uc2dc \uacf5\uc8fc\ub300\ud559\ub85c 17-53", "lat": "36.467115", "lng": "127.135405"}, {"statNm": "\ub974\ub124\uc0c1\uc2a4\ud638\ud154", "addr": "\ucda9\uccad\ub0a8\ub3c4 \uacf5\uc8fc\uc2dc \ubc88\uc6012\ub85c 8", "lat": "36.468593", "lng": "127.131913"}, {"statNm": "\uad6d\ubbfc\uac74\uac15\ubcf4\ud5d8\uacf5\ub2e8\ub2f9\uc9c4\uc9c0\uc0ac", "addr": "\ucda9\uccad\ub0a8\ub3c4 \ub2f9\uc9c4\uc2dc \ub300\ub3551\ub85c 37", "lat": "36.8835286", "lng": "126.6365262"}, {"statNm": "\ubcf4\ud2b8\uae08\uac15\ub808\uc800(\uc8fc)", "addr": "\ucda9\uccad\ub0a8\ub3c4 \uc11c\ucc9c\uad70 \uc7a5\ud56d\uc74d \uc7a5\uc0b0\ub85c 612", "lat": "36.000566", "lng": "126.72543"}, {"statNm": "\ucc44\uc120\uc815", "addr": "\ucda9\uccad\ub0a8\ub3c4 \uc11c\ucc9c\uad70 \ub9c8\uc11c\uba74 \uc7a5\uc11c\ub85c 532", "lat": "36.048002", "lng": "126.706837"}, {"statNm": "(\uc8fc)\ub514\uc5e0", "addr": "\ucda9\uccad\ub0a8\ub3c4 \uacf5\uc8fc\uc2dc \ubc18\ud3ec\uba74 \uc784\uae08\ubd09\uae38 78-18", "lat": "36.367193", "lng": "127.251142"}, {"statNm": "\ud31c\uc2a4\ud504\ub9c1\ud638\ud154", "addr": "\ucda9\uccad\ub0a8\ub3c4 \uc544\uc0b0\uc2dc \uc74c\ubd09\uba74 \uc544\uc0b0\uc628\ucc9c\ub85c157\ubc88\uae38 7-99", "lat": "36.856014", "lng": "126.982636"}, {"statNm": "\uc774\ud654\ubcd1\uc6d0", "addr": "\ucda9\uccad\ub0a8\ub3c4 \ucc9c\uc548\uc2dc \uc11c\ubd81\uad6c \ucda9\ubb34\ub85c 165", "lat": "36.79434", "lng": "127.125486"}, {"statNm": "LH\uc544\uc0b0\uc5d0\ub108\uc9c0\uc0ac\uc5c5\ub2e8", "addr": "\ucda9\uccad\ub0a8\ub3c4 \uc544\uc0b0\uc2dc \ubc30\ubc29\uc74d \uc774\uc21c\uc2e0\ub300\ub85c 841", "lat": "36.799038909792", "lng": "127.0928744220"}, {"statNm": "\ud3ec\ub974\uc250 HPC \uc5d0\uc4f0-\uc624\uc77c \uccad\ub8e1\ud734\uac8c\uc8fc\uc720\uc18c", "addr": "\ucda9\uccad\ub0a8\ub3c4 \uacf5\uc8fc\uc2dc \uc758\ub2f9\uba74 \ucc28\ub839\ub85c 2218", "lat": "36.501502999", "lng": "127.14264500"}, {"statNm": "\uc11d\ub0a8\ub3d9\ud589\uc815\ubcf5\uc9c0\uc13c\ud130", "addr": "\ucda9\uccad\ub0a8\ub3c4 \uc11c\uc0b0\uc2dc \uad00\uc544\ubb38\uae38 1", "lat": "36.763858", "lng": "126.45348200"}, {"statNm": "\uc11c\uc0b0\ubb38\ud654\ubcf5\uc9c0\uc13c\ud130(\uc5b4\ub9b0\uc774\ub3c4\uc11c\uad00)", "addr": "\ucda9\uccad\ub0a8\ub3c4 \uc11c\uc0b0\uc2dc \uc11c\ub839\ub85c 136", "lat": "36.792744", "lng": "126.462925"}, {"statNm": "\ud574\ubbf8\uc74d\uc131 \ubb38\ud654\uc2dc\uc124\uc0ac\uc5c5\uc18c", "addr": "\ucda9\uccad\ub0a8\ub3c4 \uc11c\uc0b0\uc2dc \ud574\ubbf8\uba74 \ub0a8\ubb382\ub85c 143", "lat": "36.713003000", "lng": "126.54852900"}, {"statNm": "\ub808\uc774\ud06c\ud790 \ud638\ud154", "addr": "\ucda9\uccad\ub0a8\ub3c4 \ub17c\uc0b0\uc2dc \uac00\uc57c\uace1\uba74 \ud0d1\uc815\ub85c 872", "lat": "36.177179", "lng": "127.157619"}, {"statNm": "\uc544\uc0b0\uc2dc\ub178\uc778\uc885\ud569\ubcf5\uc9c0\uad00 \uc8fc\ucc28\ud0c0\uc6cc", "addr": "\ucda9\uccad\ub0a8\ub3c4 \uc544\uc0b0\uc2dc \ub0a8\uc0b0\ub85c 10", "lat": "36.781969999", "lng": "126.99540599"}, {"statNm": "\uc624\ud1a0\uba54\uce74 \uc778 \ucc9c\uc548", "addr": "\ucda9\uccad\ub0a8\ub3c4 \ucc9c\uc548\uc2dc \uc11c\ubd81\uad6c \ubc88\uc601\ub85c 533", "lat": "36.84799100", "lng": "127.121477"}, {"statNm": "\ub17c\uc0b0\uad6d\ud1a0\uad00\ub9ac\uc0ac\ubb34\uc18c \uc57c\uc678\uc8fc\ucc28\uc7a5", "addr": "\ucda9\uccad\ub0a8\ub3c4 \ub17c\uc0b0\uc2dc \uc2dc\ubbfc\ub85c 121", "lat": "36.178650999", "lng": "127.10104"}, {"statNm": "\ub2e8\uad6d\ub300\ubcd1\uc6d0 \uc8fc\ucc28\uc7a5\ub3d9", "addr": "\ucda9\uccad\ub0a8\ub3c4 \ucc9c\uc548\uc2dc \ub3d9\ub0a8\uad6c \ub9dd\ud5a5\ub85c 201", "lat": "36.842576000", "lng": "127.17311100"}, {"statNm": "\ub17c\uc0b0\uc2dc \uacf5\uc601\uc8fc\ucc28\uc7a5", "addr": "\ucda9\uccad\ub0a8\ub3c4 \ub17c\uc0b0\uc2dc \uc2dc\ubbfc\ub85c210\ubc88\uae38 9", "lat": "36.186036226", "lng": "127.09872727"}, {"statNm": "\uad6d\ub9bd\ud574\uc591\uc0dd\ubb3c\uc790\uc6d0\uad00", "addr": "\ucda9\uccad\ub0a8\ub3c4 \uc11c\ucc9c\uad70 \uc7a5\ud56d\uc74d \uc7a5\uc0b0\ub85c101\ubc88\uae38 75", "lat": "36.017555999", "lng": "126.67005200"}, {"statNm": "\uac04\uc6d4\ub3c4 \uacf5\uc601\uc8fc\ucc28\uc7a5", "addr": "\ucda9\uccad\ub0a8\ub3c4 \uc11c\uc0b0\uc2dc \ubd80\uc11d\uba74 \uac04\uc6d4\ub3c41\uae38 89", "lat": "36.607467658", "lng": "126.41566128"}, {"statNm": "\uc11c\uc0b0\uc2dc \ub18d\uc5c5\uae30\uc220\uc13c\ud130", "addr": "\ucda9\uccad\ub0a8\ub3c4 \uc11c\uc0b0\uc2dc \uc778\uc9c0\uba74 \ubb34\ud559\uc7ac1\uae38 99", "lat": "36.720498103", "lng": "126.41170863"}, {"statNm": "\ud55c\ud654\uc774\uae00\uc2a4 \uc11c\uc0b0\uad6c\uc7a5", "addr": "\ucda9\uccad\ub0a8\ub3c4 \uc11c\uc0b0\uc2dc \uc131\uc5f0\uba74 \uc131\uc5f04\ub85c 96", "lat": "36.826682072", "lng": "126.45614698"}, {"statNm": "\uc218\uc11d\ub18d\uacf5\ub2e8\uc9c0 \uc8fc\ucc28\uc7a5", "addr": "\ucda9\uccad\ub0a8\ub3c4 \uc11c\uc0b0\uc2dc \uc218\uc11d\uc0b0\uc5c5\ub85c 44", "lat": "36.778690000", "lng": "126.50231099"}, {"statNm": "\ud314\ubd09\uba74 \ud589\uc815\ubcf5\uc9c0\uc13c\ud130", "addr": "\ucda9\uccad\ub0a8\ub3c4 \uc11c\uc0b0\uc2dc \ud314\ubd09\uba74 \ud314\ubd091\ub85c 392", "lat": "36.811895078", "lng": "126.34994643"}, {"statNm": "\ubc30\ubc29\uc2dc\uadf8\ub9c8\ube4cS", "addr": "\ucda9\uccad\ub0a8\ub3c4 \uc544\uc0b0\uc2dc \ubc30\ubc29\uc74d \uad11\uc7a5\ub85c 177-14", "lat": "36.798156338", "lng": "127.10492387"}, {"statNm": "\uae30\uc0b0\ud604\ub300\uc544\ud30c\ud2b8", "addr": "\ucda9\uccad\ub0a8\ub3c4 \uc544\uc0b0\uc2dc \uc778\uc8fc\uba74 \uacf5\uc138\uae38 6-7", "lat": "36.879298452", "lng": "126.90837072"}, {"statNm": "\ub2f9\uc9c4\ub300\ub355\uc218\uccad\uc9c0\uad6c \uc911\ud765S\ud074\ub798\uc2a4\ud30c\ud06c\ud790\uc544\ud30c\ud2b8", "addr": "\ucda9\uccad\ub0a8\ub3c4 \ub2f9\uc9c4\uc2dc \ub300\ub3551\ub85c 102-15", "lat": "36.882157001", "lng": "126.64269898"}, {"statNm": "\ube14\ub799\ud384\ud638\ud154(enh)", "addr": "\ucda9\uccad\ub0a8\ub3c4 \uacf5\uc8fc\uc2dc \uc804\ub9c92\uae38 13", "lat": "36.4706772", "lng": "127.1294984"}, {"statNm": "\uc18c\ub315\uc774(ENH)", "addr": "\ucda9\uccad\ub0a8\ub3c4 \ucc9c\uc548\uc2dc \uc11c\ubd81\uad6c \uc131\uac70\uc74d \uc18c\ub315\uc7742\uae38 1-17", "lat": "36.8672978", "lng": "127.1918595"}, {"statNm": "\uad6d\ubbfc\uac74\uac15\ubcf4\ud5d8\uacf5\uc8fc\uc9c0\uc0ac", "addr": "\ucda9\uccad\ub0a8\ub3c4 \uacf5\uc8fc\uc2dc \ubc88\uc6012\ub85c 58", "lat": "36.47224893", "lng": "127.1352748"}, {"statNm": "\ud64d\ub3d9\ub18d\ud611\uae09\uc18d\ucda9\uc804\uc18c(ENH)", "addr": "\ucda9\uccad\ub0a8\ub3c4 \ud64d\uc131\uad70 \ud64d\ub3d9\uba74 \ud64d\uc7a5\ubd81\ub85c 7", "lat": "36.560444", "lng": "126.687027"}, {"statNm": "\ud638\ubc18\ud638\ud154\uc564\ub9ac\uc870\ud2b8 \uae09\uc18d\ucda9\uc804\uc18c(ENH)", "addr": "\ucda9\uccad\ub0a8\ub3c4 \uc608\uc0b0\uad70 \ub355\uc0b0\uba74 \uc628\ucc9c\ub2e8\uc9c03\ub85c 45-7", "lat": "36.694160", "lng": "126.656100"}, {"statNm": "\uc0bd\uad50\ub18d\ud611\ub0b4\ud3ec\ub18d\uc218\uc0b0\ubb3c\uc720\ud1b5\uc13c\ud130\uae09\uc18d\ucda9\uc804\uc18c(ENH)", "addr": "\ucda9\uccad\ub0a8\ub3c4 \uc608\uc0b0\uad70 \uc0bd\uad50\uc74d \uc608\ubaa9\ub85c 171", "lat": "36.671930", "lng": "126.685190"}, {"statNm": "\uc0bd\uad50\ub18d\uc5c5\ud611\ub3d9\uc870\ud569\uae09\uc18d\ucda9\uc804\uc18c(ENH)", "addr": "\ucda9\uccad\ub0a8\ub3c4 \uc608\uc0b0\uad70 \uc0bd\uad50\uc74d \uc0bd\uad50\ub85c 107", "lat": "36.686120", "lng": "126.740630"}, {"statNm": "\ub355\uc0b0\ub18d\ud611\uacbd\uc81c\uc885\ud569\uc13c\ud130\uae09\uc18d\ucda9\uc804\uc18c(ENH)", "addr": "\ucda9\uccad\ub0a8\ub3c4 \uc608\uc0b0\uad70 \ubd09\uc0b0\uba74 \uc608\ub355\ub85c 162", "lat": "36.715990", "lng": "126.679550"}, {"statNm": "\ud64d\ubd81\ub18d\uc5c5\ud611\ub3d9\uc870\ud569\uae09\uc18d\ucda9\uc804\uc18c(ENH)", "addr": "\ucda9\uccad\ub0a8\ub3c4 \ud64d\uc131\uad70 \ud64d\ubd81\uc74d \ud64d\ubd81\ub85c 434", "lat": "36.648490", "lng": "126.691770"}, {"statNm": "(\uc8fc)\uc81c\uc77c\uace8\ud504\uae09\uc18d\ucda9\uc804\uc18c(ENH)", "addr": "\ucda9\uccad\ub0a8\ub3c4 \ud64d\uc131\uad70 \ud64d\ub3d9\uba74 \uad11\uae08\ub0a8\ub85c 950", "lat": "36.573640", "lng": "126.710140"}, {"statNm": "\ub355\uc0b0\ub18d\ud611\ubd09\uc0b0\uc9c0\uc810\uae09\uc18d\ucda9\uc804\uc18c(ENH)", "addr": "\ucda9\uccad\ub0a8\ub3c4 \uc608\uc0b0\uad70 \ubd09\uc0b0\uba74 \ud669\uae08\ub730\ub85c 7", "lat": "36.748690", "lng": "126.682230"}, {"statNm": "\ub355\uc0b0\ub18d\ud611\ub098\ubc15\uc18c\uc9c0\uc810\uae09\uc18d\ucda9\uc804\uc18c(ENH)", "addr": "\ucda9\uccad\ub0a8\ub3c4 \uc608\uc0b0\uad70 \ub355\uc0b0\uba74 \uc218\ub355\uc0ac\ub85c 659", "lat": "36.641530", "lng": "126.606360"}, {"statNm": "\ub3d9\uc11c\ucc9c\ub18d\ud611\ud30c\uba38\uc2a4\ub9c8\ucf13", "addr": "\ucda9\uccad\ub0a8\ub3c4 \uc11c\ucc9c\uad70 \ub9c8\uc11c\uba74 \uae08\uac15\ub85c 1137", "lat": "36.0242224", "lng": "126.7266785"}, {"statNm": "\ubd80\uc5ec \uace8\ud504\ubb34\uc778\ud154", "addr": "\ucda9\uccad\ub0a8\ub3c4 \ubd80\uc5ec\uad70 \uaddc\uc554\uba74 \uc11c\uad81\ub85c 147-1", "lat": "36.3178151", "lng": "126.8970628"}, {"statNm": "\uc6b0\uc815\ud790\uc2a4\ucee8\ud2b8\ub9ac\ud074\ub7fd", "addr": "\ucda9\uccad\ub0a8\ub3c4 \ucc9c\uc548\uc2dc \ub3d9\ub0a8\uad6c \ubaa9\ucc9c\uc74d \ucda9\uc808\ub85c 1048-68", "lat": "36.7697246", "lng": "127.2228822"}, {"statNm": "\uacf5\uc8fc\uc5ec\uc131\ub18d\uc5c5\uc778\uc13c\ud130", "addr": "\ucda9\uccad\ub0a8\ub3c4 \uacf5\uc8fc\uc2dc \uc0ac\uace1\uba74 \ud1b5\ucc9c\ud3ec\uae38 263", "lat": "36.4814735", "lng": "127.0458954"}, {"statNm": "\ucda9\uccad\ub0a8\ub3c4\ucc9c\uc548\uc758\ub8cc\uc6d0(\uc774\uacbd\uc11d)", "addr": "\ucda9\uccad\ub0a8\ub3c4 \ucc9c\uc548\uc2dc \ub3d9\ub0a8\uad6c \ucda9\uc808\ub85c 537", "lat": "36.7754898", "lng": "127.1792753"}, {"statNm": "\ucc9c\uc548 e\ud3b8\ud55c\uc138\uc0c1 \ub450\uc8154\ucc28\uc544\ud30c\ud2b8", "addr": "\ucda9\uccad\ub0a8\ub3c4 \ucc9c\uc548\uc2dc \uc11c\ubd81\uad6c \ub450\uc815\uacf5\ub2e82\uae38 50", "lat": "36.8369783", "lng": "127.1560424"}, {"statNm": "\ud0dc\uc548 \uad6d\ubc29\uacfc\ud559\uc5f0\uad6c\uc18c \uc81c5\uae30\uc220\uc5f0\uad6c\ubcf8\ubd80", "addr": "\ucda9\uccad\ub0a8\ub3c4 \ud0dc\uc548\uad70 \ud0dc\uc548\uc74d \ub3c5\uc0d8\ub85c 5", "lat": "36.7514356", "lng": "126.2971428"}, {"statNm": "\ub17c\uc0b0 \ub2e4\uc62c\ud504\ub77c\uc790", "addr": "\ucda9\uccad\ub0a8\ub3c4 \ub17c\uc0b0\uc2dc \uc5f0\uc0b0\uba74 \ud669\uc0b0\ubc8c\ub85c 1498", "lat": "36.2127818", "lng": "127.2181828"}, {"statNm": "\ub17c\uc0b0 \uacc4\ub8e1\uc0c1\uc0ac", "addr": "\ucda9\uccad\ub0a8\ub3c4 \ub17c\uc0b0\uc2dc \uc5f0\uc0b0\uba74 \ud669\uc0b0\ubc8c\ub85c 1492-1", "lat": "36.2125213", "lng": "127.218747"}, {"statNm": "\uccad\uc591 \uc6b4\uace1\uba74\uc0ac\ubb34\uc18c", "addr": "\ucda9\uccad\ub0a8\ub3c4 \uccad\uc591\uad70 \uc6b4\uace1\uba74 \uccad\uc2e0\ub85c 873", "lat": "36.5239953", "lng": "126.844834"}, {"statNm": "\uacf5\uc8fc \ubc18\ub514\ud638\ud154", "addr": "\ucda9\uccad\ub0a8\ub3c4 \uacf5\uc8fc\uc2dc \ubc18\ud3ec\uba74 \uc784\uae08\ubd09\uae38 99", "lat": "36.3682504", "lng": "127.2550044"}, {"statNm": "\uc11c\ucc9c \u321c\ud558\ub098", "addr": "\ucda9\uccad\ub0a8\ub3c4 \uc11c\ucc9c\uad70 \uc885\ucc9c\uba74 \ud76c\ub9ac\uc0b0\uae38 7", "lat": "36.0972334", "lng": "126.6688581"}, {"statNm": "\uc11c\uacf5\uc8fcIC \uad00\uad11\ub18d\uc6d0 \uc644\uc18d \uae09\uc18d\ucda9\uc804\uc18c", "addr": "\ucda9\uccad\ub0a8\ub3c4 \uacf5\uc8fc\uc2dc \uc6b0\uc131\uba74 \uacf5\uc218\uc6d0\ub85c 3-59", "lat": "36.4439013", "lng": "127.0230858"}, {"statNm": "\ub2f9\uc9c4 \uc2a4\ub9c8\ud2b8\ubcbd\uc6b0\ube4c\ub529", "addr": "\ucda9\uccad\ub0a8\ub3c4 \ub2f9\uc9c4\uc2dc \uc2dc\uccad2\ub85c 18", "lat": "36.8895987", "lng": "126.6440295"}, {"statNm": "\ub2f9\uc9c4 \ub098\ub77c\ube4c\ub529", "addr": "\ucda9\uccad\ub0a8\ub3c4 \ub2f9\uc9c4\uc2dc \ubb34\uc218\ub3d92\uae38 20", "lat": "36.8893801", "lng": "126.6381973"}, {"statNm": "\ucc9c\uc548 \u321c\uc7a5\uc131\uc804\ub825", "addr": "\ucda9\uccad\ub0a8\ub3c4 \ucc9c\uc548\uc2dc \ub3d9\ub0a8\uad6c \ubaa9\ucc9c\uc74d \uc9c4\uc8fc\uace8\uae38 54", "lat": "36.7477981", "lng": "127.1916524"}, {"statNm": "\uacf5\uc8fc \ub18d\uc6d0", "addr": "\ucda9\uccad\ub0a8\ub3c4 \uacf5\uc8fc\uc2dc \ubc18\ud3ec\uba74 \ub3d9\ud559\uc0ac2\ub85c 46", "lat": "36.3584345", "lng": "127.2478021"}, {"statNm": "\ubcf4\ub839 \uc120\uc6b0\uc790\ub3d9\ucc28\uacf5\uc5c5\uc0ac", "addr": "\ucda9\uccad\ub0a8\ub3c4 \ubcf4\ub839\uc2dc \uc8fc\uad50\uba74 \ubcf4\ub839\ubd81\ub85c 417", "lat": "36.3772039", "lng": "126.5833675"}, {"statNm": "\uc544\uc0b0 \ubbf8\uc885\uc0b0\uc5c5\uac1c\ubc1c\u321c", "addr": "\ucda9\uccad\ub0a8\ub3c4 \uc544\uc0b0\uc2dc \ubaa8\uc885\ub85c 9-7", "lat": "36.7847034", "lng": "127.0175727"}, {"statNm": "\ubcf4\ub839\ub310 \ud669\ud1a0\ud55c\uc99d\ub9c9", "addr": "\ucda9\uccad\ub0a8\ub3c4 \ubcf4\ub839\uc2dc \ubbf8\uc0b0\uba74 \ud310\ubbf8\ub85c 696", "lat": "36.2417563", "lng": "126.6807858"}, {"statNm": "\ud0dc\uc548 \ub9c8\uac80\ud3ec\ud790\ub9c1\ucea0\ud551\uc7a5", "addr": "\ucda9\uccad\ub0a8\ub3c4 \ud0dc\uc548\uad70 \ub0a8\uba74 \ub9c8\uac80\ud3ec\uae38 313-30", "lat": "36.6094834", "lng": "126.2908412"}, {"statNm": "\uad6d\ubc29\uacfc\ud559\uc5f0\uad6c\uc18c(\uad6c)", "addr": "\ucda9\uccad\ub0a8\ub3c4 \ud0dc\uc548\uad70 \uadfc\ud765\uba74 \uadfc\ud765\ub85c 1421-15", "lat": "36.7549624", "lng": "126.2679556"}, {"statNm": "\ucf54\uc708\ud14c\ud06c", "addr": "\ucda9\uccad\ub0a8\ub3c4 \uc544\uc0b0\uc2dc \ub454\ud3ec\uba74 \uc544\uc0b0\ubc38\ub9ac\ub85c 285", "lat": "36.9146482", "lng": "127.0640864"}, {"statNm": "\uc774\uc548\ub354\uc13c\ud2b8\ub7f4\uc544\ud30c\ud2b8", "addr": "\ucda9\uccad\ub0a8\ub3c4 \ucc9c\uc548\uc2dc \uc11c\ubd81\uad6c \ucc9c\uc548\ub300\ub85c 999-7", "lat": "36.82858573", "lng": "127.15184755"}, {"statNm": "\uacf5\uc8fc\uc6d4\uc1a1LH\ucc9c\ub144\ub098\ubb343\ub2e8\uc9c0", "addr": "\ucda9\uccad\ub0a8\ub3c4 \uacf5\uc8fc\uc2dc \ubb34\ub839\ub85c 600-25", "lat": "36.4756478", "lng": "127.1550758"}, {"statNm": "\ud48d\uc138\ub85c 712", "addr": "\ucda9\uccad\ub0a8\ub3c4 \ucc9c\uc548\uc2dc \ub3d9\ub0a8\uad6c \ud48d\uc138\ub85c 712", "lat": "36.773087395", "lng": "127.14035742"}, {"statNm": "\ubd88\ub2f9\ud30c\ud06c\ubdf0 \uae09\uc18d\ucda9\uc804\uc18c", "addr": "\ucda9\uccad\ub0a8\ub3c4 \ucc9c\uc548\uc2dc \uc11c\ubd81\uad6c \ubd88\ub2f921\ub85c 67-26", "lat": "36.814804289", "lng": "127.10873266"}, {"statNm": "\uc11c\uc0b0\uc608\ucc9c\ud55c\uc131\ud544\ud558\uc6b0\uc2a41 101\ub3d9 \ucda9\uc804\uc18c", "addr": "\ucda9\uccad\ub0a8\ub3c4 \uc11c\uc0b0\uc2dc \ub3d9\uc11c1\ub85c 182", "lat": "36.767556840", "lng": "126.44942771"}, {"statNm": "\ub3d9\ubb38\ud55c\uc131 \ud544\ud558\uc6b0\uc2a4\uc544\ud30c\ud2b81 \ucda9\uc804\uc18c", "addr": "\ucda9\uccad\ub0a8\ub3c4 \uc11c\uc0b0\uc2dc \uc11c\ub839\ub85c 36", "lat": "36.785035001", "lng": "126.45525534"}, {"statNm": "\uc720\uc6d0\ub300\ud559\uad50 \uc544\uc0b0\ucea0\ud37c\uc2a41 \ucda9\uc804\uc18c", "addr": "\ucda9\uccad\ub0a8\ub3c4 \uc544\uc0b0\uc2dc \uc74c\ubd09\uba74 \uc5f0\uc554\uc0b0\ub85c 52-70", "lat": "36.85115049", "lng": "127.06217421"}, {"statNm": "\uc7a5\ubbf8\uc544\ud30c\ud2b8 \ucda9\uc804\uc18c", "addr": "\ucda9\uccad\ub0a8\ub3c4 \ucc9c\uc548\uc2dc \uc11c\ubd81\uad6c \uc131\uac70\uc74d \uc131\uac70\uae38 82", "lat": "36.872450062", "lng": "127.20217544"}, {"statNm": "\ucc9c\uc548 \ub450\uc9c4\uadf8\ub9b0\ud790\uc544\ud30c\ud2b81 \ucda9\uc804\uc18c", "addr": "\ucda9\uccad\ub0a8\ub3c4 \ucc9c\uc548\uc2dc \uc11c\ubd81\uad6c \uc131\ud658\uc74d \uc728\uae081\uae38 221-34", "lat": "36.905497936", "lng": "127.09953387"}, {"statNm": "\ubd80\uc5ec\uc625\uc0b0\uba74\uc0ac\ubb34\uc18c", "addr": "\ucda9\uccad\ub0a8\ub3c4 \ubd80\uc5ec\uad70 \uc625\uc0b0\uba74 \ub300\ubc31\uc81c\ub85c 336-6", "lat": "36.1915852", "lng": "126.7335266"}, {"statNm": "\ubd80\uc5ec\uc740\uc0b0\uba74\uc0ac\ubb34\uc18c", "addr": "\ucda9\uccad\ub0a8\ub3c4 \ubd80\uc5ec\uad70 \uc740\uc0b0\uba74 \ucda9\uc758\ub85c 690", "lat": "36.3103254", "lng": "126.8542242"}, {"statNm": "\ubd80\uc5ec\uc784\ucc9c\uba74\uc0ac\ubb34\uc18c", "addr": "\ucda9\uccad\ub0a8\ub3c4 \ubd80\uc5ec\uad70 \uc784\ucc9c\uba74 \uc131\ud765\ub85c97\ubc88\uae38 23", "lat": "36.1911651", "lng": "126.8948342"}, {"statNm": "\uad70\ubd81\uba74\ud589\uc815\ubcf5\uc9c0\uc13c\ud130", "addr": "\ucda9\uccad\ub0a8\ub3c4 \uae08\uc0b0\uad70 \uad70\ubd81\uba74 \uc0b0\uaf43\ub85c 17", "lat": "36.1688989", "lng": "127.5277008"}, {"statNm": "\uae08\uc0b0\uc74d\ud589\uc815\ubcf5\uc9c0\uc13c\ud130", "addr": "\ucda9\uccad\ub0a8\ub3c4 \uae08\uc0b0\uad70 \uae08\uc0b0\uc74d \ube44\ud638\ub85c 69", "lat": "36.107202", "lng": "127.4905097"}, {"statNm": "\uae08\uc131\uba74\uc0ac\ubb34\uc18c", "addr": "\ucda9\uccad\ub0a8\ub3c4 \uae08\uc0b0\uad70 \uae08\uc131\uba74 \uc9c4\uc0b0\ub85c 372", "lat": "36.1306848", "lng": "127.4536755"}, {"statNm": "\ub0a8\uc774\uba74\uc0ac\ubb34\uc18c", "addr": "\ucda9\uccad\ub0a8\ub3c4 \uae08\uc0b0\uad70 \ub0a8\uc774\uba74 \ud734\uc591\ub9bc\ub85c 299", "lat": "36.0454103", "lng": "127.4367042"}, {"statNm": "\ub0a8\uc77c\uba74\uc0ac\ubb34\uc18c", "addr": "\ucda9\uccad\ub0a8\ub3c4 \uae08\uc0b0\uad70 \ub0a8\uc77c\uba74 \ubd09\ud669\ub85c 84", "lat": "36.0427762", "lng": "127.504398"}, {"statNm": "\ubcf5\uc218\uba74\uc0ac\ubb34\uc18c", "addr": "\ucda9\uccad\ub0a8\ub3c4 \uae08\uc0b0\uad70 \ubcf5\uc218\uba74 \ubcf5\uc218\ub85c 150", "lat": "36.1667245", "lng": "127.3983073"}, {"statNm": "\ubd80\ub9ac\uba74\uc8fc\ubbfc\uc790\uce58\uc13c\ud130", "addr": "\ucda9\uccad\ub0a8\ub3c4 \uae08\uc0b0\uad70 \ubd80\ub9ac\uba74 \ud604\ub0b41\uae38 37", "lat": "36.0609183", "lng": "127.5552289"}, {"statNm": "\uc81c\uc6d0\uba74\uc0ac\ubb34\uc18c", "addr": "\ucda9\uccad\ub0a8\ub3c4 \uae08\uc0b0\uad70 \uc81c\uc6d0\uba74 \uc81c\uc6d03\uae38 3", "lat": "36.11261", "lng": "127.5461652"}, {"statNm": "\uc9c4\uc0b0\uba74\ud589\uc815\ubcf5\uc9c0\uc13c\ud130", "addr": "\ucda9\uccad\ub0a8\ub3c4 \uae08\uc0b0\uad70 \uc9c4\uc0b0\uba74 \uc74d\ub0b4\ub85c 69", "lat": "36.1442734", "lng": "127.3703137"}, {"statNm": "\ucd94\ubd80\uba74\uc0ac\ubb34\uc18c", "addr": "\ucda9\uccad\ub0a8\ub3c4 \uae08\uc0b0\uad70 \ucd94\ubd80\uba74 \uc11c\ub300\uc0b0\ub85c 93", "lat": "36.1948354", "lng": "127.4760772"}, {"statNm": "\uc7a5\ud3c9\uba74\uc0ac\ubb34\uc18c", "addr": "\ucda9\uccad\ub0a8\ub3c4 \uccad\uc591\uad70 \uc7a5\ud3c9\uba74 \ub2ed\uc6b0\ub9ac\uace0\uac1c\uae38 35", "lat": "36.3418827", "lng": "126.8931526"}, {"statNm": "\uccad\ub0a8\uba74\uc0ac\ubb34\uc18c", "addr": "\ucda9\uccad\ub0a8\ub3c4 \uccad\uc591\uad70 \uccad\ub0a8\uba74 \uba85\ub355\ub85c 183", "lat": "36.3524107", "lng": "126.9523667"}, {"statNm": "\uccad\uc591\uc74d\uc0ac\ubb34\uc18c", "addr": "\ucda9\uccad\ub0a8\ub3c4 \uccad\uc591\uad70 \uccad\uc591\uc74d \uce60\uac11\uc0b0\ub85c9\uae38 32", "lat": "36.4533464", "lng": "126.8066771"}, {"statNm": "\ubd80\uc5ec\uaddc\uc554\uba74\uc0ac\ubb34\uc18c", "addr": "\ucda9\uccad\ub0a8\ub3c4 \ubd80\uc5ec\uad70 \uaddc\uc554\uba74 \uacc4\ubc31\ub85c 39", "lat": "36.2753235", "lng": "126.8841659"}, {"statNm": "\ubd80\uc5ec\ub0a8\uba74\uc0ac\ubb34\uc18c", "addr": "\ucda9\uccad\ub0a8\ub3c4 \ubd80\uc5ec\uad70 \ub0a8\uba74 \ub0a8\uc131\ub85c426\ubc88\uae38 13", "lat": "36.2120145", "lng": "126.8072769"}, {"statNm": "\ubd80\uc5ec\uc74d\uc0ac\ubb34\uc18c", "addr": "\ucda9\uccad\ub0a8\ub3c4 \ubd80\uc5ec\uad70 \ubd80\uc5ec\uc74d \uc0ac\ube44\ub85c 36", "lat": "36.2756314", "lng": "126.9111842"}, {"statNm": "\ubd80\uc5ec\uc138\ub3c4\uba74\uc0ac\ubb34\uc18c", "addr": "\ucda9\uccad\ub0a8\ub3c4 \ubd80\uc5ec\uad70 \uc138\ub3c4\uba74 \uc138\ub3c4\uc911\uc559\ub85c 8", "lat": "36.1699605", "lng": "126.9483071"}, {"statNm": "\ubd80\uc5ec\uc591\ud654\uba74\uc0ac\ubb34\uc18c", "addr": "\ucda9\uccad\ub0a8\ub3c4 \ubd80\uc5ec\uad70 \uc591\ud654\uba74 \uc785\ud3ec\ub85c53\ubc88\uae38 6", "lat": "36.1352376", "lng": "126.8810614"}, {"statNm": "\ubd80\uc5ec\uc7a5\uc554\uba74\uc0ac\ubb34\uc18c", "addr": "\ucda9\uccad\ub0a8\ub3c4 \ubd80\uc5ec\uad70 \uc7a5\uc554\uba74 \uc11d\ub3d9\ub85c 15", "lat": "36.2439425", "lng": "126.886464"}, {"statNm": "\ubd80\uc5ec\ucda9\ud654\uba74\uc0ac\ubb34\uc18c", "addr": "\ucda9\uccad\ub0a8\ub3c4 \ubd80\uc5ec\uad70 \ucda9\ud654\uba74 \ud314\ucda9\ub85c 770", "lat": "36.1818824", "lng": "126.8215799"}, {"statNm": "\ubd80\uc5ec\ud64d\uc0b0\uba74\uc0ac\ubb34\uc18c", "addr": "\ucda9\uccad\ub0a8\ub3c4 \ubd80\uc5ec\uad70 \ud64d\uc0b0\uba74 \ud64d\uc0b0\ub85c 77", "lat": "36.2167418", "lng": "126.7602217"}, {"statNm": "\uc11c\uc0b0 \uc11d\ub0a8\ub3d9\ud589\uc815\ubcf5\uc9c0\uc13c\ud130", "addr": "\ucda9\uccad\ub0a8\ub3c4 \uc11c\uc0b0\uc2dc \ub0a8\ubd80\uc21c\ud658\ub85c 982", "lat": "36.7638481", "lng": "126.4534676"}, {"statNm": "\uc11c\uc0b0\uc2dc\ub9bd\ub3c4\uc11c\uad00", "addr": "\ucda9\uccad\ub0a8\ub3c4 \uc11c\uc0b0\uc2dc \ubd80\ucd98\uacf5\uc6d02\ub85c 26", "lat": "36.7883315", "lng": "126.4492382"}, {"statNm": "\uc778\uc9c0\uba74\uc0ac\ubb34\uc18c", "addr": "\ucda9\uccad\ub0a8\ub3c4 \uc11c\uc0b0\uc2dc \uc778\uc9c0\uba74 \ubb34\ud559\ub85c 1677", "lat": "36.7531548", "lng": "126.4253777"}, {"statNm": "\uc5c4\uc0ac\uba74\uc0ac\ubb34\uc18c", "addr": "\ucda9\uccad\ub0a8\ub3c4 \uacc4\ub8e1\uc2dc \uc5c4\uc0ac\uba74 \ubc88\uc601\ub85c 47", "lat": "36.2885524", "lng": "127.2398642"}, {"statNm": "\ud64d\uc131\ud5a5\ucd0c\ud604\ub300\uc544\ud30c\ud2b8_1", "addr": "\ucda9\uccad\ub0a8\ub3c4 \ud64d\uc131\uad70 \ud64d\uc131\uc74d \uc6d4\uacc4\ucc9c\uae38 41-11 (\ud604\ub300\uc544\ud30c\ud2b8)", "lat": "36.6018586211", "lng": "126.6545669293"}, {"statNm": "\uc911\ud765S\ud074\ub798\uc2a4\ub9ac\ubc84\ud2f01", "addr": "\ucda9\uccad\ub0a8\ub3c4 \ud64d\uc131\uad70 \ud64d\ubd81\uc74d \uc790\uacbd\ub85c 17 (\uc790\uacbd\ub9c8\uc744\uc911\ud765\uc5d0\uc2a4\ud074\ub798\uc2a4)", "lat": "36.65290217003", "lng": "126.6823007951"}, {"statNm": "\uad6c\ub8e1\uba74\uc0ac\ubb34\uc18c", "addr": "\ucda9\uccad\ub0a8\ub3c4 \ubd80\uc5ec\uad70 \uad6c\ub8e1\uba74 \ud0dc\uc591\ub85c 17", "lat": "36.252332", "lng": "126.8127812"}, {"statNm": "\ub0b4\uc0b0\uba74\uc0ac\ubb34\uc18c", "addr": "\ucda9\uccad\ub0a8\ub3c4 \ubd80\uc5ec\uad70 \ub0b4\uc0b0\uba74 \uc131\ucda9\ub85c 982", "lat": "36.2748574", "lng": "126.7805271"}, {"statNm": "\uc11d\uc131\uba74 \uc0ac\ubb34\uc18c", "addr": "\ucda9\uccad\ub0a8\ub3c4 \ubd80\uc5ec\uad70 \uc11d\uc131\uba74 \uc99d\uc0b0\ub85c 61-1", "lat": "36.2532823", "lng": "127.0023365"}, {"statNm": "\ucd08\ucd0c\uba74\uc0ac\ubb34\uc18c", "addr": "\ucda9\uccad\ub0a8\ub3c4 \ubd80\uc5ec\uad70 \ucd08\ucd0c\uba74 \ucd08\ucd0c\ub85c 15", "lat": "36.2641058", "lng": "127.0199194"}, {"statNm": "\uc678\uc0b0\uba74\uc0ac\ubb34\uc18c", "addr": "\ucda9\uccad\ub0a8\ub3c4 \ubd80\uc5ec\uad70 \uc678\uc0b0\uba74 \uc678\uc0b0\ub85c 111", "lat": "36.3043384", "lng": "126.7042178"}, {"statNm": "\uc544\uc0b0\uad8c\uace1\uccad\uc194\uc544\ud30c\ud2b81", "addr": "\ucda9\uccad\ub0a8\ub3c4 \uc544\uc0b0\uc2dc \ubb38\ud654\ub85c 257-17 (\uad8c\uace1\ub3d9, \uccad\uc194\uc544\ud30c\ud2b8)", "lat": "36.79136812781", "lng": "127.0153550066"}, {"statNm": "\uc544\uc0b0\uc628\ucc9c\ubbf8\uc18c\uc9c0\uc6c0\uc544\ud30c\ud2b81", "addr": "\ucda9\uccad\ub0a8\ub3c4 \uc544\uc0b0\uc2dc \uc544\uc0b0\ub85c 116-20 (\uc628\ucc9c\ub3d9, \uc544\uc0b0\uc628\ucc9c \ubbf8\uc18c\uc9c0\uc6c0 \uc544\ud30c\ud2b8)", "lat": "36.79134202286", "lng": "126.9961402422"}, {"statNm": "\uc11c\uc0b0\uccad\uad6c\uc81c\ub124\uc2a4\uc544\ud30c\ud2b8", "addr": "\ucda9\uccad\ub0a8\ub3c4 \uc11c\uc0b0\uc2dc \uc778\uc9c0\uba74 \ub454\ub2f9\ub85c 105-9 (\uc11c\uc0b0\uccad\uad6c\uc81c\ub124\uc2a4)", "lat": "36.75655558832", "lng": "126.4199904283"}, {"statNm": "\uc11c\uc0b0\ub3d9\ubb38\ucf54\uc544\ub8e8\uc544\ud30c\ud2b81-1\uc8fc\ucc28\uc7a5", "addr": "\ucda9\uccad\ub0a8\ub3c4 \uc11c\uc0b0\uc2dc \uace0\uc6b4\ub85c 275-14 (\ub3d9\ubb38\ub3d9, \ub3d9\ubb38\ub3d9 \ucf54\uc544\ub8e8\uc544\ud30c\ud2b8)", "lat": "36.78601613205", "lng": "126.4669527628"}, {"statNm": "\uc544\uc0b0\ucf54\uc544\ub8e8\uc5d0\ub4c0\ud30c\ud06c\uc544\ud30c\ud2b81", "addr": "\ucda9\uccad\ub0a8\ub3c4 \uc544\uc0b0\uc2dc \uc2e0\ucc3d\uba74 \uc628\ucc9c\ub300\ub85c 984 (\ucf54\uc544\ub8e8\uc5d0\ub4c0\ud30c\ud06c\uc544\ud30c\ud2b8)", "lat": "36.78283286251", "lng": "126.9472156685"}, {"statNm": "\uc544\uc0b0\ud3ec\uc2a4\ucf54\ub354\uc0f5\ub808\uc774\ud06c\uc0ac\uc774\ub4dc1", "addr": "\ucda9\uccad\ub0a8\ub3c4 \uc544\uc0b0\uc2dc \uc74c\ubd09\uba74 \uc74c\ubd09\ub85c 567 (\ub354\uc0f5\ub808\uc774\ud06c\uc0ac\uc774\ub4dc\uc544\ud30c\ud2b8)", "lat": "36.84155236109", "lng": "127.0725200399"}, {"statNm": "\ubd80\uc11d\uba74 \uc0ac\ubb34\uc18c", "addr": "\ucda9\uccad\ub0a8\ub3c4 \uc11c\uc0b0\uc2dc \ubd80\uc11d\uba74 \ucde8\ud3c92\uae38 26-13", "lat": "36.7152898", "lng": "126.3933308"}, {"statNm": "\uc11c\uc0b0 \uc9c0\uace1\uba74 \uc0ac\ubb34\uc18c", "addr": "\ucda9\uccad\ub0a8\ub3c4 \uc11c\uc0b0\uc2dc \uc9c0\uace1\uba74 \ud654\ucc9c1\ub85c 76", "lat": "36.8635225", "lng": "126.4369015"}, {"statNm": "\ub9c8\ub8e8\ud638\ud154", "addr": "\ucda9\uccad\ub0a8\ub3c4 \uacf5\uc8fc\uc2dc \uc804\ub9c92\uae38 16-1", "lat": "36.4708965", "lng": "127.1301963"}, {"statNm": "\uace0\ub300\uba74\ud589\uc815\ubcf5\uc9c0\uc13c\ud130", "addr": "\ucda9\uccad\ub0a8\ub3c4 \ub2f9\uc9c4\uc2dc \uace0\ub300\uba74 \uad6c\uc7a5\ud130\uae38 9", "lat": "36.9259221", "lng": "126.5966919"}, {"statNm": "\uc21c\uc131\uba74\ud589\uc815\ubcf5\uc9c0\uc13c\ud130", "addr": "\ucda9\uccad\ub0a8\ub3c4 \ub2f9\uc9c4\uc2dc \uc21c\uc131\uba74 \ub0a8\ubd80\ub85c 1146", "lat": "36.843879", "lng": "126.7133107"}, {"statNm": "\uc815\ubbf8\uba74\uc0ac\ubb34\uc18c", "addr": "\ucda9\uccad\ub0a8\ub3c4 \ub2f9\uc9c4\uc2dc \uc815\ubbf8\uba74 \uc815\ubbf8\ub85c 679", "lat": "36.8824978", "lng": "126.5682673"}, {"statNm": "\ub2f9\uc9c4\uc0bc\uc131\uc250\ub974\ube4c\uc544\ud30c\ud2b8103\ub3d9", "addr": "\ucda9\uccad\ub0a8\ub3c4 \ub2f9\uc9c4\uc2dc \ub300\ud638\ub9cc\ub85c 23-13 (\ucc44\uc6b4\ub3d9, \uc0bc\uc131\uc250\ub974\ube4c)", "lat": "36.896825063", "lng": "126.6210652929"}, {"statNm": "\ub298\ud478\ub978\uc624\uc2a4\uce74\ube4c\uc544\ud30c\ud2b8105\ub3d9B2", "addr": "\ucda9\uccad\ub0a8\ub3c4 \uc11c\uc0b0\uc2dc \uc9c0\uace1\uba74 \ucda9\uc758\ub85c 762-78 (\ub298\ud478\ub978\uc624\uc2a4\uce74\ube4c)", "lat": "36.84136971829", "lng": "126.4470138792"}, {"statNm": "\ub298\ud478\ub978\uc624\uc2a4\uce74\ube4c\uc544\ud30c\ud2b8105\ub3d9B1", "addr": "\ucda9\uccad\ub0a8\ub3c4 \uc11c\uc0b0\uc2dc \uc9c0\uace1\uba74 \ucda9\uacc4\uc758\ub85c 762-78 (\ub298\ud478\ub978\uc624\uc2a4\uce74\ube4c)", "lat": "36.84119398465", "lng": "126.4470095390"}, {"statNm": "\ubd88\ub2f9\ud638\ubc18\ub9ac\uc820\uc2dc\ube4c\uc2a4\uc704\ud2b81", "addr": "\ucda9\uccad\ub0a8\ub3c4 \ucc9c\uc548\uc2dc \uc11c\ubd81\uad6c \ubd09\uc11c\uc0b0\ub85c 85 (\ubd88\ub2f9\ub3d9, \ud638\ubc18\ub9ac\uc820\uc2dc\ube4c\uc544\ud30c\ud2b8)", "lat": "36.80659436303", "lng": "127.1170819681"}, {"statNm": "\uc0bc\uc815\ubc31\uc870\uc544\ud30c\ud2b81", "addr": "\ucda9\uccad\ub0a8\ub3c4 \uc544\uc0b0\uc2dc \uc11c\ubd80\ubd81\ub85c 988 (\ubc30\ubbf8\ub3d9, \uc0bc\uc815\ubc31\uc870\uc544\ud30c\ud2b8)", "lat": "36.78867512365", "lng": "126.9685068130"}, {"statNm": "\ub300\ub355\ub3d9 \ud55c\uc131\ud544\ud558\uc6b0\uc2a4107\ub3d9", "addr": "\ucda9\uccad\ub0a8\ub3c4 \ub2f9\uc9c4\uc2dc \ub0a8\ubd80\ub85c 200 (\ub300\ub355\ub3d9, \ud55c\uc131 \ud544\ud558\uc6b0\uc2a4)", "lat": "36.88413076545", "lng": "126.6391117957"}, {"statNm": "\uc544\ub78c\ud30c\ud06c\ube4c", "addr": "\ucda9\uccad\ub0a8\ub3c4 \uc608\uc0b0\uad70 \ub355\uc0b0\uba74 \ub355\uc0b0\uc628\ucc9c\ub85c 21-11 (\uc544\ub78c\ud30c\ud06c\ube4c)", "lat": "36.68657658286", "lng": "126.6343039304"}, {"statNm": "\uc740\uc9c4\uba74\uc0ac\ubb34\uc18c", "addr": "\ucda9\uccad\ub0a8\ub3c4 \ub17c\uc0b0\uc2dc \uc740\uc9c4\uba74 \ub9e4\uc8fd\ud5cc\ub85c37\ubc88\uae38 13", "lat": "36.1673209", "lng": "127.1072945"}, {"statNm": "\ubd80\ucd98\ub3d9\ud589\uc815\ubcf5\uc9c0\uc13c\ud130", "addr": "\ucda9\uccad\ub0a8\ub3c4 \uc11c\uc0b0\uc2dc \ubb38\ud654\ub85c 54", "lat": "36.7861912", "lng": "126.4486172"}, {"statNm": "\ub17c\uc0b0\uc2dc \uc131\ub3d9\uba74\uc0ac\ubb34\uc18c", "addr": "\ucda9\uccad\ub0a8\ub3c4 \ub17c\uc0b0\uc2dc \uc131\ub3d9\uba74 \uc131\ub3d9\ub85c 275", "lat": "36.2035819", "lng": "127.0335811"}, {"statNm": "\uccad\uc591\uad70 \ub300\uce58\uba74\uc0ac\ubb34\uc18c", "addr": "\ucda9\uccad\ub0a8\ub3c4 \uccad\uc591\uad70 \ub300\uce58\uba74 \uce60\uac11\uc0b0\ub85c 541", "lat": "36.4447047", "lng": "126.8319688"}, {"statNm": "\uccad\uc591\uad70 \ub0a8\uc591\uba74\uc0ac\ubb34\uc18c", "addr": "\ucda9\uccad\ub0a8\ub3c4 \uccad\uc591\uad70 \ub0a8\uc591\uba74 \uad6c\uc6a9\uae38 332", "lat": "36.4013345", "lng": "126.7756906"}, {"statNm": "\ud638\ud154\ub354\uc790\uc790", "addr": "\ucda9\uccad\ub0a8\ub3c4 \uacf5\uc8fc\uc2dc \ubc18\ud3ec\uba74 \uc784\uae08\ubd09\uae38 88-2", "lat": "36.3678378", "lng": "127.2528046"}, {"statNm": "\ubc30\ubc29\uc5b4\uc6b8\ub9bc\uc544\ud30c\ud2b81\ub2e8\uc9c0", "addr": "\ucda9\uccad\ub0a8\ub3c4 \uc544\uc0b0\uc2dc \ubc30\ubc29\uc74d \ubc30\ubc29\ub85c201\ubc88\uae38 10 (\uc544\uc0b0\ubc30\ubc29\uae08\ud638\uc5b4\uc6b8\ub9bc\uc544\ud30c\ud2b8)", "lat": "36.77145581650", "lng": "127.0694554476"}, {"statNm": "\ubc30\ubc29\uc5b4\uc6b8\ub9bc\uc544\ud30c\ud2b82\ub2e8\uc9c0", "addr": "\ucda9\uccad\ub0a8\ub3c4 \uc544\uc0b0\uc2dc \ubc30\ubc29\uc74d \ubc30\ubc29\ub85c201\ubc88\uae38 20 (\uc544\uc0b0\ubc30\ubc29\uae08\ud638\uc5b4\uc6b8\ub9bc\uc544\ud30c\ud2b8)", "lat": "36.77231064108", "lng": "127.0684794768"}, {"statNm": "\ubd88\ub2f9\uc774\uc548\uc544\ud30c\ud2b8", "addr": "\ucda9\uccad\ub0a8\ub3c4 \ucc9c\uc548\uc2dc \uc11c\ubd81\uad6c \ubd88\ub2f923\ub85c 13 (\ubd88\ub2f9\ub3d9, \ubd88\ub2f9\uc774\uc548)", "lat": "36.82098259685", "lng": "127.1021969034"}, {"statNm": "\ubc84\ub4e4\ub9c8\uc744\uccad\uc218\uc6b0\ubbf8\ub9b0301\ub3d9", "addr": "\ucda9\uccad\ub0a8\ub3c4 \ucc9c\uc548\uc2dc \ub3d9\ub0a8\uad6c \uccad\uc21814\ub85c 16 (\uccad\ub2f9\ub3d9, \ubc84\ub4e4\ub9c8\uc744\uc6b0\ubbf8\ub9b0\uc544\ud30c\ud2b8)", "lat": "36.78408804176", "lng": "127.1482953449"}, {"statNm": "\uc6d0\uc1311\ub3d9\uc8fc\ubbfc\uc13c\ud130", "addr": "\ucda9\uccad\ub0a8\ub3c4 \ucc9c\uc548\uc2dc \ub3d9\ub0a8\uad6c \uc131\ud669\ub85c 125", "lat": "36.8118712", "lng": "127.1630159"}, {"statNm": "\ucc9c\uc548 \ud5a5\ubaa9\uadf8\ub77c\ube44\uc2a4\uc544\ud30c\ud2b8", "addr": "\ucda9\uccad\ub0a8\ub3c4 \ucc9c\uc548\uc2dc \ub3d9\ub0a8\uad6c \ucda9\uc808\ub85c 303 (\uad6c\uc131\ub3d9, \ud5a5\ubaa9\uadf8\ub77c\ube44\uc2a4\uc544\ud30c\ud2b8)", "lat": "36.792578", "lng": "127.16247090"}, {"statNm": "\ucc9c\uc548 \uccad\uc218\ud604\ub300\uc544\ud30c\ud2b81", "addr": "\ucda9\uccad\ub0a8\ub3c4 \ucc9c\uc548\uc2dc \ub3d9\ub0a8\uad6c \ud48d\uc138\ub85c 1010-31 (\uccad\uc218\ub3d9, \uccad\uc218\ud604\ub300\uc544\ud30c\ud2b8)", "lat": "36.797792", "lng": "127.15446595"}, {"statNm": "\uc544\uc0b0 STX\uce784\ub2e8\uc9c0", "addr": "\ucda9\uccad\ub0a8\ub3c4 \uc544\uc0b0\uc2dc \ubc30\ubc29\uc74d \uc6a9\uc5f0\ub85c 53 (STX KAN 4\ub2e8\uc9c0\uc544\ud30c\ud2b8)", "lat": "36.791821", "lng": "127.09080625"},