[{"statNm": "\ub17c\uc0b0\ud6c8\ub828\uc18c \uc6b0\ub9ac\uc9d1\ud39c\uc158", "statId": "CSOH0001", "addr": "\ucda9\uccad\ub0a8\ub3c4 \ub17c\uc0b0\uc2dc \uc5f0\ubb34\uc74d \ud669\ud654\ub85c 360", "lat": "36.103573", "lng": "127.096903"}, {"statNm": "\ud574\uc131\ube4c\ub529", "statId": "CU410003", "addr": "\ucda9\uccad\ub0a8\ub3c4 \uc544\uc0b0\uc2dc \ud0d5\uc815\uba74 \uc6a9\uba38\ub9ac\uae38 71", "lat": "36.7958179", "lng": "127.0538977"}, {"statNm": "\ub86f\ub370\ucf00\ubbf8\uce7c \ub300\uc0b0\uacf5\uc7a5 \ubcf8\uad00\ub3d9", "statId": "LDD00001", "addr": "\ucda9\uccad\ub0a8\ub3c4 \uc11c\uc0b0\uc2dc \ub300\uc0b0\uc74d \ub3c5\uacf61\ub85c 54", "lat": "37.00446", "lng": "126.37936"}, {"statNm": "\ub300\uc131\uae30\uc5c5", "statId": "LH400100", "addr": "\ucda9\uccad\ub0a8\ub3c4 \ucc9c\uc548\uc2dc \uc11c\ubd81\uad6c \uc131\ud658\uc74d \uc728\uae081\uae38 267-1", "lat": "36.9040995", "lng": "127.1079886"}, {"statNm": "\ucc9c\uc548\uc2dc \ubd80\uacbd\ud30c\ud06c\ube4c\uc544\ud30c\ud2b8", "statId": "PI410010", "addr": "\ucda9\uccad\ub0a8\ub3c4 \ucc9c\uc548\uc2dc \uc11c\ubd81\uad6c \ub298\ud478\ub9781\uae38 19", "lat": "36.826836077", "lng": "127.12918063"}, {"statNm": "\uacc4\ub8e1\uc2e0\ub3c4\uc2dc\uc8fc\uc720\uc18c", "statId": "SK328140", "addr": "\ucda9\uccad\ub0a8\ub3c4 \uacc4\ub8e1\uc2dc \uc5c4\uc0ac\uba74 \uacc4\ub8e1\ub300\ub85c 465", "lat": "36.2848", "lng": "127.246847"}, {"statNm": "\ud31c\uc564\ud31c\uce58\uc720\uc815\uc6d0(\ubd80\uc5ec\uae00\ub7a8\ud551\ud310)", "statId": "TDD00001", "addr": "\ucda9\uccad\ub0a8\ub3c4 \ubd80\uc5ec\uad70 \uc625\uc0b0\uba74 \uc2e0\uc548\ub85c40\ubc88\uae38 90", "lat": "36.184079", "lng": "126.7225641"}]