[{"statNm": "\uc785\uc7a5\ud734\uac8c\uc18c(\uc11c\uc6b8\ubc29\ud5a5)", "addr": "\ucda9\uccad\ub0a8\ub3c4 \ucc9c\uc548\uc2dc \uc11c\ubd81\uad6c \uc785\uc7a5\uba74 \uc5f0\uace1\uae38 407", "lat": "36.9428836", "lng": "127.1941661"}, {"statNm": "\ucc9c\uc548\ud734\uac8c\uc18c(\ubd80\uc0b0\ubc29\ud5a5)", "addr": "\ucda9\uccad\ub0a8\ub3c4 \ucc9c\uc548\uc2dc \ub3d9\ub0a8\uad6c \uc218\uc2e0\uba74 \uc131\ub0a8\ub85c 793-40", "lat": "36.7304441", "lng": "127.2629759"}, {"statNm": "\uc815\uc548\ud734\uac8c\uc18c(\ucc9c\uc548\ubc29\ud5a5)", "addr": "\ucda9\uccad\ub0a8\ub3c4 \uacf5\uc8fc\uc2dc \uc815\uc548\uba74 \uc7a5\uc6d0\uc7a5\uc790\uc6b8\uae38 73-47", "lat": "36.5685878", "lng": "127.1144045"}, {"statNm": "\uc774\uc778\ud734\uac8c\uc18c(\ucc9c\uc548\ubc29\ud5a5)", "addr": "\ucda9\uccad\ub0a8\ub3c4 \uacf5\uc8fc\uc2dc \uc774\uc778\uba74 \uc774\uc778\ub9ac", "lat": "36.3520509", "lng": "127.0692232"}, {"statNm": "\ud0c4\ucc9c\ud734\uac8c\uc18c(\ub17c\uc0b0\ubc29\ud5a5)", "addr": "\ucda9\uccad\ub0a8\ub3c4 \uacf5\uc8fc\uc2dc \ud0c4\ucc9c\uba74 \uc7a5\uc120\ub9ac 151-6", "lat": "36.3200333", "lng": "127.0705915"}, {"statNm": "\uc815\uc548\ud734\uac8c\uc18c(\uc21c\ucc9c\ubc29\ud5a5)", "addr": "\ucda9\uccad\ub0a8\ub3c4 \uacf5\uc8fc\uc2dc \uc815\uc548\uba74 \uc11d\uc1a1\ub9ac", "lat": "36.5717709", "lng": "127.1127178"}, {"statNm": "\uc544\ud2b8\uc13c\ud130 \uace0\ub9c8", "addr": "\ucda9\uccad\ub0a8\ub3c4 \uacf5\uc8fc\uc2dc \uc6c5\uc9c4\ub3d9 354-6", "lat": "36.466735", "lng": "127.109715"}, {"statNm": "\ub454\ud3ec\uba74\uc0ac\ubb34\uc18c", "addr": "\ucda9\uccad\ub0a8\ub3c4 \uc544\uc0b0\uc2dc \ub454\ud3ec\uba74 \ub454\ud3ec\ub9ac 461-11", "lat": "36.92976", "lng": "127.037976"}, {"statNm": "\uc9c0\uace1\uba74 \uacf5\uc601\uc8fc\ucc28\uc7a5", "addr": "\ucda9\uccad\ub0a8\ub3c4 \uc11c\uc0b0\uc2dc \uc9c0\uace1\uba74 \ud654\ucc9c\ub9ac 1301-17", "lat": "36.86375", "lng": "126.434241"}, {"statNm": "\ubc8c\uace1\ud734\uac8c\uc18c(\ub300\uc804\ubc29\ud5a5)", "addr": "\ucda9\uccad\ub0a8\ub3c4 \ub17c\uc0b0\uc2dc \ubc8c\uace1\uba74 \uc591\uc0b0\ub9ac", "lat": "36.210813", "lng": "127.2704991"}, {"statNm": "\uc5c4\uc0ac\uc0c1\uc810\uac00 \uacf5\uc601\uc8fc\ucc28\uc7a5", "addr": "\ucda9\uccad\ub0a8\ub3c4 \uacc4\ub8e1\uc2dc \uc5c4\uc0ac\uba74 \uc5c4\uc0ac\ub9ac 181-3", "lat": "36.289045", "lng": "127.242876"}, {"statNm": "\uba74\ucc9c\uba74\uc0ac\ubb34\uc18c", "addr": "\ucda9\uccad\ub0a8\ub3c4 \ub2f9\uc9c4\uc2dc \uba74\ucc9c\ub85c 623", "lat": "36.8162641", "lng": "126.66494"}, {"statNm": "\ud589\ub2f4\ub3c4\ud734\uac8c\uc18c(\uc11c\uc6b8\ubc29\ud5a5)", "addr": "\ucda9\uccad\ub0a8\ub3c4 \ub2f9\uc9c4\uc2dc \uc2e0\ud3c9\uba74 \uc11c\ud574\uc548\uace0\uc18d\ub3c4\ub85c 275,", "lat": "36.943895", "lng": "126.806949"}, {"statNm": "\ud589\ub2f4\ub3c4\ud734\uac8c\uc18c(\ubaa9\ud3ec\ubc29\ud5a5)", "addr": "\ucda9\uccad\ub0a8\ub3c4 \ub2f9\uc9c4\uc2dc \uc2e0\ud3c9\uba74 \uc11c\ud574\uc548\uace0\uc18d\ub3c4\ub85c 275,", "lat": "36.944564", "lng": "126.809261"}, {"statNm": "\uc778\uc0bc\ub79c\ub4dc\ud734\uac8c\uc18c(\ud558\ub0a8\ubc29\ud5a5)", "addr": "\ucda9\uccad\ub0a8\ub3c4 \uae08\uc0b0\uad70 \uad70\ubd81\uba74 \ub300\uc554\uae38 34-30", "lat": "36.1551665", "lng": "127.4962759"}, {"statNm": "\uc778\uc0bc\ub79c\ub4dc\ud734\uac8c\uc18c(\ud1b5\uc601\ubc29\ud5a5)", "addr": "\ucda9\uccad\ub0a8\ub3c4 \uae08\uc0b0\uad70 \uad70\ubd81\uba74 \uc5b4\ud544\uac01\ub85c 300", "lat": "36.1537077", "lng": "127.4951731"}, {"statNm": "\uae08\uc0b0\uad70\uccad", "addr": "\ucda9\uccad\ub0a8\ub3c4 \uae08\uc0b0\uad70 \uae08\uc0b0\uc74d \uad70\uccad\uae38 13", "lat": "36.108708", "lng": "127.486678"}, {"statNm": "\ubd80\uc5ec\ubc31\uc81c\ud734\uac8c\uc18c(\uacf5\uc8fc\ubc29\ud5a5)", "addr": "\ucda9\uccad\ub0a8\ub3c4 \ubd80\uc5ec\uad70 \ub0b4\uc0b0\uba74 \uc11c\ucc9c\uacf5\uc8fc\uace0\uc18d\ub3c4\ub85c 26", "lat": "36.2590649", "lng": "126.8002163"}, {"statNm": "\ubd80\uc5ec\ubc31\uc81c\ud734\uac8c\uc18c(\uc11c\ucc9c\ubc29\ud5a5)", "addr": "\ucda9\uccad\ub0a8\ub3c4 \ubd80\uc5ec\uad70 \ub0b4\uc0b0\uba74 \uc11c\ucc9c\uacf5\uc8fc\uace0\uc18d\ub3c4\ub85c 25", "lat": "36.2571854", "lng": "126.7959141"}, {"statNm": "\ub3d9\ubd80\uc5ec\uc11d\uc131\ud734\uac8c\uc18c", "addr": "\ucda9\uccad\ub0a8\ub3c4 \ubd80\uc5ec\uad70 \uc11d\uc131\uba74 \ub300\ubc31\uc81c\ub85c 3050", "lat": "36.252312", "lng": "126.980859"}, {"statNm": "\uc11c\uba74\uc0ac\ubb34\uc18c", "addr": "\ucda9\uccad\ub0a8\ub3c4 \uc11c\ucc9c\uad70 \uc11c\uba74 \uc11c\uc778\ub85c 761", "lat": "36.15276", "lng": "126.549804"}, {"statNm": "\uccad\uc591\uc74d\uc0ac\ubb34\uc18c \uc55e \uacf5\uc601\uc8fc\ucc28\uc7a5", "addr": "\ucda9\uccad\ub0a8\ub3c4 \uccad\uc591\uad70 \uccad\uc591\uc74d \uce60\uac11\uc0b0\ub85c6\uae38 28", "lat": "36.448522", "lng": "126.801788"}, {"statNm": "\uc815\uc0b0\uba74\uc0ac\ubb34\uc18c", "addr": "\ucda9\uccad\ub0a8\ub3c4 \uccad\uc591\uad70 \uc815\uc0b0\uba74 \uce60\uac11\uc0b0\ub85c 1857", "lat": "36.414679", "lng": "126.944913"}, {"statNm": "\ud64d\uc8fc\uc885\ud569\uacbd\uae30\uc7a5", "addr": "\ucda9\uccad\ub0a8\ub3c4 \ud64d\uc131\uad70 \ud64d\uc131\uc74d \uc18c\ud5a5\ub9ac 397-118", "lat": "36.606382", "lng": "126.64192"}, {"statNm": "\uad11\ucc9c\uc0dd\ud65c\uccb4\uc721\uacf5\uc6d0", "addr": "\ucda9\uccad\ub0a8\ub3c4 \ud64d\uc131\uad70 \uad11\ucc9c\uc74d \ud64d\ub0a8\ub85c 764-42", "lat": "36.508184", "lng": "126.635298"}, {"statNm": "\uc608\uc0b0\ubcf5\ud569\ubb38\ud654\ubcf5\uc9c0\uc13c\ud130", "addr": "\ucda9\uccad\ub0a8\ub3c4 \uc608\uc0b0\uad70 \uc608\uc0b0\uc74d \uc11d\uc591\ub9ac 213-2", "lat": "36.6999594", "lng": "126.8407188"}, {"statNm": "\ub0a8\uba74\uc0ac\ubb34\uc18c", "addr": "\ucda9\uccad\ub0a8\ub3c4 \ud0dc\uc548\uad70 \ub0a8\uba74 \ub2ec\uc0b0\ub9ac 1179", "lat": "36.671559", "lng": "126.298053"}, {"statNm": "\ud0dc\uc548\uc0c1\uc124\uc2dc\uc7a5 \uacf5\uc601\uc8fc\ucc28\uc7a5", "addr": "\ucda9\uccad\ub0a8\ub3c4 \ud0dc\uc548\uad70 \ud0dc\uc548\uc74d \ub3d9\ubc31\ub85c 251", "lat": "36.751056", "lng": "126.2987644"}, {"statNm": "\ub86f\ub370\ub9c8\ud2b8 \ub2f9\uc9c4\uc810", "addr": "\ucda9\uccad\ub0a8\ub3c4 \ub2f9\uc9c4\uc2dc \uc815\uc548\ub85c 20", "lat": "36.905631", "lng": "126.645898"}, {"statNm": "\uc0bc\ubd094\ub9ac\uc0ac\ubb34\uc18c", "addr": "\ucda9\uccad\ub0a8\ub3c4 \ub2f9\uc9c4\uc2dc \uc11d\ubb38\uba74 \ub300\ud638\ub9cc\ub85c 1736-7", "lat": "37.013251", "lng": "126.537678"}, {"statNm": "\ub17c\uc0b0\uc2dc\uccad \uc55e \uacf5\uc601\uc8fc\ucc28\uc7a5", "addr": "\ucda9\uccad\ub0a8\ub3c4 \ub17c\uc0b0\uc2dc \ub0b4\ub3d9 825", "lat": "36.1860835", "lng": "127.0993556"}, {"statNm": "\uad6d\ub9bd\uc0dd\ud0dc\uc6d0 \uc815\ubb38 \uc8fc\ucc28\uc7a5", "addr": "\ucda9\uccad\ub0a8\ub3c4 \uc11c\ucc9c\uad70 \ub9c8\uc11c\uba74 \uc1a1\ub0b4\ub9ac 758", "lat": "36.027168", "lng": "126.7215749"}, {"statNm": "\uc785\uc7a5\ud734\uac8c\uc18c(\uc11c\uc6b8\ubc29\ud5a5)", "addr": "\ucda9\uccad\ub0a8\ub3c4 \ucc9c\uc548\uc2dc \uc11c\ubd81\uad6c \uc785\uc7a5\uba74 \uc5f0\uace1\uae38 407", "lat": "36.9427836", "lng": "127.1943661"}, {"statNm": "\uc785\uc7a5\ud734\uac8c\uc18c(\uc11c\uc6b8\ubc29\ud5a5)", "addr": "\ucda9\uccad\ub0a8\ub3c4 \ucc9c\uc548\uc2dc \uc11c\ubd81\uad6c \uc785\uc7a5\uba74 \uc5f0\uace1\uae38 407", "lat": "36.9427836", "lng": "127.1943661"}, {"statNm": "\ucc9c\uc548\ud734\uac8c\uc18c(\uc11c\uc6b8\ubc29\ud5a5)", "addr": "\ucda9\uccad\ub0a8\ub3c4 \ucc9c\uc548\uc2dc \ub3d9\ub0a8\uad6c \uc27c1\uae38 42 (\uc0bc\ub8e1\ub3d9)173-1", "lat": "36.7882107", "lng": "127.1735101"}, {"statNm": "\ucc9c\uc548\ud734\uac8c\uc18c(\uc11c\uc6b8\ubc29\ud5a5)", "addr": "\ucda9\uccad\ub0a8\ub3c4 \ucc9c\uc548\uc2dc \ub3d9\ub0a8\uad6c \uc27c1\uae38 42 (\uc0bc\ub8e1\ub3d9)173-1", "lat": "36.7882107", "lng": "127.1735101"}, {"statNm": "\ucc9c\uc548\ud734\uac8c\uc18c(\uc11c\uc6b8\ubc29\ud5a5)", "addr": "\ucda9\uccad\ub0a8\ub3c4 \ucc9c\uc548\uc2dc \ub3d9\ub0a8\uad6c \uc27c1\uae38 42 (\uc0bc\ub8e1\ub3d9)173-1", "lat": "36.7882107", "lng": "127.1735101"}, {"statNm": "\ub300\ucc9c\ud734\uac8c\uc18c(\ubaa9\ud3ec\ubc29\ud5a5)", "addr": "\ucda9\uccad\ub0a8\ub3c4 \ubcf4\ub839\uc2dc \uc8fc\uad50\uba74 \uc11c\ud574\uc548\uace0\uc18d\ub3c4\ub85c 199 (\uc8fc\uad50\ub9ac)", "lat": "36.3729958", "lng": "126.5563709"}, {"statNm": "\ub300\ucc9c\ud734\uac8c\uc18c(\uc2dc\ud765\ubc29\ud5a5)", "addr": "\ucda9\uccad\ub0a8\ub3c4 \ubcf4\ub839\uc2dc \uc8fc\uad50\uba74 \uc11c\ud574\uc548\uace0\uc18d\ub3c4\ub85c 200 (\uc8fc\uad50\ub9ac)", "lat": "36.3737327", "lng": "126.557557"}, {"statNm": "\uc11c\uc0b0\ud734\uac8c\uc18c(\uc2dc\ud765\ubc29\ud5a5)", "addr": "\ucda9\uccad\ub0a8\ub3c4 \uc11c\uc0b0\uc2dc \ud574\ubbf8\uba74 \uc11c\ud574\uc548\uace0\uc18d\ub3c4\ub85c 242 (\uc0bc\uc1a1\ub9ac)", "lat": "36.7338867", "lng": "126.5670967"}, {"statNm": "\uc11c\uc0b0\ud734\uac8c\uc18c(\uc2dc\ud765\ubc29\ud5a5)", "addr": "\ucda9\uccad\ub0a8\ub3c4 \uc11c\uc0b0\uc2dc \ud574\ubbf8\uba74 \uc11c\ud574\uc548\uace0\uc18d\ub3c4\ub85c 242 (\uc0bc\uc1a1\ub9ac)", "lat": "36.7338867", "lng": "126.5670967"}, {"statNm": "\uc11c\ucc9c\ud734\uac8c\uc18c(\ubaa9\ud3ec\ubc29\ud5a5)", "addr": "\ucda9\uccad\ub0a8\ub3c4 \uc11c\ucc9c\uad70 \ube44\uc778\uba74 \uc11c\ud574\uc548\uace0\uc18d\ub3c4\ub85c 169 (\uc131\uc0b0\ub9ac)", "lat": "36.1292781", "lng": "126.6269803"}, {"statNm": "\uc11c\ucc9c\ud734\uac8c\uc18c(\ubaa9\ud3ec\ubc29\ud5a5)", "addr": "\ucda9\uccad\ub0a8\ub3c4 \uc11c\ucc9c\uad70 \ube44\uc778\uba74 \uc11c\ud574\uc548\uace0\uc18d\ub3c4\ub85c 169 (\uc131\uc0b0\ub9ac)", "lat": "36.1292781", "lng": "126.6269803"}, {"statNm": "\uc11c\ucc9c\ud734\uac8c\uc18c(\uc2dc\ud765\ubc29\ud5a5)", "addr": "\ucda9\uccad\ub0a8\ub3c4 \uc11c\ucc9c\uad70 \ube44\uc778\uba74 \uc11c\ud574\uc548\uace0\uc18d\ub3c4\ub85c 168 (\uc131\uc0b0\ub9ac)", "lat": "36.1320831", "lng": "126.6275272"}, {"statNm": "\uc11c\ucc9c\ud734\uac8c\uc18c(\uc2dc\ud765\ubc29\ud5a5)", "addr": "\ucda9\uccad\ub0a8\ub3c4 \uc11c\ucc9c\uad70 \ube44\uc778\uba74 \uc11c\ud574\uc548\uace0\uc18d\ub3c4\ub85c 168 (\uc131\uc0b0\ub9ac)", "lat": "36.1320831", "lng": "126.6275272"}, {"statNm": "\ud64d\uc131\ud734\uac8c\uc18c(\ubaa9\ud3ec\ubc29\ud5a5)", "addr": "\ucda9\uccad\ub0a8\ub3c4 \ud64d\uc131\uad70 \uc740\ud558\uba74 \uc11c\ud574\uc548\uace0\uc18d\ub3c4\ub85c 221 (\uae08\uad6d\ub9ac)", "lat": "36.5520256", "lng": "126.579626"}, {"statNm": "\ud64d\uc131\ud734\uac8c\uc18c(\uc2dc\ud765\ubc29\ud5a5)", "addr": "\ucda9\uccad\ub0a8\ub3c4 \ud64d\uc131\uad70 \uc740\ud558\uba74 \uc11c\ud574\uc548\uace0\uc18d\ub3c4\ub85c 220 (\uae08\uad6d\ub9ac)", "lat": "36.5538232", "lng": "126.5818528"}, {"statNm": "\ubc8c\uace1\ud734\uac8c\uc18c(\ub17c\uc0b0\ubc29\ud5a5)", "addr": "\ucda9\uccad\ub0a8\ub3c4 \ub17c\uc0b0\uc2dc \ubc8c\uace1\uba74 \ud638\ub0a8\uace0\uc18d\ub3c4\ub85c 2465-10 (\uc2e0\uc591\ub9ac)", "lat": "36.2175076", "lng": "127.2740754"}, {"statNm": "\uc778\uc0bc\ub79c\ub4dc\ud734\uac8c\uc18c(\ud1b5\uc601\ubc29\ud5a5)", "addr": "\ucda9\uccad\ub0a8\ub3c4 \uae08\uc0b0\uad70 \uad70\ubd81\uba74 \uc5b4\ud544\uac01\ub85c 300 (\uc678\ubd80\ub9ac)", "lat": "36.1536077", "lng": "127.4953731"}, {"statNm": "\uc778\uc0bc\ub79c\ub4dc\ud734\uac8c\uc18c(\ud558\ub0a8\ubc29\ud5a5)", "addr": "\ucda9\uccad\ub0a8\ub3c4 \uae08\uc0b0\uad70 \uad70\ubd81\uba74 \ub300\uc554\uae38 34-30 (\uc678\ubd80\ub9ac)", "lat": "36.1550665", "lng": "127.4964759"}, {"statNm": "\uacf5\uc8fc\ud734\uac8c\uc18c(\ub2f9\uc9c4\ubc29\ud5a5)", "addr": "\ucda9\uccad\ub0a8\ub3c4 \uacf5\uc8fc\uc2dc \uc758\ub2f9\uba74 \ub2f9\uc9c4\uc601\ub355\uace0\uc18d\ub3c4\ub85c 71 (\uccad\ub8e1\ub9ac)", "lat": "36.4985499", "lng": "127.1668661"}, {"statNm": "\uacf5\uc8fc\ud734\uac8c\uc18c(\ub300\uc804\ubc29\ud5a5)", "addr": "\ucda9\uccad\ub0a8\ub3c4 \uacf5\uc8fc\uc2dc \uc758\ub2f9\uba74 \ub2f9\uc9c4\uc601\ub355\uace0\uc18d\ub3c4\ub85c 72 (\uc1a1\uc120\ub3d9)", "lat": "36.4967019", "lng": "127.1662711"}, {"statNm": "\uc608\uc0b0\ud734\uac8c\uc18c(\ub2f9\uc9c4\ubc29\ud5a5)", "addr": "\ucda9\uccad\ub0a8\ub3c4 \uc608\uc0b0\uad70 \uc2e0\uc591\uba74 \ub2f9\uc9c4\uc601\ub355\uace0\uc18d\ub3c4\ub85c 33 (\uc11c\uacc4\uc591\ub9ac)", "lat": "36.6193815", "lng": "126.8465667"}, {"statNm": "\uc608\uc0b0\ud734\uac8c\uc18c(\ub300\uc804\ubc29\ud5a5)", "addr": "\ucda9\uccad\ub0a8\ub3c4 \uc608\uc0b0\uad70 \uc2e0\uc591\uba74 \ub2f9\uc9c4\uc601\ub355\uace0\uc18d\ub3c4\ub85c 34 (\uc11c\uacc4\uc591\ub9ac)", "lat": "36.6229771", "lng": "126.8402835"}, {"statNm": "\ubd80\uc5ec\ubc31\uc81c\ud734\uac8c\uc18c(\uacf5\uc8fc\ubc29\ud5a5)", "addr": "\ucda9\uccad\ub0a8\ub3c4 \ubd80\uc5ec\uad70 \ub0b4\uc0b0\uba74 \uc11c\ucc9c\uacf5\uc8fc\uace0\uc18d\ub3c4\ub85c 26 (\uc728\uc554\ub9ac)", "lat": "36.2589649", "lng": "126.8004163"}, {"statNm": "\ubd80\uc5ec\ubc31\uc81c\ud734\uac8c\uc18c(\uc11c\ucc9c\ubc29\ud5a5)", "addr": "\ucda9\uccad\ub0a8\ub3c4 \ubd80\uc5ec\uad70 \ub0b4\uc0b0\uba74 \uc11c\ucc9c\uacf5\uc8fc\uace0\uc18d\ub3c4\ub85c 25 (\uc728\uc554\ub9ac)", "lat": "36.2570854", "lng": "126.7961141"}, {"statNm": "\ub86f\ub370\ub9c8\ud2b8 \uc11c\uc0b0\uc810", "addr": "\ucda9\uccad\ub0a8\ub3c4 \uc11c\uc0b0\uc2dc \ucda9\uc758\ub85c 27 (\uc608\ucc9c\ub3d9)", "lat": "36.7727044", "lng": "126.4395537"}, {"statNm": "GS\uc7a5\ud56d\uc194\ubc14\ub78c\uc810", "addr": "\ucda9\uccad\ub0a8\ub3c4 \uc11c\ucc9c\uad70 \uc7a5\ud56d\uc74d \uc1a1\ub9bc\ub9ac 755-12", "lat": "36.024538", "lng": "126.66773"}, {"statNm": "\ud0dc\uc548\ud574\uc548\uad6d\ub9bd\uacf5\uc6d0 \uc0bc\ubd09\uc8fc\ucc28\uc7a5", "addr": "\ucda9\uccad\ub0a8\ub3c4 \ud0dc\uc548\uad70 \uc548\uba74\uc74d \ucc3d\uae30\ub9ac 1304-6", "lat": "36.570842", "lng": "126.315921"}, {"statNm": "\ud0dc\uc548\ud574\uc548\uad6d\ub9bd\uacf5\uc6d0 \uc0bc\ubd09\uc8fc\ucc28\uc7a5", "addr": "\ucda9\uccad\ub0a8\ub3c4 \ud0dc\uc548\uad70 \uc548\uba74\uc74d \ucc3d\uae30\ub9ac 1304-6", "lat": "36.570842", "lng": "126.315921"}, {"statNm": "\ud0dc\uc548\ud574\uc548\uad6d\ub9bd\uacf5\uc6d0 \ud559\uc554\ud3ec\uc57c\uc601\uc7a5", "addr": "\ucda9\uccad\ub0a8\ub3c4 \ud0dc\uc548\uad70 \uc6d0\ubd81\uba74 \ubc29\uac08\ub9ac 515-79", "lat": "36.896882", "lng": "126.206457"}, {"statNm": "\ud0dc\uc548\ud574\uc548\uad6d\ub9bd\uacf5\uc6d0 \ud559\uc554\ud3ec\uc57c\uc601\uc7a5", "addr": "\ucda9\uccad\ub0a8\ub3c4 \ud0dc\uc548\uad70 \uc6d0\ubd81\uba74 \ubc29\uac08\ub9ac 515-79", "lat": "36.896882", "lng": "126.206457"}, {"statNm": "\ub86f\ub370\ub9c8\ud2b8 \ucc9c\uc548\uc810", "addr": "\ucda9\uccad\ub0a8\ub3c4 \ucc9c\uc548\uc2dc \uc11c\ubd81\uad6c \uc6d4\ubd09\ub85c 95-0 (\uc30d\uc6a92\ub3d9)", "lat": "36.799709", "lng": "127.117648"}, {"statNm": "\ub86f\ub370\ub9c8\ud2b8 \ucc9c\uc548\uc810", "addr": "\ucda9\uccad\ub0a8\ub3c4 \ucc9c\uc548\uc2dc \uc11c\ubd81\uad6c \uc6d4\ubd09\ub85c 95-0 (\uc30d\uc6a92\ub3d9)", "lat": "36.799709", "lng": "127.117648"}, {"statNm": "\ub86f\ub370\ub9c8\ud2b8 \ud64d\uc131\uc810", "addr": "\ucda9\uccad\ub0a8\ub3c4 \ud64d\uc131\uad70 \ud64d\uc131\uc74d \uc870\uc591\ub85c247\ubc88\uae38 9 (\uace0\uc554\ub9ac)", "lat": "36.600955", "lng": "126.676311"}, {"statNm": "\uc785\uc7a5\ud734\uac8c\uc18c(\uc11c\uc6b8\ubc29\ud5a5)", "addr": "\ucda9\uccad\ub0a8\ub3c4 \ucc9c\uc548\uc2dc \uc11c\ubd81\uad6c \uc785\uc7a5\uba74 \uc5f0\uace1\uae38 407", "lat": "36.9428836", "lng": "127.1941661"}, {"statNm": "\ucc9c\uc548\ud734\uac8c\uc18c(\ubd80\uc0b0\ubc29\ud5a5)", "addr": "\ucda9\uccad\ub0a8\ub3c4 \ucc9c\uc548\uc2dc \ub3d9\ub0a8\uad6c \uc218\uc2e0\uba74 \uc131\ub0a8\ub85c 793-40", "lat": "36.7304441", "lng": "127.2629759"}, {"statNm": "\uc815\uc548\ud734\uac8c\uc18c(\ucc9c\uc548\ubc29\ud5a5)", "addr": "\ucda9\uccad\ub0a8\ub3c4 \uacf5\uc8fc\uc2dc \uc815\uc548\uba74 \uc7a5\uc6d0\uc7a5\uc790\uc6b8\uae38 73-47", "lat": "36.5685878", "lng": "127.1144045"}, {"statNm": "\uc774\uc778\ud734\uac8c\uc18c(\ucc9c\uc548\ubc29\ud5a5)", "addr": "\ucda9\uccad\ub0a8\ub3c4 \uacf5\uc8fc\uc2dc \uc774\uc778\uba74 \uc774\uc778\ub9ac", "lat": "36.3520509", "lng": "127.0692232"}, {"statNm": "\ud0c4\ucc9c\ud734\uac8c\uc18c(\ub17c\uc0b0\ubc29\ud5a5)", "addr": "\ucda9\uccad\ub0a8\ub3c4 \uacf5\uc8fc\uc2dc \ud0c4\ucc9c\uba74 \uc7a5\uc120\ub9ac 151-6", "lat": "36.3200333", "lng": "127.0705915"}, {"statNm": "\uc815\uc548\ud734\uac8c\uc18c(\uc21c\ucc9c\ubc29\ud5a5)", "addr": "\ucda9\uccad\ub0a8\ub3c4 \uacf5\uc8fc\uc2dc \uc815\uc548\uba74 \uc11d\uc1a1\ub9ac", "lat": "36.5717709", "lng": "127.1127178"}, {"statNm": "\uc544\ud2b8\uc13c\ud130 \uace0\ub9c8", "addr": "\ucda9\uccad\ub0a8\ub3c4 \uacf5\uc8fc\uc2dc \uc6c5\uc9c4\ub3d9 354-6", "lat": "36.466735", "lng": "127.109715"}, {"statNm": "\ub454\ud3ec\uba74\uc0ac\ubb34\uc18c", "addr": "\ucda9\uccad\ub0a8\ub3c4 \uc544\uc0b0\uc2dc \ub454\ud3ec\uba74 \ub454\ud3ec\ub9ac 461-11", "lat": "36.92976", "lng": "127.037976"}, {"statNm": "\uc9c0\uace1\uba74 \uacf5\uc601\uc8fc\ucc28\uc7a5", "addr": "\ucda9\uccad\ub0a8\ub3c4 \uc11c\uc0b0\uc2dc \uc9c0\uace1\uba74 \ud654\ucc9c\ub9ac 1301-17", "lat": "36.86375", "lng": "126.434241"}, {"statNm": "\ubc8c\uace1\ud734\uac8c\uc18c(\ub300\uc804\ubc29\ud5a5)", "addr": "\ucda9\uccad\ub0a8\ub3c4 \ub17c\uc0b0\uc2dc \ubc8c\uace1\uba74 \uc591\uc0b0\ub9ac", "lat": "36.210813", "lng": "127.2704991"}, {"statNm": "\uc5c4\uc0ac\uc0c1\uc810\uac00 \uacf5\uc601\uc8fc\ucc28\uc7a5", "addr": "\ucda9\uccad\ub0a8\ub3c4 \uacc4\ub8e1\uc2dc \uc5c4\uc0ac\uba74 \uc5c4\uc0ac\ub9ac 181-3", "lat": "36.289045", "lng": "127.242876"}, {"statNm": "\uba74\ucc9c\uba74\uc0ac\ubb34\uc18c", "addr": "\ucda9\uccad\ub0a8\ub3c4 \ub2f9\uc9c4\uc2dc \uba74\ucc9c\ub85c 623", "lat": "36.8162641", "lng": "126.66494"}, {"statNm": "\ud589\ub2f4\ub3c4\ud734\uac8c\uc18c(\uc11c\uc6b8\ubc29\ud5a5)", "addr": "\ucda9\uccad\ub0a8\ub3c4 \ub2f9\uc9c4\uc2dc \uc2e0\ud3c9\uba74 \uc11c\ud574\uc548\uace0\uc18d\ub3c4\ub85c 275,", "lat": "36.943895", "lng": "126.806949"}, {"statNm": "\ud589\ub2f4\ub3c4\ud734\uac8c\uc18c(\ubaa9\ud3ec\ubc29\ud5a5)", "addr": "\ucda9\uccad\ub0a8\ub3c4 \ub2f9\uc9c4\uc2dc \uc2e0\ud3c9\uba74 \uc11c\ud574\uc548\uace0\uc18d\ub3c4\ub85c 275,", "lat": "36.944564", "lng": "126.809261"}, {"statNm": "\uc778\uc0bc\ub79c\ub4dc\ud734\uac8c\uc18c(\ud558\ub0a8\ubc29\ud5a5)", "addr": "\ucda9\uccad\ub0a8\ub3c4 \uae08\uc0b0\uad70 \uad70\ubd81\uba74 \ub300\uc554\uae38 34-30", "lat": "36.1551665", "lng": "127.4962759"}, {"statNm": "\uc778\uc0bc\ub79c\ub4dc\ud734\uac8c\uc18c(\ud1b5\uc601\ubc29\ud5a5)", "addr": "\ucda9\uccad\ub0a8\ub3c4 \uae08\uc0b0\uad70 \uad70\ubd81\uba74 \uc5b4\ud544\uac01\ub85c 300", "lat": "36.1537077", "lng": "127.4951731"}, {"statNm": "\uae08\uc0b0\uad70\uccad", "addr": "\ucda9\uccad\ub0a8\ub3c4 \uae08\uc0b0\uad70 \uae08\uc0b0\uc74d \uad70\uccad\uae38 13", "lat": "36.108708", "lng": "127.486678"}, {"statNm": "\ubd80\uc5ec\ubc31\uc81c\ud734\uac8c\uc18c(\uacf5\uc8fc\ubc29\ud5a5)", "addr": "\ucda9\uccad\ub0a8\ub3c4 \ubd80\uc5ec\uad70 \ub0b4\uc0b0\uba74 \uc11c\ucc9c\uacf5\uc8fc\uace0\uc18d\ub3c4\ub85c 26", "lat": "36.2590649", "lng": "126.8002163"}, {"statNm": "\ubd80\uc5ec\ubc31\uc81c\ud734\uac8c\uc18c(\uc11c\ucc9c\ubc29\ud5a5)", "addr": "\ucda9\uccad\ub0a8\ub3c4 \ubd80\uc5ec\uad70 \ub0b4\uc0b0\uba74 \uc11c\ucc9c\uacf5\uc8fc\uace0\uc18d\ub3c4\ub85c 25", "lat": "36.2571854", "lng": "126.7959141"}, {"statNm": "\ub3d9\ubd80\uc5ec\uc11d\uc131\ud734\uac8c\uc18c", "addr": "\ucda9\uccad\ub0a8\ub3c4 \ubd80\uc5ec\uad70 \uc11d\uc131\uba74 \ub300\ubc31\uc81c\ub85c 3050", "lat": "36.252312", "lng": "126.980859"}, {"statNm": "\uc11c\uba74\uc0ac\ubb34\uc18c", "addr": "\ucda9\uccad\ub0a8\ub3c4 \uc11c\ucc9c\uad70 \uc11c\uba74 \uc11c\uc778\ub85c 761", "lat": "36.15276", "lng": "126.549804"}, {"statNm": "\uccad\uc591\uc74d\uc0ac\ubb34\uc18c \uc55e \uacf5\uc601\uc8fc\ucc28\uc7a5", "addr": "\ucda9\uccad\ub0a8\ub3c4 \uccad\uc591\uad70 \uccad\uc591\uc74d \uce60\uac11\uc0b0\ub85c6\uae38 28", "lat": "36.448522", "lng": "126.801788"}, {"statNm": "\uc815\uc0b0\uba74\uc0ac\ubb34\uc18c", "addr": "\ucda9\uccad\ub0a8\ub3c4 \uccad\uc591\uad70 \uc815\uc0b0\uba74 \uce60\uac11\uc0b0\ub85c 1857", "lat": "36.414679", "lng": "126.944913"}, {"statNm": "\ud64d\uc8fc\uc885\ud569\uacbd\uae30\uc7a5", "addr": "\ucda9\uccad\ub0a8\ub3c4 \ud64d\uc131\uad70 \ud64d\uc131\uc74d \uc18c\ud5a5\ub9ac 397-118", "lat": "36.606382", "lng": "126.64192"}, {"statNm": "\uad11\ucc9c\uc0dd\ud65c\uccb4\uc721\uacf5\uc6d0", "addr": "\ucda9\uccad\ub0a8\ub3c4 \ud64d\uc131\uad70 \uad11\ucc9c\uc74d \ud64d\ub0a8\ub85c 764-42", "lat": "36.508184", "lng": "126.635298"}, {"statNm": "\uc608\uc0b0\ubcf5\ud569\ubb38\ud654\ubcf5\uc9c0\uc13c\ud130", "addr": "\ucda9\uccad\ub0a8\ub3c4 \uc608\uc0b0\uad70 \uc608\uc0b0\uc74d \uc11d\uc591\ub9ac 213-2", "lat": "36.6999594", "lng": "126.8407188"}, {"statNm": "\ub0a8\uba74\uc0ac\ubb34\uc18c", "addr": "\ucda9\uccad\ub0a8\ub3c4 \ud0dc\uc548\uad70 \ub0a8\uba74 \ub2ec\uc0b0\ub9ac 1179", "lat": "36.671559", "lng": "126.298053"}, {"statNm": "\ud0dc\uc548\uc0c1\uc124\uc2dc\uc7a5 \uacf5\uc601\uc8fc\ucc28\uc7a5", "addr": "\ucda9\uccad\ub0a8\ub3c4 \ud0dc\uc548\uad70 \ud0dc\uc548\uc74d \ub3d9\ubc31\ub85c 251", "lat": "36.751056", "lng": "126.2987644"}, {"statNm": "\ub86f\ub370\ub9c8\ud2b8 \ub2f9\uc9c4\uc810", "addr": "\ucda9\uccad\ub0a8\ub3c4 \ub2f9\uc9c4\uc2dc \uc815\uc548\ub85c 20", "lat": "36.905631", "lng": "126.645898"}, {"statNm": "\uc0bc\ubd094\ub9ac\uc0ac\ubb34\uc18c", "addr": "\ucda9\uccad\ub0a8\ub3c4 \ub2f9\uc9c4\uc2dc \uc11d\ubb38\uba74 \ub300\ud638\ub9cc\ub85c 1736-7", "lat": "37.013251", "lng": "126.537678"}, {"statNm": "\ub17c\uc0b0\uc2dc\uccad \uc55e \uacf5\uc601\uc8fc\ucc28\uc7a5", "addr": "\ucda9\uccad\ub0a8\ub3c4 \ub17c\uc0b0\uc2dc \ub0b4\ub3d9 825", "lat": "36.1860835", "lng": "127.0993556"}, {"statNm": "\uad6d\ub9bd\uc0dd\ud0dc\uc6d0 \uc815\ubb38 \uc8fc\ucc28\uc7a5", "addr": "\ucda9\uccad\ub0a8\ub3c4 \uc11c\ucc9c\uad70 \ub9c8\uc11c\uba74 \uc1a1\ub0b4\ub9ac 758", "lat": "36.027168", "lng": "126.7215749"}, {"statNm": "\uc785\uc7a5\ud734\uac8c\uc18c(\uc11c\uc6b8\ubc29\ud5a5)", "addr": "\ucda9\uccad\ub0a8\ub3c4 \ucc9c\uc548\uc2dc \uc11c\ubd81\uad6c \uc785\uc7a5\uba74 \uc5f0\uace1\uae38 407", "lat": "36.9427836", "lng": "127.1943661"}, {"statNm": "\uc785\uc7a5\ud734\uac8c\uc18c(\uc11c\uc6b8\ubc29\ud5a5)", "addr": "\ucda9\uccad\ub0a8\ub3c4 \ucc9c\uc548\uc2dc \uc11c\ubd81\uad6c \uc785\uc7a5\uba74 \uc5f0\uace1\uae38 407", "lat": "36.9427836", "lng": "127.1943661"}, {"statNm": "\ucc9c\uc548\ud734\uac8c\uc18c(\uc11c\uc6b8\ubc29\ud5a5)", "addr": "\ucda9\uccad\ub0a8\ub3c4 \ucc9c\uc548\uc2dc \ub3d9\ub0a8\uad6c \uc27c1\uae38 42 (\uc0bc\ub8e1\ub3d9)173-1", "lat": "36.7882107", "lng": "127.1735101"}, {"statNm": "\ucc9c\uc548\ud734\uac8c\uc18c(\uc11c\uc6b8\ubc29\ud5a5)", "addr": "\ucda9\uccad\ub0a8\ub3c4 \ucc9c\uc548\uc2dc \ub3d9\ub0a8\uad6c \uc27c1\uae38 42 (\uc0bc\ub8e1\ub3d9)173-1", "lat": "36.7882107", "lng": "127.1735101"}, {"statNm": "\ucc9c\uc548\ud734\uac8c\uc18c(\uc11c\uc6b8\ubc29\ud5a5)", "addr": "\ucda9\uccad\ub0a8\ub3c4 \ucc9c\uc548\uc2dc \ub3d9\ub0a8\uad6c \uc27c1\uae38 42 (\uc0bc\ub8e1\ub3d9)173-1", "lat": "36.7882107", "lng": "127.1735101"}, {"statNm": "\ub300\ucc9c\ud734\uac8c\uc18c(\ubaa9\ud3ec\ubc29\ud5a5)", "addr": "\ucda9\uccad\ub0a8\ub3c4 \ubcf4\ub839\uc2dc \uc8fc\uad50\uba74 \uc11c\ud574\uc548\uace0\uc18d\ub3c4\ub85c 199 (\uc8fc\uad50\ub9ac)", "lat": "36.3729958", "lng": "126.5563709"}, {"statNm": "\ub300\ucc9c\ud734\uac8c\uc18c(\uc2dc\ud765\ubc29\ud5a5)", "addr": "\ucda9\uccad\ub0a8\ub3c4 \ubcf4\ub839\uc2dc \uc8fc\uad50\uba74 \uc11c\ud574\uc548\uace0\uc18d\ub3c4\ub85c 200 (\uc8fc\uad50\ub9ac)", "lat": "36.3737327", "lng": "126.557557"}, {"statNm": "\uc11c\uc0b0\ud734\uac8c\uc18c(\uc2dc\ud765\ubc29\ud5a5)", "addr": "\ucda9\uccad\ub0a8\ub3c4 \uc11c\uc0b0\uc2dc \ud574\ubbf8\uba74 \uc11c\ud574\uc548\uace0\uc18d\ub3c4\ub85c 242 (\uc0bc\uc1a1\ub9ac)", "lat": "36.7338867", "lng": "126.5670967"}, {"statNm": "\uc11c\uc0b0\ud734\uac8c\uc18c(\uc2dc\ud765\ubc29\ud5a5)", "addr": "\ucda9\uccad\ub0a8\ub3c4 \uc11c\uc0b0\uc2dc \ud574\ubbf8\uba74 \uc11c\ud574\uc548\uace0\uc18d\ub3c4\ub85c 242 (\uc0bc\uc1a1\ub9ac)", "lat": "36.7338867", "lng": "126.5670967"}, {"statNm": "\uc11c\ucc9c\ud734\uac8c\uc18c(\ubaa9\ud3ec\ubc29\ud5a5)", "addr": "\ucda9\uccad\ub0a8\ub3c4 \uc11c\ucc9c\uad70 \ube44\uc778\uba74 \uc11c\ud574\uc548\uace0\uc18d\ub3c4\ub85c 169 (\uc131\uc0b0\ub9ac)", "lat": "36.1292781", "lng": "126.6269803"}, {"statNm": "\uc11c\ucc9c\ud734\uac8c\uc18c(\ubaa9\ud3ec\ubc29\ud5a5)", "addr": "\ucda9\uccad\ub0a8\ub3c4 \uc11c\ucc9c\uad70 \ube44\uc778\uba74 \uc11c\ud574\uc548\uace0\uc18d\ub3c4\ub85c 169 (\uc131\uc0b0\ub9ac)", "lat": "36.1292781", "lng": "126.6269803"}, {"statNm": "\uc11c\ucc9c\ud734\uac8c\uc18c(\uc2dc\ud765\ubc29\ud5a5)", "addr": "\ucda9\uccad\ub0a8\ub3c4 \uc11c\ucc9c\uad70 \ube44\uc778\uba74 \uc11c\ud574\uc548\uace0\uc18d\ub3c4\ub85c 168 (\uc131\uc0b0\ub9ac)", "lat": "36.1320831", "lng": "126.6275272"}, {"statNm": "\uc11c\ucc9c\ud734\uac8c\uc18c(\uc2dc\ud765\ubc29\ud5a5)", "addr": "\ucda9\uccad\ub0a8\ub3c4 \uc11c\ucc9c\uad70 \ube44\uc778\uba74 \uc11c\ud574\uc548\uace0\uc18d\ub3c4\ub85c 168 (\uc131\uc0b0\ub9ac)", "lat": "36.1320831", "lng": "126.6275272"}, {"statNm": "\ud64d\uc131\ud734\uac8c\uc18c(\ubaa9\ud3ec\ubc29\ud5a5)", "addr": "\ucda9\uccad\ub0a8\ub3c4 \ud64d\uc131\uad70 \uc740\ud558\uba74 \uc11c\ud574\uc548\uace0\uc18d\ub3c4\ub85c 221 (\uae08\uad6d\ub9ac)", "lat": "36.5520256", "lng": "126.579626"}, {"statNm": "\ud64d\uc131\ud734\uac8c\uc18c(\uc2dc\ud765\ubc29\ud5a5)", "addr": "\ucda9\uccad\ub0a8\ub3c4 \ud64d\uc131\uad70 \uc740\ud558\uba74 \uc11c\ud574\uc548\uace0\uc18d\ub3c4\ub85c 220 (\uae08\uad6d\ub9ac)", "lat": "36.5538232", "lng": "126.5818528"}, {"statNm": "\ubc8c\uace1\ud734\uac8c\uc18c(\ub17c\uc0b0\ubc29\ud5a5)", "addr": "\ucda9\uccad\ub0a8\ub3c4 \ub17c\uc0b0\uc2dc \ubc8c\uace1\uba74 \ud638\ub0a8\uace0\uc18d\ub3c4\ub85c 2465-10 (\uc2e0\uc591\ub9ac)", "lat": "36.2175076", "lng": "127.2740754"}, {"statNm": "\uc778\uc0bc\ub79c\ub4dc\ud734\uac8c\uc18c(\ud1b5\uc601\ubc29\ud5a5)", "addr": "\ucda9\uccad\ub0a8\ub3c4 \uae08\uc0b0\uad70 \uad70\ubd81\uba74 \uc5b4\ud544\uac01\ub85c 300 (\uc678\ubd80\ub9ac)", "lat": "36.1536077", "lng": "127.4953731"}, {"statNm": "\uc778\uc0bc\ub79c\ub4dc\ud734\uac8c\uc18c(\ud558\ub0a8\ubc29\ud5a5)", "addr": "\ucda9\uccad\ub0a8\ub3c4 \uae08\uc0b0\uad70 \uad70\ubd81\uba74 \ub300\uc554\uae38 34-30 (\uc678\ubd80\ub9ac)", "lat": "36.1550665", "lng": "127.4964759"}, {"statNm": "\uacf5\uc8fc\ud734\uac8c\uc18c(\ub2f9\uc9c4\ubc29\ud5a5)", "addr": "\ucda9\uccad\ub0a8\ub3c4 \uacf5\uc8fc\uc2dc \uc758\ub2f9\uba74 \ub2f9\uc9c4\uc601\ub355\uace0\uc18d\ub3c4\ub85c 71 (\uccad\ub8e1\ub9ac)", "lat": "36.4985499", "lng": "127.1668661"}, {"statNm": "\uacf5\uc8fc\ud734\uac8c\uc18c(\ub300\uc804\ubc29\ud5a5)", "addr": "\ucda9\uccad\ub0a8\ub3c4 \uacf5\uc8fc\uc2dc \uc758\ub2f9\uba74 \ub2f9\uc9c4\uc601\ub355\uace0\uc18d\ub3c4\ub85c 72 (\uc1a1\uc120\ub3d9)", "lat": "36.4967019", "lng": "127.1662711"}, {"statNm": "\uc608\uc0b0\ud734\uac8c\uc18c(\ub2f9\uc9c4\ubc29\ud5a5)", "addr": "\ucda9\uccad\ub0a8\ub3c4 \uc608\uc0b0\uad70 \uc2e0\uc591\uba74 \ub2f9\uc9c4\uc601\ub355\uace0\uc18d\ub3c4\ub85c 33 (\uc11c\uacc4\uc591\ub9ac)", "lat": "36.6193815", "lng": "126.8465667"}, {"statNm": "\uc608\uc0b0\ud734\uac8c\uc18c(\ub300\uc804\ubc29\ud5a5)", "addr": "\ucda9\uccad\ub0a8\ub3c4 \uc608\uc0b0\uad70 \uc2e0\uc591\uba74 \ub2f9\uc9c4\uc601\ub355\uace0\uc18d\ub3c4\ub85c 34 (\uc11c\uacc4\uc591\ub9ac)", "lat": "36.6229771", "lng": "126.8402835"}, {"statNm": "\ubd80\uc5ec\ubc31\uc81c\ud734\uac8c\uc18c(\uacf5\uc8fc\ubc29\ud5a5)", "addr": "\ucda9\uccad\ub0a8\ub3c4 \ubd80\uc5ec\uad70 \ub0b4\uc0b0\uba74 \uc11c\ucc9c\uacf5\uc8fc\uace0\uc18d\ub3c4\ub85c 26 (\uc728\uc554\ub9ac)", "lat": "36.2589649", "lng": "126.8004163"}, {"statNm": "\ubd80\uc5ec\ubc31\uc81c\ud734\uac8c\uc18c(\uc11c\ucc9c\ubc29\ud5a5)", "addr": "\ucda9\uccad\ub0a8\ub3c4 \ubd80\uc5ec\uad70 \ub0b4\uc0b0\uba74 \uc11c\ucc9c\uacf5\uc8fc\uace0\uc18d\ub3c4\ub85c 25 (\uc728\uc554\ub9ac)", "lat": "36.2570854", "lng": "126.7961141"}, {"statNm": "\ub86f\ub370\ub9c8\ud2b8 \uc11c\uc0b0\uc810", "addr": "\ucda9\uccad\ub0a8\ub3c4 \uc11c\uc0b0\uc2dc \ucda9\uc758\ub85c 27 (\uc608\ucc9c\ub3d9)", "lat": "36.7727044", "lng": "126.4395537"}, {"statNm": "GS\uc7a5\ud56d\uc194\ubc14\ub78c\uc810", "addr": "\ucda9\uccad\ub0a8\ub3c4 \uc11c\ucc9c\uad70 \uc7a5\ud56d\uc74d \uc1a1\ub9bc\ub9ac 755-12", "lat": "36.024538", "lng": "126.66773"}, {"statNm": "\ud0dc\uc548\ud574\uc548\uad6d\ub9bd\uacf5\uc6d0 \uc0bc\ubd09\uc8fc\ucc28\uc7a5", "addr": "\ucda9\uccad\ub0a8\ub3c4 \ud0dc\uc548\uad70 \uc548\uba74\uc74d \ucc3d\uae30\ub9ac 1304-6", "lat": "36.570842", "lng": "126.315921"}, {"statNm": "\ud0dc\uc548\ud574\uc548\uad6d\ub9bd\uacf5\uc6d0 \uc0bc\ubd09\uc8fc\ucc28\uc7a5", "addr": "\ucda9\uccad\ub0a8\ub3c4 \ud0dc\uc548\uad70 \uc548\uba74\uc74d \ucc3d\uae30\ub9ac 1304-6", "lat": "36.570842", "lng": "126.315921"}, {"statNm": "\ud0dc\uc548\ud574\uc548\uad6d\ub9bd\uacf5\uc6d0 \ud559\uc554\ud3ec\uc57c\uc601\uc7a5", "addr": "\ucda9\uccad\ub0a8\ub3c4 \ud0dc\uc548\uad70 \uc6d0\ubd81\uba74 \ubc29\uac08\ub9ac 515-79", "lat": "36.896882", "lng": "126.206457"}, {"statNm": "\ud0dc\uc548\ud574\uc548\uad6d\ub9bd\uacf5\uc6d0 \ud559\uc554\ud3ec\uc57c\uc601\uc7a5", "addr": "\ucda9\uccad\ub0a8\ub3c4 \ud0dc\uc548\uad70 \uc6d0\ubd81\uba74 \ubc29\uac08\ub9ac 515-79", "lat": "36.896882", "lng": "126.206457"}, {"statNm": "\ub86f\ub370\ub9c8\ud2b8 \ucc9c\uc548\uc810", "addr": "\ucda9\uccad\ub0a8\ub3c4 \ucc9c\uc548\uc2dc \uc11c\ubd81\uad6c \uc6d4\ubd09\ub85c 95-0 (\uc30d\uc6a92\ub3d9)", "lat": "36.799709", "lng": "127.117648"}, {"statNm": "\ub86f\ub370\ub9c8\ud2b8 \ucc9c\uc548\uc810", "addr": "\ucda9\uccad\ub0a8\ub3c4 \ucc9c\uc548\uc2dc \uc11c\ubd81\uad6c \uc6d4\ubd09\ub85c 95-0 (\uc30d\uc6a92\ub3d9)", "lat": "36.799709", "lng": "127.117648"}, {"statNm": "\ub86f\ub370\ub9c8\ud2b8 \ud64d\uc131\uc810", "addr": "\ucda9\uccad\ub0a8\ub3c4 \ud64d\uc131\uad70 \ud64d\uc131\uc74d \uc870\uc591\ub85c247\ubc88\uae38 9 (\uace0\uc554\ub9ac)", "lat": "36.600955", "lng": "126.676311"}, {"statNm": "\uc785\uc7a5\ud734\uac8c\uc18c(\uc11c\uc6b8\ubc29\ud5a5)", "addr": "\ucda9\uccad\ub0a8\ub3c4 \ucc9c\uc548\uc2dc \uc11c\ubd81\uad6c \uc785\uc7a5\uba74 \uc5f0\uace1\uae38 407", "lat": "36.9428836", "lng": "127.1941661"}, {"statNm": "\ucc9c\uc548\ud734\uac8c\uc18c(\ubd80\uc0b0\ubc29\ud5a5)", "addr": "\ucda9\uccad\ub0a8\ub3c4 \ucc9c\uc548\uc2dc \ub3d9\ub0a8\uad6c \uc218\uc2e0\uba74 \uc131\ub0a8\ub85c 793-40", "lat": "36.7304441", "lng": "127.2629759"}, {"statNm": "\uc815\uc548\ud734\uac8c\uc18c(\ucc9c\uc548\ubc29\ud5a5)", "addr": "\ucda9\uccad\ub0a8\ub3c4 \uacf5\uc8fc\uc2dc \uc815\uc548\uba74 \uc7a5\uc6d0\uc7a5\uc790\uc6b8\uae38 73-47", "lat": "36.5685878", "lng": "127.1144045"}, {"statNm": "\uc774\uc778\ud734\uac8c\uc18c(\ucc9c\uc548\ubc29\ud5a5)", "addr": "\ucda9\uccad\ub0a8\ub3c4 \uacf5\uc8fc\uc2dc \uc774\uc778\uba74 \uc774\uc778\ub9ac", "lat": "36.3520509", "lng": "127.0692232"}, {"statNm": "\ud0c4\ucc9c\ud734\uac8c\uc18c(\ub17c\uc0b0\ubc29\ud5a5)", "addr": "\ucda9\uccad\ub0a8\ub3c4 \uacf5\uc8fc\uc2dc \ud0c4\ucc9c\uba74 \uc7a5\uc120\ub9ac 151-6", "lat": "36.3200333", "lng": "127.0705915"}, {"statNm": "\uc815\uc548\ud734\uac8c\uc18c(\uc21c\ucc9c\ubc29\ud5a5)", "addr": "\ucda9\uccad\ub0a8\ub3c4 \uacf5\uc8fc\uc2dc \uc815\uc548\uba74 \uc11d\uc1a1\ub9ac", "lat": "36.5717709", "lng": "127.1127178"}, {"statNm": "\uc544\ud2b8\uc13c\ud130 \uace0\ub9c8", "addr": "\ucda9\uccad\ub0a8\ub3c4 \uacf5\uc8fc\uc2dc \uc6c5\uc9c4\ub3d9 354-6", "lat": "36.466735", "lng": "127.109715"}, {"statNm": "\ub454\ud3ec\uba74\uc0ac\ubb34\uc18c", "addr": "\ucda9\uccad\ub0a8\ub3c4 \uc544\uc0b0\uc2dc \ub454\ud3ec\uba74 \ub454\ud3ec\ub9ac 461-11", "lat": "36.92976", "lng": "127.037976"}, {"statNm": "\uc9c0\uace1\uba74 \uacf5\uc601\uc8fc\ucc28\uc7a5", "addr": "\ucda9\uccad\ub0a8\ub3c4 \uc11c\uc0b0\uc2dc \uc9c0\uace1\uba74 \ud654\ucc9c\ub9ac 1301-17", "lat": "36.86375", "lng": "126.434241"}, {"statNm": "\ubc8c\uace1\ud734\uac8c\uc18c(\ub300\uc804\ubc29\ud5a5)", "addr": "\ucda9\uccad\ub0a8\ub3c4 \ub17c\uc0b0\uc2dc \ubc8c\uace1\uba74 \uc591\uc0b0\ub9ac", "lat": "36.210813", "lng": "127.2704991"}, {"statNm": "\uc5c4\uc0ac\uc0c1\uc810\uac00 \uacf5\uc601\uc8fc\ucc28\uc7a5", "addr": "\ucda9\uccad\ub0a8\ub3c4 \uacc4\ub8e1\uc2dc \uc5c4\uc0ac\uba74 \uc5c4\uc0ac\ub9ac 181-3", "lat": "36.289045", "lng": "127.242876"}, {"statNm": "\uba74\ucc9c\uba74\uc0ac\ubb34\uc18c", "addr": "\ucda9\uccad\ub0a8\ub3c4 \ub2f9\uc9c4\uc2dc \uba74\ucc9c\ub85c 623", "lat": "36.8162641", "lng": "126.66494"}, {"statNm": "\ud589\ub2f4\ub3c4\ud734\uac8c\uc18c(\uc11c\uc6b8\ubc29\ud5a5)", "addr": "\ucda9\uccad\ub0a8\ub3c4 \ub2f9\uc9c4\uc2dc \uc2e0\ud3c9\uba74 \uc11c\ud574\uc548\uace0\uc18d\ub3c4\ub85c 275,", "lat": "36.943895", "lng": "126.806949"}, {"statNm": "\ud589\ub2f4\ub3c4\ud734\uac8c\uc18c(\ubaa9\ud3ec\ubc29\ud5a5)", "addr": "\ucda9\uccad\ub0a8\ub3c4 \ub2f9\uc9c4\uc2dc \uc2e0\ud3c9\uba74 \uc11c\ud574\uc548\uace0\uc18d\ub3c4\ub85c 275,", "lat": "36.944564", "lng": "126.809261"}, {"statNm": "\uc778\uc0bc\ub79c\ub4dc\ud734\uac8c\uc18c(\ud558\ub0a8\ubc29\ud5a5)", "addr": "\ucda9\uccad\ub0a8\ub3c4 \uae08\uc0b0\uad70 \uad70\ubd81\uba74 \ub300\uc554\uae38 34-30", "lat": "36.1551665", "lng": "127.4962759"}, {"statNm": "\uc778\uc0bc\ub79c\ub4dc\ud734\uac8c\uc18c(\ud1b5\uc601\ubc29\ud5a5)", "addr": "\ucda9\uccad\ub0a8\ub3c4 \uae08\uc0b0\uad70 \uad70\ubd81\uba74 \uc5b4\ud544\uac01\ub85c 300", "lat": "36.1537077", "lng": "127.4951731"}, {"statNm": "\uae08\uc0b0\uad70\uccad", "addr": "\ucda9\uccad\ub0a8\ub3c4 \uae08\uc0b0\uad70 \uae08\uc0b0\uc74d \uad70\uccad\uae38 13", "lat": "36.108708", "lng": "127.486678"}, {"statNm": "\ubd80\uc5ec\ubc31\uc81c\ud734\uac8c\uc18c(\uacf5\uc8fc\ubc29\ud5a5)", "addr": "\ucda9\uccad\ub0a8\ub3c4 \ubd80\uc5ec\uad70 \ub0b4\uc0b0\uba74 \uc11c\ucc9c\uacf5\uc8fc\uace0\uc18d\ub3c4\ub85c 26", "lat": "36.2590649", "lng": "126.8002163"}, {"statNm": "\ubd80\uc5ec\ubc31\uc81c\ud734\uac8c\uc18c(\uc11c\ucc9c\ubc29\ud5a5)", "addr": "\ucda9\uccad\ub0a8\ub3c4 \ubd80\uc5ec\uad70 \ub0b4\uc0b0\uba74 \uc11c\ucc9c\uacf5\uc8fc\uace0\uc18d\ub3c4\ub85c 25", "lat": "36.2571854", "lng": "126.7959141"}, {"statNm": "\ub3d9\ubd80\uc5ec\uc11d\uc131\ud734\uac8c\uc18c", "addr": "\ucda9\uccad\ub0a8\ub3c4 \ubd80\uc5ec\uad70 \uc11d\uc131\uba74 \ub300\ubc31\uc81c\ub85c 3050", "lat": "36.252312", "lng": "126.980859"}, {"statNm": "\uc11c\uba74\uc0ac\ubb34\uc18c", "addr": "\ucda9\uccad\ub0a8\ub3c4 \uc11c\ucc9c\uad70 \uc11c\uba74 \uc11c\uc778\ub85c 761", "lat": "36.15276", "lng": "126.549804"}, {"statNm": "\uccad\uc591\uc74d\uc0ac\ubb34\uc18c \uc55e \uacf5\uc601\uc8fc\ucc28\uc7a5", "addr": "\ucda9\uccad\ub0a8\ub3c4 \uccad\uc591\uad70 \uccad\uc591\uc74d \uce60\uac11\uc0b0\ub85c6\uae38 28", "lat": "36.448522", "lng": "126.801788"}, {"statNm": "\uc815\uc0b0\uba74\uc0ac\ubb34\uc18c", "addr": "\ucda9\uccad\ub0a8\ub3c4 \uccad\uc591\uad70 \uc815\uc0b0\uba74 \uce60\uac11\uc0b0\ub85c 1857", "lat": "36.414679", "lng": "126.944913"}, {"statNm": "\ud64d\uc8fc\uc885\ud569\uacbd\uae30\uc7a5", "addr": "\ucda9\uccad\ub0a8\ub3c4 \ud64d\uc131\uad70 \ud64d\uc131\uc74d \uc18c\ud5a5\ub9ac 397-118", "lat": "36.606382", "lng": "126.64192"}, {"statNm": "\uad11\ucc9c\uc0dd\ud65c\uccb4\uc721\uacf5\uc6d0", "addr": "\ucda9\uccad\ub0a8\ub3c4 \ud64d\uc131\uad70 \uad11\ucc9c\uc74d \ud64d\ub0a8\ub85c 764-42", "lat": "36.508184", "lng": "126.635298"}, {"statNm": "\uc608\uc0b0\ubcf5\ud569\ubb38\ud654\ubcf5\uc9c0\uc13c\ud130", "addr": "\ucda9\uccad\ub0a8\ub3c4 \uc608\uc0b0\uad70 \uc608\uc0b0\uc74d \uc11d\uc591\ub9ac 213-2", "lat": "36.6999594", "lng": "126.8407188"}, {"statNm": "\ub0a8\uba74\uc0ac\ubb34\uc18c", "addr": "\ucda9\uccad\ub0a8\ub3c4 \ud0dc\uc548\uad70 \ub0a8\uba74 \ub2ec\uc0b0\ub9ac 1179", "lat": "36.671559", "lng": "126.298053"}, {"statNm": "\ud0dc\uc548\uc0c1\uc124\uc2dc\uc7a5 \uacf5\uc601\uc8fc\ucc28\uc7a5", "addr": "\ucda9\uccad\ub0a8\ub3c4 \ud0dc\uc548\uad70 \ud0dc\uc548\uc74d \ub3d9\ubc31\ub85c 251", "lat": "36.751056", "lng": "126.2987644"}, {"statNm": "\ub86f\ub370\ub9c8\ud2b8 \ub2f9\uc9c4\uc810", "addr": "\ucda9\uccad\ub0a8\ub3c4 \ub2f9\uc9c4\uc2dc \uc815\uc548\ub85c 20", "lat": "36.905631", "lng": "126.645898"}, {"statNm": "\uc0bc\ubd094\ub9ac\uc0ac\ubb34\uc18c", "addr": "\ucda9\uccad\ub0a8\ub3c4 \ub2f9\uc9c4\uc2dc \uc11d\ubb38\uba74 \ub300\ud638\ub9cc\ub85c 1736-7", "lat": "37.013251", "lng": "126.537678"}, {"statNm": "\ub17c\uc0b0\uc2dc\uccad \uc55e \uacf5\uc601\uc8fc\ucc28\uc7a5", "addr": "\ucda9\uccad\ub0a8\ub3c4 \ub17c\uc0b0\uc2dc \ub0b4\ub3d9 825", "lat": "36.1860835", "lng": "127.0993556"}, {"statNm": "\uad6d\ub9bd\uc0dd\ud0dc\uc6d0 \uc815\ubb38 \uc8fc\ucc28\uc7a5", "addr": "\ucda9\uccad\ub0a8\ub3c4 \uc11c\ucc9c\uad70 \ub9c8\uc11c\uba74 \uc1a1\ub0b4\ub9ac 758", "lat": "36.027168", "lng": "126.7215749"}, {"statNm": "\uc785\uc7a5\ud734\uac8c\uc18c(\uc11c\uc6b8\ubc29\ud5a5)", "addr": "\ucda9\uccad\ub0a8\ub3c4 \ucc9c\uc548\uc2dc \uc11c\ubd81\uad6c \uc785\uc7a5\uba74 \uc5f0\uace1\uae38 407", "lat": "36.9427836", "lng": "127.1943661"}, {"statNm": "\uc785\uc7a5\ud734\uac8c\uc18c(\uc11c\uc6b8\ubc29\ud5a5)", "addr": "\ucda9\uccad\ub0a8\ub3c4 \ucc9c\uc548\uc2dc \uc11c\ubd81\uad6c \uc785\uc7a5\uba74 \uc5f0\uace1\uae38 407", "lat": "36.9427836", "lng": "127.1943661"}, {"statNm": "\ucc9c\uc548\ud734\uac8c\uc18c(\uc11c\uc6b8\ubc29\ud5a5)", "addr": "\ucda9\uccad\ub0a8\ub3c4 \ucc9c\uc548\uc2dc \ub3d9\ub0a8\uad6c \uc27c1\uae38 42 (\uc0bc\ub8e1\ub3d9)173-1", "lat": "36.7882107", "lng": "127.1735101"}, {"statNm": "\ucc9c\uc548\ud734\uac8c\uc18c(\uc11c\uc6b8\ubc29\ud5a5)", "addr": "\ucda9\uccad\ub0a8\ub3c4 \ucc9c\uc548\uc2dc \ub3d9\ub0a8\uad6c \uc27c1\uae38 42 (\uc0bc\ub8e1\ub3d9)173-1", "lat": "36.7882107", "lng": "127.1735101"}, {"statNm": "\ucc9c\uc548\ud734\uac8c\uc18c(\uc11c\uc6b8\ubc29\ud5a5)", "addr": "\ucda9\uccad\ub0a8\ub3c4 \ucc9c\uc548\uc2dc \ub3d9\ub0a8\uad6c \uc27c1\uae38 42 (\uc0bc\ub8e1\ub3d9)173-1", "lat": "36.7882107", "lng": "127.1735101"}, {"statNm": "\ub300\ucc9c\ud734\uac8c\uc18c(\ubaa9\ud3ec\ubc29\ud5a5)", "addr": "\ucda9\uccad\ub0a8\ub3c4 \ubcf4\ub839\uc2dc \uc8fc\uad50\uba74 \uc11c\ud574\uc548\uace0\uc18d\ub3c4\ub85c 199 (\uc8fc\uad50\ub9ac)", "lat": "36.3729958", "lng": "126.5563709"}, {"statNm": "\ub300\ucc9c\ud734\uac8c\uc18c(\uc2dc\ud765\ubc29\ud5a5)", "addr": "\ucda9\uccad\ub0a8\ub3c4 \ubcf4\ub839\uc2dc \uc8fc\uad50\uba74 \uc11c\ud574\uc548\uace0\uc18d\ub3c4\ub85c 200 (\uc8fc\uad50\ub9ac)", "lat": "36.3737327", "lng": "126.557557"}, {"statNm": "\uc11c\uc0b0\ud734\uac8c\uc18c(\uc2dc\ud765\ubc29\ud5a5)", "addr": "\ucda9\uccad\ub0a8\ub3c4 \uc11c\uc0b0\uc2dc \ud574\ubbf8\uba74 \uc11c\ud574\uc548\uace0\uc18d\ub3c4\ub85c 242 (\uc0bc\uc1a1\ub9ac)", "lat": "36.7338867", "lng": "126.5670967"}, {"statNm": "\uc11c\uc0b0\ud734\uac8c\uc18c(\uc2dc\ud765\ubc29\ud5a5)", "addr": "\ucda9\uccad\ub0a8\ub3c4 \uc11c\uc0b0\uc2dc \ud574\ubbf8\uba74 \uc11c\ud574\uc548\uace0\uc18d\ub3c4\ub85c 242 (\uc0bc\uc1a1\ub9ac)", "lat": "36.7338867", "lng": "126.5670967"}, {"statNm": "\uc11c\ucc9c\ud734\uac8c\uc18c(\ubaa9\ud3ec\ubc29\ud5a5)", "addr": "\ucda9\uccad\ub0a8\ub3c4 \uc11c\ucc9c\uad70 \ube44\uc778\uba74 \uc11c\ud574\uc548\uace0\uc18d\ub3c4\ub85c 169 (\uc131\uc0b0\ub9ac)", "lat": "36.1292781", "lng": "126.6269803"}, {"statNm": "\uc11c\ucc9c\ud734\uac8c\uc18c(\ubaa9\ud3ec\ubc29\ud5a5)", "addr": "\ucda9\uccad\ub0a8\ub3c4 \uc11c\ucc9c\uad70 \ube44\uc778\uba74 \uc11c\ud574\uc548\uace0\uc18d\ub3c4\ub85c 169 (\uc131\uc0b0\ub9ac)", "lat": "36.1292781", "lng": "126.6269803"}, {"statNm": "\uc11c\ucc9c\ud734\uac8c\uc18c(\uc2dc\ud765\ubc29\ud5a5)", "addr": "\ucda9\uccad\ub0a8\ub3c4 \uc11c\ucc9c\uad70 \ube44\uc778\uba74 \uc11c\ud574\uc548\uace0\uc18d\ub3c4\ub85c 168 (\uc131\uc0b0\ub9ac)", "lat": "36.1320831", "lng": "126.6275272"}, {"statNm": "\uc11c\ucc9c\ud734\uac8c\uc18c(\uc2dc\ud765\ubc29\ud5a5)", "addr": "\ucda9\uccad\ub0a8\ub3c4 \uc11c\ucc9c\uad70 \ube44\uc778\uba74 \uc11c\ud574\uc548\uace0\uc18d\ub3c4\ub85c 168 (\uc131\uc0b0\ub9ac)", "lat": "36.1320831", "lng": "126.6275272"}, {"statNm": "\ud64d\uc131\ud734\uac8c\uc18c(\ubaa9\ud3ec\ubc29\ud5a5)", "addr": "\ucda9\uccad\ub0a8\ub3c4 \ud64d\uc131\uad70 \uc740\ud558\uba74 \uc11c\ud574\uc548\uace0\uc18d\ub3c4\ub85c 221 (\uae08\uad6d\ub9ac)", "lat": "36.5520256", "lng": "126.579626"}, {"statNm": "\ud64d\uc131\ud734\uac8c\uc18c(\uc2dc\ud765\ubc29\ud5a5)", "addr": "\ucda9\uccad\ub0a8\ub3c4 \ud64d\uc131\uad70 \uc740\ud558\uba74 \uc11c\ud574\uc548\uace0\uc18d\ub3c4\ub85c 220 (\uae08\uad6d\ub9ac)", "lat": "36.5538232", "lng": "126.5818528"}, {"statNm": "\ubc8c\uace1\ud734\uac8c\uc18c(\ub17c\uc0b0\ubc29\ud5a5)", "addr": "\ucda9\uccad\ub0a8\ub3c4 \ub17c\uc0b0\uc2dc \ubc8c\uace1\uba74 \ud638\ub0a8\uace0\uc18d\ub3c4\ub85c 2465-10 (\uc2e0\uc591\ub9ac)", "lat": "36.2175076", "lng": "127.2740754"}, {"statNm": "\uc778\uc0bc\ub79c\ub4dc\ud734\uac8c\uc18c(\ud1b5\uc601\ubc29\ud5a5)", "addr": "\ucda9\uccad\ub0a8\ub3c4 \uae08\uc0b0\uad70 \uad70\ubd81\uba74 \uc5b4\ud544\uac01\ub85c 300 (\uc678\ubd80\ub9ac)", "lat": "36.1536077", "lng": "127.4953731"}, {"statNm": "\uc778\uc0bc\ub79c\ub4dc\ud734\uac8c\uc18c(\ud558\ub0a8\ubc29\ud5a5)", "addr": "\ucda9\uccad\ub0a8\ub3c4 \uae08\uc0b0\uad70 \uad70\ubd81\uba74 \ub300\uc554\uae38 34-30 (\uc678\ubd80\ub9ac)", "lat": "36.1550665", "lng": "127.4964759"}, {"statNm": "\uacf5\uc8fc\ud734\uac8c\uc18c(\ub2f9\uc9c4\ubc29\ud5a5)", "addr": "\ucda9\uccad\ub0a8\ub3c4 \uacf5\uc8fc\uc2dc \uc758\ub2f9\uba74 \ub2f9\uc9c4\uc601\ub355\uace0\uc18d\ub3c4\ub85c 71 (\uccad\ub8e1\ub9ac)", "lat": "36.4985499", "lng": "127.1668661"}, {"statNm": "\uacf5\uc8fc\ud734\uac8c\uc18c(\ub300\uc804\ubc29\ud5a5)", "addr": "\ucda9\uccad\ub0a8\ub3c4 \uacf5\uc8fc\uc2dc \uc758\ub2f9\uba74 \ub2f9\uc9c4\uc601\ub355\uace0\uc18d\ub3c4\ub85c 72 (\uc1a1\uc120\ub3d9)", "lat": "36.4967019", "lng": "127.1662711"}, {"statNm": "\uc608\uc0b0\ud734\uac8c\uc18c(\ub2f9\uc9c4\ubc29\ud5a5)", "addr": "\ucda9\uccad\ub0a8\ub3c4 \uc608\uc0b0\uad70 \uc2e0\uc591\uba74 \ub2f9\uc9c4\uc601\ub355\uace0\uc18d\ub3c4\ub85c 33 (\uc11c\uacc4\uc591\ub9ac)", "lat": "36.6193815", "lng": "126.8465667"}, {"statNm": "\uc608\uc0b0\ud734\uac8c\uc18c(\ub300\uc804\ubc29\ud5a5)", "addr": "\ucda9\uccad\ub0a8\ub3c4 \uc608\uc0b0\uad70 \uc2e0\uc591\uba74 \ub2f9\uc9c4\uc601\ub355\uace0\uc18d\ub3c4\ub85c 34 (\uc11c\uacc4\uc591\ub9ac)", "lat": "36.6229771", "lng": "126.8402835"}, {"statNm": "\ubd80\uc5ec\ubc31\uc81c\ud734\uac8c\uc18c(\uacf5\uc8fc\ubc29\ud5a5)", "addr": "\ucda9\uccad\ub0a8\ub3c4 \ubd80\uc5ec\uad70 \ub0b4\uc0b0\uba74 \uc11c\ucc9c\uacf5\uc8fc\uace0\uc18d\ub3c4\ub85c 26 (\uc728\uc554\ub9ac)", "lat": "36.2589649", "lng": "126.8004163"}, {"statNm": "\ubd80\uc5ec\ubc31\uc81c\ud734\uac8c\uc18c(\uc11c\ucc9c\ubc29\ud5a5)", "addr": "\ucda9\uccad\ub0a8\ub3c4 \ubd80\uc5ec\uad70 \ub0b4\uc0b0\uba74 \uc11c\ucc9c\uacf5\uc8fc\uace0\uc18d\ub3c4\ub85c 25 (\uc728\uc554\ub9ac)", "lat": "36.2570854", "lng": "126.7961141"}, {"statNm": "\ub86f\ub370\ub9c8\ud2b8 \uc11c\uc0b0\uc810", "addr": "\ucda9\uccad\ub0a8\ub3c4 \uc11c\uc0b0\uc2dc \ucda9\uc758\ub85c 27 (\uc608\ucc9c\ub3d9)", "lat": "36.7727044", "lng": "126.4395537"}, {"statNm": "GS\uc7a5\ud56d\uc194\ubc14\ub78c\uc810", "addr": "\ucda9\uccad\ub0a8\ub3c4 \uc11c\ucc9c\uad70 \uc7a5\ud56d\uc74d \uc1a1\ub9bc\ub9ac 755-12", "lat": "36.024538", "lng": "126.66773"}, {"statNm": "\ud0dc\uc548\ud574\uc548\uad6d\ub9bd\uacf5\uc6d0 \uc0bc\ubd09\uc8fc\ucc28\uc7a5", "addr": "\ucda9\uccad\ub0a8\ub3c4 \ud0dc\uc548\uad70 \uc548\uba74\uc74d \ucc3d\uae30\ub9ac 1304-6", "lat": "36.570842", "lng": "126.315921"}, {"statNm": "\ud0dc\uc548\ud574\uc548\uad6d\ub9bd\uacf5\uc6d0 \uc0bc\ubd09\uc8fc\ucc28\uc7a5", "addr": "\ucda9\uccad\ub0a8\ub3c4 \ud0dc\uc548\uad70 \uc548\uba74\uc74d \ucc3d\uae30\ub9ac 1304-6", "lat": "36.570842", "lng": "126.315921"}, {"statNm": "\ud0dc\uc548\ud574\uc548\uad6d\ub9bd\uacf5\uc6d0 \ud559\uc554\ud3ec\uc57c\uc601\uc7a5", "addr": "\ucda9\uccad\ub0a8\ub3c4 \ud0dc\uc548\uad70 \uc6d0\ubd81\uba74 \ubc29\uac08\ub9ac 515-79", "lat": "36.896882", "lng": "126.206457"}, {"statNm": "\ud0dc\uc548\ud574\uc548\uad6d\ub9bd\uacf5\uc6d0 \ud559\uc554\ud3ec\uc57c\uc601\uc7a5", "addr": "\ucda9\uccad\ub0a8\ub3c4 \ud0dc\uc548\uad70 \uc6d0\ubd81\uba74 \ubc29\uac08\ub9ac 515-79", "lat": "36.896882", "lng": "126.206457"}, {"statNm": "\ub86f\ub370\ub9c8\ud2b8 \ucc9c\uc548\uc810", "addr": "\ucda9\uccad\ub0a8\ub3c4 \ucc9c\uc548\uc2dc \uc11c\ubd81\uad6c \uc6d4\ubd09\ub85c 95-0 (\uc30d\uc6a92\ub3d9)", "lat": "36.799709", "lng": "127.117648"}, {"statNm": "\ub86f\ub370\ub9c8\ud2b8 \ucc9c\uc548\uc810", "addr": "\ucda9\uccad\ub0a8\ub3c4 \ucc9c\uc548\uc2dc \uc11c\ubd81\uad6c \uc6d4\ubd09\ub85c 95-0 (\uc30d\uc6a92\ub3d9)", "lat": "36.799709", "lng": "127.117648"}, {"statNm": "\ub86f\ub370\ub9c8\ud2b8 \ud64d\uc131\uc810", "addr": "\ucda9\uccad\ub0a8\ub3c4 \ud64d\uc131\uad70 \ud64d\uc131\uc74d \uc870\uc591\ub85c247\ubc88\uae38 9 (\uace0\uc554\ub9ac)", "lat": "36.600955", "lng": "126.676311"}, {"statNm": "\uc785\uc7a5\ud734\uac8c\uc18c(\uc11c\uc6b8\ubc29\ud5a5)", "addr": "\ucda9\uccad\ub0a8\ub3c4 \ucc9c\uc548\uc2dc \uc11c\ubd81\uad6c \uc785\uc7a5\uba74 \uc5f0\uace1\uae38 407", "lat": "36.9428836", "lng": "127.1941661"}, {"statNm": "\ucc9c\uc548\ud734\uac8c\uc18c(\ubd80\uc0b0\ubc29\ud5a5)", "addr": "\ucda9\uccad\ub0a8\ub3c4 \ucc9c\uc548\uc2dc \ub3d9\ub0a8\uad6c \uc218\uc2e0\uba74 \uc131\ub0a8\ub85c 793-40", "lat": "36.7304441", "lng": "127.2629759"}, {"statNm": "\uc815\uc548\ud734\uac8c\uc18c(\ucc9c\uc548\ubc29\ud5a5)", "addr": "\ucda9\uccad\ub0a8\ub3c4 \uacf5\uc8fc\uc2dc \uc815\uc548\uba74 \uc7a5\uc6d0\uc7a5\uc790\uc6b8\uae38 73-47", "lat": "36.5685878", "lng": "127.1144045"}, {"statNm": "\uc774\uc778\ud734\uac8c\uc18c(\ucc9c\uc548\ubc29\ud5a5)", "addr": "\ucda9\uccad\ub0a8\ub3c4 \uacf5\uc8fc\uc2dc \uc774\uc778\uba74 \uc774\uc778\ub9ac", "lat": "36.3520509", "lng": "127.0692232"}, {"statNm": "\ud0c4\ucc9c\ud734\uac8c\uc18c(\ub17c\uc0b0\ubc29\ud5a5)", "addr": "\ucda9\uccad\ub0a8\ub3c4 \uacf5\uc8fc\uc2dc \ud0c4\ucc9c\uba74 \uc7a5\uc120\ub9ac 151-6", "lat": "36.3200333", "lng": "127.0705915"}, {"statNm": "\uc815\uc548\ud734\uac8c\uc18c(\uc21c\ucc9c\ubc29\ud5a5)", "addr": "\ucda9\uccad\ub0a8\ub3c4 \uacf5\uc8fc\uc2dc \uc815\uc548\uba74 \uc11d\uc1a1\ub9ac", "lat": "36.5717709", "lng": "127.1127178"}, {"statNm": "\uc544\ud2b8\uc13c\ud130 \uace0\ub9c8", "addr": "\ucda9\uccad\ub0a8\ub3c4 \uacf5\uc8fc\uc2dc \uc6c5\uc9c4\ub3d9 354-6", "lat": "36.466735", "lng": "127.109715"}, {"statNm": "\ub454\ud3ec\uba74\uc0ac\ubb34\uc18c", "addr": "\ucda9\uccad\ub0a8\ub3c4 \uc544\uc0b0\uc2dc \ub454\ud3ec\uba74 \ub454\ud3ec\ub9ac 461-11", "lat": "36.92976", "lng": "127.037976"}, {"statNm": "\uc9c0\uace1\uba74 \uacf5\uc601\uc8fc\ucc28\uc7a5", "addr": "\ucda9\uccad\ub0a8\ub3c4 \uc11c\uc0b0\uc2dc \uc9c0\uace1\uba74 \ud654\ucc9c\ub9ac 1301-17", "lat": "36.86375", "lng": "126.434241"}, {"statNm": "\ubc8c\uace1\ud734\uac8c\uc18c(\ub300\uc804\ubc29\ud5a5)", "addr": "\ucda9\uccad\ub0a8\ub3c4 \ub17c\uc0b0\uc2dc \ubc8c\uace1\uba74 \uc591\uc0b0\ub9ac", "lat": "36.210813", "lng": "127.2704991"}, {"statNm": "\uc5c4\uc0ac\uc0c1\uc810\uac00 \uacf5\uc601\uc8fc\ucc28\uc7a5", "addr": "\ucda9\uccad\ub0a8\ub3c4 \uacc4\ub8e1\uc2dc \uc5c4\uc0ac\uba74 \uc5c4\uc0ac\ub9ac 181-3", "lat": "36.289045", "lng": "127.242876"}, {"statNm": "\uba74\ucc9c\uba74\uc0ac\ubb34\uc18c", "addr": "\ucda9\uccad\ub0a8\ub3c4 \ub2f9\uc9c4\uc2dc \uba74\ucc9c\ub85c 623", "lat": "36.8162641", "lng": "126.66494"}, {"statNm": "\ud589\ub2f4\ub3c4\ud734\uac8c\uc18c(\uc11c\uc6b8\ubc29\ud5a5)", "addr": "\ucda9\uccad\ub0a8\ub3c4 \ub2f9\uc9c4\uc2dc \uc2e0\ud3c9\uba74 \uc11c\ud574\uc548\uace0\uc18d\ub3c4\ub85c 275,", "lat": "36.943895", "lng": "126.806949"}, {"statNm": "\ud589\ub2f4\ub3c4\ud734\uac8c\uc18c(\ubaa9\ud3ec\ubc29\ud5a5)", "addr": "\ucda9\uccad\ub0a8\ub3c4 \ub2f9\uc9c4\uc2dc \uc2e0\ud3c9\uba74 \uc11c\ud574\uc548\uace0\uc18d\ub3c4\ub85c 275,", "lat": "36.944564", "lng": "126.809261"}, {"statNm": "\uc778\uc0bc\ub79c\ub4dc\ud734\uac8c\uc18c(\ud558\ub0a8\ubc29\ud5a5)", "addr": "\ucda9\uccad\ub0a8\ub3c4 \uae08\uc0b0\uad70 \uad70\ubd81\uba74 \ub300\uc554\uae38 34-30", "lat": "36.1551665", "lng": "127.4962759"}, {"statNm": "\uc778\uc0bc\ub79c\ub4dc\ud734\uac8c\uc18c(\ud1b5\uc601\ubc29\ud5a5)", "addr": "\ucda9\uccad\ub0a8\ub3c4 \uae08\uc0b0\uad70 \uad70\ubd81\uba74 \uc5b4\ud544\uac01\ub85c 300", "lat": "36.1537077", "lng": "127.4951731"}, {"statNm": "\uae08\uc0b0\uad70\uccad", "addr": "\ucda9\uccad\ub0a8\ub3c4 \uae08\uc0b0\uad70 \uae08\uc0b0\uc74d \uad70\uccad\uae38 13", "lat": "36.108708", "lng": "127.486678"}, {"statNm": "\ubd80\uc5ec\ubc31\uc81c\ud734\uac8c\uc18c(\uacf5\uc8fc\ubc29\ud5a5)", "addr": "\ucda9\uccad\ub0a8\ub3c4 \ubd80\uc5ec\uad70 \ub0b4\uc0b0\uba74 \uc11c\ucc9c\uacf5\uc8fc\uace0\uc18d\ub3c4\ub85c 26", "lat": "36.2590649", "lng": "126.8002163"}, {"statNm": "\ubd80\uc5ec\ubc31\uc81c\ud734\uac8c\uc18c(\uc11c\ucc9c\ubc29\ud5a5)", "addr": "\ucda9\uccad\ub0a8\ub3c4 \ubd80\uc5ec\uad70 \ub0b4\uc0b0\uba74 \uc11c\ucc9c\uacf5\uc8fc\uace0\uc18d\ub3c4\ub85c 25", "lat": "36.2571854", "lng": "126.7959141"}, {"statNm": "\ub3d9\ubd80\uc5ec\uc11d\uc131\ud734\uac8c\uc18c", "addr": "\ucda9\uccad\ub0a8\ub3c4 \ubd80\uc5ec\uad70 \uc11d\uc131\uba74 \ub300\ubc31\uc81c\ub85c 3050", "lat": "36.252312", "lng": "126.980859"}, {"statNm": "\uc11c\uba74\uc0ac\ubb34\uc18c", "addr": "\ucda9\uccad\ub0a8\ub3c4 \uc11c\ucc9c\uad70 \uc11c\uba74 \uc11c\uc778\ub85c 761", "lat": "36.15276", "lng": "126.549804"}, {"statNm": "\uccad\uc591\uc74d\uc0ac\ubb34\uc18c \uc55e \uacf5\uc601\uc8fc\ucc28\uc7a5", "addr": "\ucda9\uccad\ub0a8\ub3c4 \uccad\uc591\uad70 \uccad\uc591\uc74d \uce60\uac11\uc0b0\ub85c6\uae38 28", "lat": "36.448522", "lng": "126.801788"}, {"statNm": "\uc815\uc0b0\uba74\uc0ac\ubb34\uc18c", "addr": "\ucda9\uccad\ub0a8\ub3c4 \uccad\uc591\uad70 \uc815\uc0b0\uba74 \uce60\uac11\uc0b0\ub85c 1857", "lat": "36.414679", "lng": "126.944913"}, {"statNm": "\ud64d\uc8fc\uc885\ud569\uacbd\uae30\uc7a5", "addr": "\ucda9\uccad\ub0a8\ub3c4 \ud64d\uc131\uad70 \ud64d\uc131\uc74d \uc18c\ud5a5\ub9ac 397-118", "lat": "36.606382", "lng": "126.64192"}, {"statNm": "\uad11\ucc9c\uc0dd\ud65c\uccb4\uc721\uacf5\uc6d0", "addr": "\ucda9\uccad\ub0a8\ub3c4 \ud64d\uc131\uad70 \uad11\ucc9c\uc74d \ud64d\ub0a8\ub85c 764-42", "lat": "36.508184", "lng": "126.635298"}, {"statNm": "\uc608\uc0b0\ubcf5\ud569\ubb38\ud654\ubcf5\uc9c0\uc13c\ud130", "addr": "\ucda9\uccad\ub0a8\ub3c4 \uc608\uc0b0\uad70 \uc608\uc0b0\uc74d \uc11d\uc591\ub9ac 213-2", "lat": "36.6999594", "lng": "126.8407188"}, {"statNm": "\ub0a8\uba74\uc0ac\ubb34\uc18c", "addr": "\ucda9\uccad\ub0a8\ub3c4 \ud0dc\uc548\uad70 \ub0a8\uba74 \ub2ec\uc0b0\ub9ac 1179", "lat": "36.671559", "lng": "126.298053"}, {"statNm": "\ud0dc\uc548\uc0c1\uc124\uc2dc\uc7a5 \uacf5\uc601\uc8fc\ucc28\uc7a5", "addr": "\ucda9\uccad\ub0a8\ub3c4 \ud0dc\uc548\uad70 \ud0dc\uc548\uc74d \ub3d9\ubc31\ub85c 251", "lat": "36.751056", "lng": "126.2987644"}, {"statNm": "\ub86f\ub370\ub9c8\ud2b8 \ub2f9\uc9c4\uc810", "addr": "\ucda9\uccad\ub0a8\ub3c4 \ub2f9\uc9c4\uc2dc \uc815\uc548\ub85c 20", "lat": "36.905631", "lng": "126.645898"}, {"statNm": "\uc0bc\ubd094\ub9ac\uc0ac\ubb34\uc18c", "addr": "\ucda9\uccad\ub0a8\ub3c4 \ub2f9\uc9c4\uc2dc \uc11d\ubb38\uba74 \ub300\ud638\ub9cc\ub85c 1736-7", "lat": "37.013251", "lng": "126.537678"}, {"statNm": "\ub17c\uc0b0\uc2dc\uccad \uc55e \uacf5\uc601\uc8fc\ucc28\uc7a5", "addr": "\ucda9\uccad\ub0a8\ub3c4 \ub17c\uc0b0\uc2dc \ub0b4\ub3d9 825", "lat": "36.1860835", "lng": "127.0993556"}, {"statNm": "\uad6d\ub9bd\uc0dd\ud0dc\uc6d0 \uc815\ubb38 \uc8fc\ucc28\uc7a5", "addr": "\ucda9\uccad\ub0a8\ub3c4 \uc11c\ucc9c\uad70 \ub9c8\uc11c\uba74 \uc1a1\ub0b4\ub9ac 758", "lat": "36.027168", "lng": "126.7215749"}, {"statNm": "\uc785\uc7a5\ud734\uac8c\uc18c(\uc11c\uc6b8\ubc29\ud5a5)", "addr": "\ucda9\uccad\ub0a8\ub3c4 \ucc9c\uc548\uc2dc \uc11c\ubd81\uad6c \uc785\uc7a5\uba74 \uc5f0\uace1\uae38 407", "lat": "36.9427836", "lng": "127.1943661"}, {"statNm": "\uc785\uc7a5\ud734\uac8c\uc18c(\uc11c\uc6b8\ubc29\ud5a5)", "addr": "\ucda9\uccad\ub0a8\ub3c4 \ucc9c\uc548\uc2dc \uc11c\ubd81\uad6c \uc785\uc7a5\uba74 \uc5f0\uace1\uae38 407", "lat": "36.9427836", "lng": "127.1943661"}, {"statNm": "\ucc9c\uc548\ud734\uac8c\uc18c(\uc11c\uc6b8\ubc29\ud5a5)", "addr": "\ucda9\uccad\ub0a8\ub3c4 \ucc9c\uc548\uc2dc \ub3d9\ub0a8\uad6c \uc27c1\uae38 42 (\uc0bc\ub8e1\ub3d9)173-1", "lat": "36.7882107", "lng": "127.1735101"}, {"statNm": "\ucc9c\uc548\ud734\uac8c\uc18c(\uc11c\uc6b8\ubc29\ud5a5)", "addr": "\ucda9\uccad\ub0a8\ub3c4 \ucc9c\uc548\uc2dc \ub3d9\ub0a8\uad6c \uc27c1\uae38 42 (\uc0bc\ub8e1\ub3d9)173-1", "lat": "36.7882107", "lng": "127.1735101"}, {"statNm": "\ucc9c\uc548\ud734\uac8c\uc18c(\uc11c\uc6b8\ubc29\ud5a5)", "addr": "\ucda9\uccad\ub0a8\ub3c4 \ucc9c\uc548\uc2dc \ub3d9\ub0a8\uad6c \uc27c1\uae38 42 (\uc0bc\ub8e1\ub3d9)173-1", "lat": "36.7882107", "lng": "127.1735101"}, {"statNm": "\ub300\ucc9c\ud734\uac8c\uc18c(\ubaa9\ud3ec\ubc29\ud5a5)", "addr": "\ucda9\uccad\ub0a8\ub3c4 \ubcf4\ub839\uc2dc \uc8fc\uad50\uba74 \uc11c\ud574\uc548\uace0\uc18d\ub3c4\ub85c 199 (\uc8fc\uad50\ub9ac)", "lat": "36.3729958", "lng": "126.5563709"}, {"statNm": "\ub300\ucc9c\ud734\uac8c\uc18c(\uc2dc\ud765\ubc29\ud5a5)", "addr": "\ucda9\uccad\ub0a8\ub3c4 \ubcf4\ub839\uc2dc \uc8fc\uad50\uba74 \uc11c\ud574\uc548\uace0\uc18d\ub3c4\ub85c 200 (\uc8fc\uad50\ub9ac)", "lat": "36.3737327", "lng": "126.557557"}, {"statNm": "\uc11c\uc0b0\ud734\uac8c\uc18c(\uc2dc\ud765\ubc29\ud5a5)", "addr": "\ucda9\uccad\ub0a8\ub3c4 \uc11c\uc0b0\uc2dc \ud574\ubbf8\uba74 \uc11c\ud574\uc548\uace0\uc18d\ub3c4\ub85c 242 (\uc0bc\uc1a1\ub9ac)", "lat": "36.7338867", "lng": "126.5670967"}, {"statNm": "\uc11c\uc0b0\ud734\uac8c\uc18c(\uc2dc\ud765\ubc29\ud5a5)", "addr": "\ucda9\uccad\ub0a8\ub3c4 \uc11c\uc0b0\uc2dc \ud574\ubbf8\uba74 \uc11c\ud574\uc548\uace0\uc18d\ub3c4\ub85c 242 (\uc0bc\uc1a1\ub9ac)", "lat": "36.7338867", "lng": "126.5670967"}, {"statNm": "\uc11c\ucc9c\ud734\uac8c\uc18c(\ubaa9\ud3ec\ubc29\ud5a5)", "addr": "\ucda9\uccad\ub0a8\ub3c4 \uc11c\ucc9c\uad70 \ube44\uc778\uba74 \uc11c\ud574\uc548\uace0\uc18d\ub3c4\ub85c 169 (\uc131\uc0b0\ub9ac)", "lat": "36.1292781", "lng": "126.6269803"}, {"statNm": "\uc11c\ucc9c\ud734\uac8c\uc18c(\ubaa9\ud3ec\ubc29\ud5a5)", "addr": "\ucda9\uccad\ub0a8\ub3c4 \uc11c\ucc9c\uad70 \ube44\uc778\uba74 \uc11c\ud574\uc548\uace0\uc18d\ub3c4\ub85c 169 (\uc131\uc0b0\ub9ac)", "lat": "36.1292781", "lng": "126.6269803"}, {"statNm": "\uc11c\ucc9c\ud734\uac8c\uc18c(\uc2dc\ud765\ubc29\ud5a5)", "addr": "\ucda9\uccad\ub0a8\ub3c4 \uc11c\ucc9c\uad70 \ube44\uc778\uba74 \uc11c\ud574\uc548\uace0\uc18d\ub3c4\ub85c 168 (\uc131\uc0b0\ub9ac)", "lat": "36.1320831", "lng": "126.6275272"}, {"statNm": "\uc11c\ucc9c\ud734\uac8c\uc18c(\uc2dc\ud765\ubc29\ud5a5)", "addr": "\ucda9\uccad\ub0a8\ub3c4 \uc11c\ucc9c\uad70 \ube44\uc778\uba74 \uc11c\ud574\uc548\uace0\uc18d\ub3c4\ub85c 168 (\uc131\uc0b0\ub9ac)", "lat": "36.1320831", "lng": "126.6275272"}, {"statNm": "\ud64d\uc131\ud734\uac8c\uc18c(\ubaa9\ud3ec\ubc29\ud5a5)", "addr": "\ucda9\uccad\ub0a8\ub3c4 \ud64d\uc131\uad70 \uc740\ud558\uba74 \uc11c\ud574\uc548\uace0\uc18d\ub3c4\ub85c 221 (\uae08\uad6d\ub9ac)", "lat": "36.5520256", "lng": "126.579626"}, {"statNm": "\ud64d\uc131\ud734\uac8c\uc18c(\uc2dc\ud765\ubc29\ud5a5)", "addr": "\ucda9\uccad\ub0a8\ub3c4 \ud64d\uc131\uad70 \uc740\ud558\uba74 \uc11c\ud574\uc548\uace0\uc18d\ub3c4\ub85c 220 (\uae08\uad6d\ub9ac)", "lat": "36.5538232", "lng": "126.5818528"}, {"statNm": "\ubc8c\uace1\ud734\uac8c\uc18c(\ub17c\uc0b0\ubc29\ud5a5)", "addr": "\ucda9\uccad\ub0a8\ub3c4 \ub17c\uc0b0\uc2dc \ubc8c\uace1\uba74 \ud638\ub0a8\uace0\uc18d\ub3c4\ub85c 2465-10 (\uc2e0\uc591\ub9ac)", "lat": "36.2175076", "lng": "127.2740754"}, {"statNm": "\uc778\uc0bc\ub79c\ub4dc\ud734\uac8c\uc18c(\ud1b5\uc601\ubc29\ud5a5)", "addr": "\ucda9\uccad\ub0a8\ub3c4 \uae08\uc0b0\uad70 \uad70\ubd81\uba74 \uc5b4\ud544\uac01\ub85c 300 (\uc678\ubd80\ub9ac)", "lat": "36.1536077", "lng": "127.4953731"}, {"statNm": "\uc778\uc0bc\ub79c\ub4dc\ud734\uac8c\uc18c(\ud558\ub0a8\ubc29\ud5a5)", "addr": "\ucda9\uccad\ub0a8\ub3c4 \uae08\uc0b0\uad70 \uad70\ubd81\uba74 \ub300\uc554\uae38 34-30 (\uc678\ubd80\ub9ac)", "lat": "36.1550665", "lng": "127.4964759"}, {"statNm": "\uacf5\uc8fc\ud734\uac8c\uc18c(\ub2f9\uc9c4\ubc29\ud5a5)", "addr": "\ucda9\uccad\ub0a8\ub3c4 \uacf5\uc8fc\uc2dc \uc758\ub2f9\uba74 \ub2f9\uc9c4\uc601\ub355\uace0\uc18d\ub3c4\ub85c 71 (\uccad\ub8e1\ub9ac)", "lat": "36.4985499", "lng": "127.1668661"}, {"statNm": "\uacf5\uc8fc\ud734\uac8c\uc18c(\ub300\uc804\ubc29\ud5a5)", "addr": "\ucda9\uccad\ub0a8\ub3c4 \uacf5\uc8fc\uc2dc \uc758\ub2f9\uba74 \ub2f9\uc9c4\uc601\ub355\uace0\uc18d\ub3c4\ub85c 72 (\uc1a1\uc120\ub3d9)", "lat": "36.4967019", "lng": "127.1662711"}, {"statNm": "\uc608\uc0b0\ud734\uac8c\uc18c(\ub2f9\uc9c4\ubc29\ud5a5)", "addr": "\ucda9\uccad\ub0a8\ub3c4 \uc608\uc0b0\uad70 \uc2e0\uc591\uba74 \ub2f9\uc9c4\uc601\ub355\uace0\uc18d\ub3c4\ub85c 33 (\uc11c\uacc4\uc591\ub9ac)", "lat": "36.6193815", "lng": "126.8465667"}, {"statNm": "\uc608\uc0b0\ud734\uac8c\uc18c(\ub300\uc804\ubc29\ud5a5)", "addr": "\ucda9\uccad\ub0a8\ub3c4 \uc608\uc0b0\uad70 \uc2e0\uc591\uba74 \ub2f9\uc9c4\uc601\ub355\uace0\uc18d\ub3c4\ub85c 34 (\uc11c\uacc4\uc591\ub9ac)", "lat": "36.6229771", "lng": "126.8402835"}, {"statNm": "\ubd80\uc5ec\ubc31\uc81c\ud734\uac8c\uc18c(\uacf5\uc8fc\ubc29\ud5a5)", "addr": "\ucda9\uccad\ub0a8\ub3c4 \ubd80\uc5ec\uad70 \ub0b4\uc0b0\uba74 \uc11c\ucc9c\uacf5\uc8fc\uace0\uc18d\ub3c4\ub85c 26 (\uc728\uc554\ub9ac)", "lat": "36.2589649", "lng": "126.8004163"}, {"statNm": "\ubd80\uc5ec\ubc31\uc81c\ud734\uac8c\uc18c(\uc11c\ucc9c\ubc29\ud5a5)", "addr": "\ucda9\uccad\ub0a8\ub3c4 \ubd80\uc5ec\uad70 \ub0b4\uc0b0\uba74 \uc11c\ucc9c\uacf5\uc8fc\uace0\uc18d\ub3c4\ub85c 25 (\uc728\uc554\ub9ac)", "lat": "36.2570854", "lng": "126.7961141"}, {"statNm": "\ub86f\ub370\ub9c8\ud2b8 \uc11c\uc0b0\uc810", "addr": "\ucda9\uccad\ub0a8\ub3c4 \uc11c\uc0b0\uc2dc \ucda9\uc758\ub85c 27 (\uc608\ucc9c\ub3d9)", "lat": "36.7727044", "lng": "126.4395537"}, {"statNm": "GS\uc7a5\ud56d\uc194\ubc14\ub78c\uc810", "addr": "\ucda9\uccad\ub0a8\ub3c4 \uc11c\ucc9c\uad70 \uc7a5\ud56d\uc74d \uc1a1\ub9bc\ub9ac 755-12", "lat": "36.024538", "lng": "126.66773"}, {"statNm": "\ud0dc\uc548\ud574\uc548\uad6d\ub9bd\uacf5\uc6d0 \uc0bc\ubd09\uc8fc\ucc28\uc7a5", "addr": "\ucda9\uccad\ub0a8\ub3c4 \ud0dc\uc548\uad70 \uc548\uba74\uc74d \ucc3d\uae30\ub9ac 1304-6", "lat": "36.570842", "lng": "126.315921"}, {"statNm": "\ud0dc\uc548\ud574\uc548\uad6d\ub9bd\uacf5\uc6d0 \uc0bc\ubd09\uc8fc\ucc28\uc7a5", "addr": "\ucda9\uccad\ub0a8\ub3c4 \ud0dc\uc548\uad70 \uc548\uba74\uc74d \ucc3d\uae30\ub9ac 1304-6", "lat": "36.570842", "lng": "126.315921"}, {"statNm": "\ud0dc\uc548\ud574\uc548\uad6d\ub9bd\uacf5\uc6d0 \ud559\uc554\ud3ec\uc57c\uc601\uc7a5", "addr": "\ucda9\uccad\ub0a8\ub3c4 \ud0dc\uc548\uad70 \uc6d0\ubd81\uba74 \ubc29\uac08\ub9ac 515-79", "lat": "36.896882", "lng": "126.206457"}, {"statNm": "\ud0dc\uc548\ud574\uc548\uad6d\ub9bd\uacf5\uc6d0 \ud559\uc554\ud3ec\uc57c\uc601\uc7a5", "addr": "\ucda9\uccad\ub0a8\ub3c4 \ud0dc\uc548\uad70 \uc6d0\ubd81\uba74 \ubc29\uac08\ub9ac 515-79", "lat": "36.896882", "lng": "126.206457"}, {"statNm": "\ub86f\ub370\ub9c8\ud2b8 \ucc9c\uc548\uc810", "addr": "\ucda9\uccad\ub0a8\ub3c4 \ucc9c\uc548\uc2dc \uc11c\ubd81\uad6c \uc6d4\ubd09\ub85c 95-0 (\uc30d\uc6a92\ub3d9)", "lat": "36.799709", "lng": "127.117648"}, {"statNm": "\ub86f\ub370\ub9c8\ud2b8 \ucc9c\uc548\uc810", "addr": "\ucda9\uccad\ub0a8\ub3c4 \ucc9c\uc548\uc2dc \uc11c\ubd81\uad6c \uc6d4\ubd09\ub85c 95-0 (\uc30d\uc6a92\ub3d9)", "lat": "36.799709", "lng": "127.117648"}, {"statNm": "\ub86f\ub370\ub9c8\ud2b8 \ud64d\uc131\uc810", "addr": "\ucda9\uccad\ub0a8\ub3c4 \ud64d\uc131\uad70 \ud64d\uc131\uc74d \uc870\uc591\ub85c247\ubc88\uae38 9 (\uace0\uc554\ub9ac)", "lat": "36.600955", "lng": "126.676311"}, {"statNm": "\uc785\uc7a5\ud734\uac8c\uc18c(\uc11c\uc6b8\ubc29\ud5a5)", "addr": "\ucda9\uccad\ub0a8\ub3c4 \ucc9c\uc548\uc2dc \uc11c\ubd81\uad6c \uc785\uc7a5\uba74 \uc5f0\uace1\uae38 407", "lat": "36.9428836", "lng": "127.1941661"}, {"statNm": "\ucc9c\uc548\ud734\uac8c\uc18c(\ubd80\uc0b0\ubc29\ud5a5)", "addr": "\ucda9\uccad\ub0a8\ub3c4 \ucc9c\uc548\uc2dc \ub3d9\ub0a8\uad6c \uc218\uc2e0\uba74 \uc131\ub0a8\ub85c 793-40", "lat": "36.7304441", "lng": "127.2629759"}, {"statNm": "\uc815\uc548\ud734\uac8c\uc18c(\ucc9c\uc548\ubc29\ud5a5)", "addr": "\ucda9\uccad\ub0a8\ub3c4 \uacf5\uc8fc\uc2dc \uc815\uc548\uba74 \uc7a5\uc6d0\uc7a5\uc790\uc6b8\uae38 73-47", "lat": "36.5685878", "lng": "127.1144045"}, {"statNm": "\uc774\uc778\ud734\uac8c\uc18c(\ucc9c\uc548\ubc29\ud5a5)", "addr": "\ucda9\uccad\ub0a8\ub3c4 \uacf5\uc8fc\uc2dc \uc774\uc778\uba74 \uc774\uc778\ub9ac", "lat": "36.3520509", "lng": "127.0692232"}, {"statNm": "\ud0c4\ucc9c\ud734\uac8c\uc18c(\ub17c\uc0b0\ubc29\ud5a5)", "addr": "\ucda9\uccad\ub0a8\ub3c4 \uacf5\uc8fc\uc2dc \ud0c4\ucc9c\uba74 \uc7a5\uc120\ub9ac 151-6", "lat": "36.3200333", "lng": "127.0705915"}, {"statNm": "\uc815\uc548\ud734\uac8c\uc18c(\uc21c\ucc9c\ubc29\ud5a5)", "addr": "\ucda9\uccad\ub0a8\ub3c4 \uacf5\uc8fc\uc2dc \uc815\uc548\uba74 \uc11d\uc1a1\ub9ac", "lat": "36.5717709", "lng": "127.1127178"}, {"statNm": "\uc544\ud2b8\uc13c\ud130 \uace0\ub9c8", "addr": "\ucda9\uccad\ub0a8\ub3c4 \uacf5\uc8fc\uc2dc \uc6c5\uc9c4\ub3d9 354-6", "lat": "36.466735", "lng": "127.109715"}, {"statNm": "\ub454\ud3ec\uba74\uc0ac\ubb34\uc18c", "addr": "\ucda9\uccad\ub0a8\ub3c4 \uc544\uc0b0\uc2dc \ub454\ud3ec\uba74 \ub454\ud3ec\ub9ac 461-11", "lat": "36.92976", "lng": "127.037976"}, {"statNm": "\uc9c0\uace1\uba74 \uacf5\uc601\uc8fc\ucc28\uc7a5", "addr": "\ucda9\uccad\ub0a8\ub3c4 \uc11c\uc0b0\uc2dc \uc9c0\uace1\uba74 \ud654\ucc9c\ub9ac 1301-17", "lat": "36.86375", "lng": "126.434241"}, {"statNm": "\ubc8c\uace1\ud734\uac8c\uc18c(\ub300\uc804\ubc29\ud5a5)", "addr": "\ucda9\uccad\ub0a8\ub3c4 \ub17c\uc0b0\uc2dc \ubc8c\uace1\uba74 \uc591\uc0b0\ub9ac", "lat": "36.210813", "lng": "127.2704991"}, {"statNm": "\uc5c4\uc0ac\uc0c1\uc810\uac00 \uacf5\uc601\uc8fc\ucc28\uc7a5", "addr": "\ucda9\uccad\ub0a8\ub3c4 \uacc4\ub8e1\uc2dc \uc5c4\uc0ac\uba74 \uc5c4\uc0ac\ub9ac 181-3", "lat": "36.289045", "lng": "127.242876"}, {"statNm": "\uba74\ucc9c\uba74\uc0ac\ubb34\uc18c", "addr": "\ucda9\uccad\ub0a8\ub3c4 \ub2f9\uc9c4\uc2dc \uba74\ucc9c\ub85c 623", "lat": "36.8162641", "lng": "126.66494"}, {"statNm": "\ud589\ub2f4\ub3c4\ud734\uac8c\uc18c(\uc11c\uc6b8\ubc29\ud5a5)", "addr": "\ucda9\uccad\ub0a8\ub3c4 \ub2f9\uc9c4\uc2dc \uc2e0\ud3c9\uba74 \uc11c\ud574\uc548\uace0\uc18d\ub3c4\ub85c 275,", "lat": "36.943895", "lng": "126.806949"}, {"statNm": "\ud589\ub2f4\ub3c4\ud734\uac8c\uc18c(\ubaa9\ud3ec\ubc29\ud5a5)", "addr": "\ucda9\uccad\ub0a8\ub3c4 \ub2f9\uc9c4\uc2dc \uc2e0\ud3c9\uba74 \uc11c\ud574\uc548\uace0\uc18d\ub3c4\ub85c 275,", "lat": "36.944564", "lng": "126.809261"}, {"statNm": "\uc778\uc0bc\ub79c\ub4dc\ud734\uac8c\uc18c(\ud558\ub0a8\ubc29\ud5a5)", "addr": "\ucda9\uccad\ub0a8\ub3c4 \uae08\uc0b0\uad70 \uad70\ubd81\uba74 \ub300\uc554\uae38 34-30", "lat": "36.1551665", "lng": "127.4962759"}, {"statNm": "\uc778\uc0bc\ub79c\ub4dc\ud734\uac8c\uc18c(\ud1b5\uc601\ubc29\ud5a5)", "addr": "\ucda9\uccad\ub0a8\ub3c4 \uae08\uc0b0\uad70 \uad70\ubd81\uba74 \uc5b4\ud544\uac01\ub85c 300", "lat": "36.1537077", "lng": "127.4951731"}, {"statNm": "\uae08\uc0b0\uad70\uccad", "addr": "\ucda9\uccad\ub0a8\ub3c4 \uae08\uc0b0\uad70 \uae08\uc0b0\uc74d \uad70\uccad\uae38 13", "lat": "36.108708", "lng": "127.486678"}, {"statNm": "\ubd80\uc5ec\ubc31\uc81c\ud734\uac8c\uc18c(\uacf5\uc8fc\ubc29\ud5a5)", "addr": "\ucda9\uccad\ub0a8\ub3c4 \ubd80\uc5ec\uad70 \ub0b4\uc0b0\uba74 \uc11c\ucc9c\uacf5\uc8fc\uace0\uc18d\ub3c4\ub85c 26", "lat": "36.2590649", "lng": "126.8002163"}, {"statNm": "\ubd80\uc5ec\ubc31\uc81c\ud734\uac8c\uc18c(\uc11c\ucc9c\ubc29\ud5a5)", "addr": "\ucda9\uccad\ub0a8\ub3c4 \ubd80\uc5ec\uad70 \ub0b4\uc0b0\uba74 \uc11c\ucc9c\uacf5\uc8fc\uace0\uc18d\ub3c4\ub85c 25", "lat": "36.2571854", "lng": "126.7959141"}, {"statNm": "\ub3d9\ubd80\uc5ec\uc11d\uc131\ud734\uac8c\uc18c", "addr": "\ucda9\uccad\ub0a8\ub3c4 \ubd80\uc5ec\uad70 \uc11d\uc131\uba74 \ub300\ubc31\uc81c\ub85c 3050", "lat": "36.252312", "lng": "126.980859"}, {"statNm": "\uc11c\uba74\uc0ac\ubb34\uc18c", "addr": "\ucda9\uccad\ub0a8\ub3c4 \uc11c\ucc9c\uad70 \uc11c\uba74 \uc11c\uc778\ub85c 761", "lat": "36.15276", "lng": "126.549804"}, {"statNm": "\uccad\uc591\uc74d\uc0ac\ubb34\uc18c \uc55e \uacf5\uc601\uc8fc\ucc28\uc7a5", "addr": "\ucda9\uccad\ub0a8\ub3c4 \uccad\uc591\uad70 \uccad\uc591\uc74d \uce60\uac11\uc0b0\ub85c6\uae38 28", "lat": "36.448522", "lng": "126.801788"}, {"statNm": "\uc815\uc0b0\uba74\uc0ac\ubb34\uc18c", "addr": "\ucda9\uccad\ub0a8\ub3c4 \uccad\uc591\uad70 \uc815\uc0b0\uba74 \uce60\uac11\uc0b0\ub85c 1857", "lat": "36.414679", "lng": "126.944913"}, {"statNm": "\ud64d\uc8fc\uc885\ud569\uacbd\uae30\uc7a5", "addr": "\ucda9\uccad\ub0a8\ub3c4 \ud64d\uc131\uad70 \ud64d\uc131\uc74d \uc18c\ud5a5\ub9ac 397-118", "lat": "36.606382", "lng": "126.64192"}, {"statNm": "\uad11\ucc9c\uc0dd\ud65c\uccb4\uc721\uacf5\uc6d0", "addr": "\ucda9\uccad\ub0a8\ub3c4 \ud64d\uc131\uad70 \uad11\ucc9c\uc74d \ud64d\ub0a8\ub85c 764-42", "lat": "36.508184", "lng": "126.635298"}, {"statNm": "\uc608\uc0b0\ubcf5\ud569\ubb38\ud654\ubcf5\uc9c0\uc13c\ud130", "addr": "\ucda9\uccad\ub0a8\ub3c4 \uc608\uc0b0\uad70 \uc608\uc0b0\uc74d \uc11d\uc591\ub9ac 213-2", "lat": "36.6999594", "lng": "126.8407188"}, {"statNm": "\ub0a8\uba74\uc0ac\ubb34\uc18c", "addr": "\ucda9\uccad\ub0a8\ub3c4 \ud0dc\uc548\uad70 \ub0a8\uba74 \ub2ec\uc0b0\ub9ac 1179", "lat": "36.671559", "lng": "126.298053"}, {"statNm": "\ud0dc\uc548\uc0c1\uc124\uc2dc\uc7a5 \uacf5\uc601\uc8fc\ucc28\uc7a5", "addr": "\ucda9\uccad\ub0a8\ub3c4 \ud0dc\uc548\uad70 \ud0dc\uc548\uc74d \ub3d9\ubc31\ub85c 251", "lat": "36.751056", "lng": "126.2987644"}, {"statNm": "\ub86f\ub370\ub9c8\ud2b8 \ub2f9\uc9c4\uc810", "addr": "\ucda9\uccad\ub0a8\ub3c4 \ub2f9\uc9c4\uc2dc \uc815\uc548\ub85c 20", "lat": "36.905631", "lng": "126.645898"}, {"statNm": "\uc0bc\ubd094\ub9ac\uc0ac\ubb34\uc18c", "addr": "\ucda9\uccad\ub0a8\ub3c4 \ub2f9\uc9c4\uc2dc \uc11d\ubb38\uba74 \ub300\ud638\ub9cc\ub85c 1736-7", "lat": "37.013251", "lng": "126.537678"}, {"statNm": "\ub17c\uc0b0\uc2dc\uccad \uc55e \uacf5\uc601\uc8fc\ucc28\uc7a5", "addr": "\ucda9\uccad\ub0a8\ub3c4 \ub17c\uc0b0\uc2dc \ub0b4\ub3d9 825", "lat": "36.1860835", "lng": "127.0993556"}, {"statNm": "\uad6d\ub9bd\uc0dd\ud0dc\uc6d0 \uc815\ubb38 \uc8fc\ucc28\uc7a5", "addr": "\ucda9\uccad\ub0a8\ub3c4 \uc11c\ucc9c\uad70 \ub9c8\uc11c\uba74 \uc1a1\ub0b4\ub9ac 758", "lat": "36.027168", "lng": "126.7215749"}, {"statNm": "\uc785\uc7a5\ud734\uac8c\uc18c(\uc11c\uc6b8\ubc29\ud5a5)", "addr": "\ucda9\uccad\ub0a8\ub3c4 \ucc9c\uc548\uc2dc \uc11c\ubd81\uad6c \uc785\uc7a5\uba74 \uc5f0\uace1\uae38 407", "lat": "36.9427836", "lng": "127.1943661"}, {"statNm": "\uc785\uc7a5\ud734\uac8c\uc18c(\uc11c\uc6b8\ubc29\ud5a5)", "addr": "\ucda9\uccad\ub0a8\ub3c4 \ucc9c\uc548\uc2dc \uc11c\ubd81\uad6c \uc785\uc7a5\uba74 \uc5f0\uace1\uae38 407", "lat": "36.9427836", "lng": "127.1943661"}, {"statNm": "\ucc9c\uc548\ud734\uac8c\uc18c(\uc11c\uc6b8\ubc29\ud5a5)", "addr": "\ucda9\uccad\ub0a8\ub3c4 \ucc9c\uc548\uc2dc \ub3d9\ub0a8\uad6c \uc27c1\uae38 42 (\uc0bc\ub8e1\ub3d9)173-1", "lat": "36.7882107", "lng": "127.1735101"}, {"statNm": "\ucc9c\uc548\ud734\uac8c\uc18c(\uc11c\uc6b8\ubc29\ud5a5)", "addr": "\ucda9\uccad\ub0a8\ub3c4 \ucc9c\uc548\uc2dc \ub3d9\ub0a8\uad6c \uc27c1\uae38 42 (\uc0bc\ub8e1\ub3d9)173-1", "lat": "36.7882107", "lng": "127.1735101"}, {"statNm": "\ucc9c\uc548\ud734\uac8c\uc18c(\uc11c\uc6b8\ubc29\ud5a5)", "addr": "\ucda9\uccad\ub0a8\ub3c4 \ucc9c\uc548\uc2dc \ub3d9\ub0a8\uad6c \uc27c1\uae38 42 (\uc0bc\ub8e1\ub3d9)173-1", "lat": "36.7882107", "lng": "127.1735101"}, {"statNm": "\ub300\ucc9c\ud734\uac8c\uc18c(\ubaa9\ud3ec\ubc29\ud5a5)", "addr": "\ucda9\uccad\ub0a8\ub3c4 \ubcf4\ub839\uc2dc \uc8fc\uad50\uba74 \uc11c\ud574\uc548\uace0\uc18d\ub3c4\ub85c 199 (\uc8fc\uad50\ub9ac)", "lat": "36.3729958", "lng": "126.5563709"}, {"statNm": "\ub300\ucc9c\ud734\uac8c\uc18c(\uc2dc\ud765\ubc29\ud5a5)", "addr": "\ucda9\uccad\ub0a8\ub3c4 \ubcf4\ub839\uc2dc \uc8fc\uad50\uba74 \uc11c\ud574\uc548\uace0\uc18d\ub3c4\ub85c 200 (\uc8fc\uad50\ub9ac)", "lat": "36.3737327", "lng": "126.557557"}, {"statNm": "\uc11c\uc0b0\ud734\uac8c\uc18c(\uc2dc\ud765\ubc29\ud5a5)", "addr": "\ucda9\uccad\ub0a8\ub3c4 \uc11c\uc0b0\uc2dc \ud574\ubbf8\uba74 \uc11c\ud574\uc548\uace0\uc18d\ub3c4\ub85c 242 (\uc0bc\uc1a1\ub9ac)", "lat": "36.7338867", "lng": "126.5670967"}, {"statNm": "\uc11c\uc0b0\ud734\uac8c\uc18c(\uc2dc\ud765\ubc29\ud5a5)", "addr": "\ucda9\uccad\ub0a8\ub3c4 \uc11c\uc0b0\uc2dc \ud574\ubbf8\uba74 \uc11c\ud574\uc548\uace0\uc18d\ub3c4\ub85c 242 (\uc0bc\uc1a1\ub9ac)", "lat": "36.7338867", "lng": "126.5670967"}, {"statNm": "\uc11c\ucc9c\ud734\uac8c\uc18c(\ubaa9\ud3ec\ubc29\ud5a5)", "addr": "\ucda9\uccad\ub0a8\ub3c4 \uc11c\ucc9c\uad70 \ube44\uc778\uba74 \uc11c\ud574\uc548\uace0\uc18d\ub3c4\ub85c 169 (\uc131\uc0b0\ub9ac)", "lat": "36.1292781", "lng": "126.6269803"}, {"statNm": "\uc11c\ucc9c\ud734\uac8c\uc18c(\ubaa9\ud3ec\ubc29\ud5a5)", "addr": "\ucda9\uccad\ub0a8\ub3c4 \uc11c\ucc9c\uad70 \ube44\uc778\uba74 \uc11c\ud574\uc548\uace0\uc18d\ub3c4\ub85c 169 (\uc131\uc0b0\ub9ac)", "lat": "36.1292781", "lng": "126.6269803"}, {"statNm": "\uc11c\ucc9c\ud734\uac8c\uc18c(\uc2dc\ud765\ubc29\ud5a5)", "addr": "\ucda9\uccad\ub0a8\ub3c4 \uc11c\ucc9c\uad70 \ube44\uc778\uba74 \uc11c\ud574\uc548\uace0\uc18d\ub3c4\ub85c 168 (\uc131\uc0b0\ub9ac)", "lat": "36.1320831", "lng": "126.6275272"}, {"statNm": "\uc11c\ucc9c\ud734\uac8c\uc18c(\uc2dc\ud765\ubc29\ud5a5)", "addr": "\ucda9\uccad\ub0a8\ub3c4 \uc11c\ucc9c\uad70 \ube44\uc778\uba74 \uc11c\ud574\uc548\uace0\uc18d\ub3c4\ub85c 168 (\uc131\uc0b0\ub9ac)", "lat": "36.1320831", "lng": "126.6275272"}, {"statNm": "\ud64d\uc131\ud734\uac8c\uc18c(\ubaa9\ud3ec\ubc29\ud5a5)", "addr": "\ucda9\uccad\ub0a8\ub3c4 \ud64d\uc131\uad70 \uc740\ud558\uba74 \uc11c\ud574\uc548\uace0\uc18d\ub3c4\ub85c 221 (\uae08\uad6d\ub9ac)", "lat": "36.5520256", "lng": "126.579626"}, {"statNm": "\ud64d\uc131\ud734\uac8c\uc18c(\uc2dc\ud765\ubc29\ud5a5)", "addr": "\ucda9\uccad\ub0a8\ub3c4 \ud64d\uc131\uad70 \uc740\ud558\uba74 \uc11c\ud574\uc548\uace0\uc18d\ub3c4\ub85c 220 (\uae08\uad6d\ub9ac)", "lat": "36.5538232", "lng": "126.5818528"}, {"statNm": "\ubc8c\uace1\ud734\uac8c\uc18c(\ub17c\uc0b0\ubc29\ud5a5)", "addr": "\ucda9\uccad\ub0a8\ub3c4 \ub17c\uc0b0\uc2dc \ubc8c\uace1\uba74 \ud638\ub0a8\uace0\uc18d\ub3c4\ub85c 2465-10 (\uc2e0\uc591\ub9ac)", "lat": "36.2175076", "lng": "127.2740754"}, {"statNm": "\uc778\uc0bc\ub79c\ub4dc\ud734\uac8c\uc18c(\ud1b5\uc601\ubc29\ud5a5)", "addr": "\ucda9\uccad\ub0a8\ub3c4 \uae08\uc0b0\uad70 \uad70\ubd81\uba74 \uc5b4\ud544\uac01\ub85c 300 (\uc678\ubd80\ub9ac)", "lat": "36.1536077", "lng": "127.4953731"}, {"statNm": "\uc778\uc0bc\ub79c\ub4dc\ud734\uac8c\uc18c(\ud558\ub0a8\ubc29\ud5a5)", "addr": "\ucda9\uccad\ub0a8\ub3c4 \uae08\uc0b0\uad70 \uad70\ubd81\uba74 \ub300\uc554\uae38 34-30 (\uc678\ubd80\ub9ac)", "lat": "36.1550665", "lng": "127.4964759"}, {"statNm": "\uacf5\uc8fc\ud734\uac8c\uc18c(\ub2f9\uc9c4\ubc29\ud5a5)", "addr": "\ucda9\uccad\ub0a8\ub3c4 \uacf5\uc8fc\uc2dc \uc758\ub2f9\uba74 \ub2f9\uc9c4\uc601\ub355\uace0\uc18d\ub3c4\ub85c 71 (\uccad\ub8e1\ub9ac)", "lat": "36.4985499", "lng": "127.1668661"}, {"statNm": "\uacf5\uc8fc\ud734\uac8c\uc18c(\ub300\uc804\ubc29\ud5a5)", "addr": "\ucda9\uccad\ub0a8\ub3c4 \uacf5\uc8fc\uc2dc \uc758\ub2f9\uba74 \ub2f9\uc9c4\uc601\ub355\uace0\uc18d\ub3c4\ub85c 72 (\uc1a1\uc120\ub3d9)", "lat": "36.4967019", "lng": "127.1662711"}, {"statNm": "\uc608\uc0b0\ud734\uac8c\uc18c(\ub2f9\uc9c4\ubc29\ud5a5)", "addr": "\ucda9\uccad\ub0a8\ub3c4 \uc608\uc0b0\uad70 \uc2e0\uc591\uba74 \ub2f9\uc9c4\uc601\ub355\uace0\uc18d\ub3c4\ub85c 33 (\uc11c\uacc4\uc591\ub9ac)", "lat": "36.6193815", "lng": "126.8465667"}, {"statNm": "\uc608\uc0b0\ud734\uac8c\uc18c(\ub300\uc804\ubc29\ud5a5)", "addr": "\ucda9\uccad\ub0a8\ub3c4 \uc608\uc0b0\uad70 \uc2e0\uc591\uba74 \ub2f9\uc9c4\uc601\ub355\uace0\uc18d\ub3c4\ub85c 34 (\uc11c\uacc4\uc591\ub9ac)", "lat": "36.6229771", "lng": "126.8402835"}, {"statNm": "\ubd80\uc5ec\ubc31\uc81c\ud734\uac8c\uc18c(\uacf5\uc8fc\ubc29\ud5a5)", "addr": "\ucda9\uccad\ub0a8\ub3c4 \ubd80\uc5ec\uad70 \ub0b4\uc0b0\uba74 \uc11c\ucc9c\uacf5\uc8fc\uace0\uc18d\ub3c4\ub85c 26 (\uc728\uc554\ub9ac)", "lat": "36.2589649", "lng": "126.8004163"}, {"statNm": "\ubd80\uc5ec\ubc31\uc81c\ud734\uac8c\uc18c(\uc11c\ucc9c\ubc29\ud5a5)", "addr": "\ucda9\uccad\ub0a8\ub3c4 \ubd80\uc5ec\uad70 \ub0b4\uc0b0\uba74 \uc11c\ucc9c\uacf5\uc8fc\uace0\uc18d\ub3c4\ub85c 25 (\uc728\uc554\ub9ac)", "lat": "36.2570854", "lng": "126.7961141"}, {"statNm": "\ub86f\ub370\ub9c8\ud2b8 \uc11c\uc0b0\uc810", "addr": "\ucda9\uccad\ub0a8\ub3c4 \uc11c\uc0b0\uc2dc \ucda9\uc758\ub85c 27 (\uc608\ucc9c\ub3d9)", "lat": "36.7727044", "lng": "126.4395537"}, {"statNm": "GS\uc7a5\ud56d\uc194\ubc14\ub78c\uc810", "addr": "\ucda9\uccad\ub0a8\ub3c4 \uc11c\ucc9c\uad70 \uc7a5\ud56d\uc74d \uc1a1\ub9bc\ub9ac 755-12", "lat": "36.024538", "lng": "126.66773"}, {"statNm": "\ud0dc\uc548\ud574\uc548\uad6d\ub9bd\uacf5\uc6d0 \uc0bc\ubd09\uc8fc\ucc28\uc7a5", "addr": "\ucda9\uccad\ub0a8\ub3c4 \ud0dc\uc548\uad70 \uc548\uba74\uc74d \ucc3d\uae30\ub9ac 1304-6", "lat": "36.570842", "lng": "126.315921"}, {"statNm": "\ud0dc\uc548\ud574\uc548\uad6d\ub9bd\uacf5\uc6d0 \uc0bc\ubd09\uc8fc\ucc28\uc7a5", "addr": "\ucda9\uccad\ub0a8\ub3c4 \ud0dc\uc548\uad70 \uc548\uba74\uc74d \ucc3d\uae30\ub9ac 1304-6", "lat": "36.570842", "lng": "126.315921"}, {"statNm": "\ud0dc\uc548\ud574\uc548\uad6d\ub9bd\uacf5\uc6d0 \ud559\uc554\ud3ec\uc57c\uc601\uc7a5", "addr": "\ucda9\uccad\ub0a8\ub3c4 \ud0dc\uc548\uad70 \uc6d0\ubd81\uba74 \ubc29\uac08\ub9ac 515-79", "lat": "36.896882", "lng": "126.206457"}, {"statNm": "\ud0dc\uc548\ud574\uc548\uad6d\ub9bd\uacf5\uc6d0 \ud559\uc554\ud3ec\uc57c\uc601\uc7a5", "addr": "\ucda9\uccad\ub0a8\ub3c4 \ud0dc\uc548\uad70 \uc6d0\ubd81\uba74 \ubc29\uac08\ub9ac 515-79", "lat": "36.896882", "lng": "126.206457"}, {"statNm": "\ub86f\ub370\ub9c8\ud2b8 \ucc9c\uc548\uc810", "addr": "\ucda9\uccad\ub0a8\ub3c4 \ucc9c\uc548\uc2dc \uc11c\ubd81\uad6c \uc6d4\ubd09\ub85c 95-0 (\uc30d\uc6a92\ub3d9)", "lat": "36.799709", "lng": "127.117648"}, {"statNm": "\ub86f\ub370\ub9c8\ud2b8 \ucc9c\uc548\uc810", "addr": "\ucda9\uccad\ub0a8\ub3c4 \ucc9c\uc548\uc2dc \uc11c\ubd81\uad6c \uc6d4\ubd09\ub85c 95-0 (\uc30d\uc6a92\ub3d9)", "lat": "36.799709", "lng": "127.117648"}, {"statNm": "\ub86f\ub370\ub9c8\ud2b8 \ud64d\uc131\uc810", "addr": "\ucda9\uccad\ub0a8\ub3c4 \ud64d\uc131\uad70 \ud64d\uc131\uc74d \uc870\uc591\ub85c247\ubc88\uae38 9 (\uace0\uc554\ub9ac)", "lat": "36.600955", "lng": "126.676311"}, {"statNm": "\uc785\uc7a5\ud734\uac8c\uc18c(\uc11c\uc6b8\ubc29\ud5a5)", "addr": "\ucda9\uccad\ub0a8\ub3c4 \ucc9c\uc548\uc2dc \uc11c\ubd81\uad6c \uc785\uc7a5\uba74 \uc5f0\uace1\uae38 407", "lat": "36.9428836", "lng": "127.1941661"}, {"statNm": "\ucc9c\uc548\ud734\uac8c\uc18c(\ubd80\uc0b0\ubc29\ud5a5)", "addr": "\ucda9\uccad\ub0a8\ub3c4 \ucc9c\uc548\uc2dc \ub3d9\ub0a8\uad6c \uc218\uc2e0\uba74 \uc131\ub0a8\ub85c 793-40", "lat": "36.7304441", "lng": "127.2629759"}, {"statNm": "\uc815\uc548\ud734\uac8c\uc18c(\ucc9c\uc548\ubc29\ud5a5)", "addr": "\ucda9\uccad\ub0a8\ub3c4 \uacf5\uc8fc\uc2dc \uc815\uc548\uba74 \uc7a5\uc6d0\uc7a5\uc790\uc6b8\uae38 73-47", "lat": "36.5685878", "lng": "127.1144045"}, {"statNm": "\uc774\uc778\ud734\uac8c\uc18c(\ucc9c\uc548\ubc29\ud5a5)", "addr": "\ucda9\uccad\ub0a8\ub3c4 \uacf5\uc8fc\uc2dc \uc774\uc778\uba74 \uc774\uc778\ub9ac", "lat": "36.3520509", "lng": "127.0692232"}, {"statNm": "\ud0c4\ucc9c\ud734\uac8c\uc18c(\ub17c\uc0b0\ubc29\ud5a5)", "addr": "\ucda9\uccad\ub0a8\ub3c4 \uacf5\uc8fc\uc2dc \ud0c4\ucc9c\uba74 \uc7a5\uc120\ub9ac 151-6", "lat": "36.3200333", "lng": "127.0705915"}, {"statNm": "\uc815\uc548\ud734\uac8c\uc18c(\uc21c\ucc9c\ubc29\ud5a5)", "addr": "\ucda9\uccad\ub0a8\ub3c4 \uacf5\uc8fc\uc2dc \uc815\uc548\uba74 \uc11d\uc1a1\ub9ac", "lat": "36.5717709", "lng": "127.1127178"}, {"statNm": "\uc544\ud2b8\uc13c\ud130 \uace0\ub9c8", "addr": "\ucda9\uccad\ub0a8\ub3c4 \uacf5\uc8fc\uc2dc \uc6c5\uc9c4\ub3d9 354-6", "lat": "36.466735", "lng": "127.109715"}, {"statNm": "\ub454\ud3ec\uba74\uc0ac\ubb34\uc18c", "addr": "\ucda9\uccad\ub0a8\ub3c4 \uc544\uc0b0\uc2dc \ub454\ud3ec\uba74 \ub454\ud3ec\ub9ac 461-11", "lat": "36.92976", "lng": "127.037976"}, {"statNm": "\uc9c0\uace1\uba74 \uacf5\uc601\uc8fc\ucc28\uc7a5", "addr": "\ucda9\uccad\ub0a8\ub3c4 \uc11c\uc0b0\uc2dc \uc9c0\uace1\uba74 \ud654\ucc9c\ub9ac 1301-17", "lat": "36.86375", "lng": "126.434241"}, {"statNm": "\ubc8c\uace1\ud734\uac8c\uc18c(\ub300\uc804\ubc29\ud5a5)", "addr": "\ucda9\uccad\ub0a8\ub3c4 \ub17c\uc0b0\uc2dc \ubc8c\uace1\uba74 \uc591\uc0b0\ub9ac", "lat": "36.210813", "lng": "127.2704991"}, {"statNm": "\uc5c4\uc0ac\uc0c1\uc810\uac00 \uacf5\uc601\uc8fc\ucc28\uc7a5", "addr": "\ucda9\uccad\ub0a8\ub3c4 \uacc4\ub8e1\uc2dc \uc5c4\uc0ac\uba74 \uc5c4\uc0ac\ub9ac 181-3", "lat": "36.289045", "lng": "127.242876"}, {"statNm": "\uba74\ucc9c\uba74\uc0ac\ubb34\uc18c", "addr": "\ucda9\uccad\ub0a8\ub3c4 \ub2f9\uc9c4\uc2dc \uba74\ucc9c\ub85c 623", "lat": "36.8162641", "lng": "126.66494"}, {"statNm": "\ud589\ub2f4\ub3c4\ud734\uac8c\uc18c(\uc11c\uc6b8\ubc29\ud5a5)", "addr": "\ucda9\uccad\ub0a8\ub3c4 \ub2f9\uc9c4\uc2dc \uc2e0\ud3c9\uba74 \uc11c\ud574\uc548\uace0\uc18d\ub3c4\ub85c 275,", "lat": "36.943895", "lng": "126.806949"}, {"statNm": "\ud589\ub2f4\ub3c4\ud734\uac8c\uc18c(\ubaa9\ud3ec\ubc29\ud5a5)", "addr": "\ucda9\uccad\ub0a8\ub3c4 \ub2f9\uc9c4\uc2dc \uc2e0\ud3c9\uba74 \uc11c\ud574\uc548\uace0\uc18d\ub3c4\ub85c 275,", "lat": "36.944564", "lng": "126.809261"}, {"statNm": "\uc778\uc0bc\ub79c\ub4dc\ud734\uac8c\uc18c(\ud558\ub0a8\ubc29\ud5a5)", "addr": "\ucda9\uccad\ub0a8\ub3c4 \uae08\uc0b0\uad70 \uad70\ubd81\uba74 \ub300\uc554\uae38 34-30", "lat": "36.1551665", "lng": "127.4962759"}, {"statNm": "\uc778\uc0bc\ub79c\ub4dc\ud734\uac8c\uc18c(\ud1b5\uc601\ubc29\ud5a5)", "addr": "\ucda9\uccad\ub0a8\ub3c4 \uae08\uc0b0\uad70 \uad70\ubd81\uba74 \uc5b4\ud544\uac01\ub85c 300", "lat": "36.1537077", "lng": "127.4951731"}, {"statNm": "\uae08\uc0b0\uad70\uccad", "addr": "\ucda9\uccad\ub0a8\ub3c4 \uae08\uc0b0\uad70 \uae08\uc0b0\uc74d \uad70\uccad\uae38 13", "lat": "36.108708", "lng": "127.486678"}, {"statNm": "\ubd80\uc5ec\ubc31\uc81c\ud734\uac8c\uc18c(\uacf5\uc8fc\ubc29\ud5a5)", "addr": "\ucda9\uccad\ub0a8\ub3c4 \ubd80\uc5ec\uad70 \ub0b4\uc0b0\uba74 \uc11c\ucc9c\uacf5\uc8fc\uace0\uc18d\ub3c4\ub85c 26", "lat": "36.2590649", "lng": "126.8002163"}, {"statNm": "\ubd80\uc5ec\ubc31\uc81c\ud734\uac8c\uc18c(\uc11c\ucc9c\ubc29\ud5a5)", "addr": "\ucda9\uccad\ub0a8\ub3c4 \ubd80\uc5ec\uad70 \ub0b4\uc0b0\uba74 \uc11c\ucc9c\uacf5\uc8fc\uace0\uc18d\ub3c4\ub85c 25", "lat": "36.2571854", "lng": "126.7959141"}, {"statNm": "\ub3d9\ubd80\uc5ec\uc11d\uc131\ud734\uac8c\uc18c", "addr": "\ucda9\uccad\ub0a8\ub3c4 \ubd80\uc5ec\uad70 \uc11d\uc131\uba74 \ub300\ubc31\uc81c\ub85c 3050", "lat": "36.252312", "lng": "126.980859"}, {"statNm": "\uc11c\uba74\uc0ac\ubb34\uc18c", "addr": "\ucda9\uccad\ub0a8\ub3c4 \uc11c\ucc9c\uad70 \uc11c\uba74 \uc11c\uc778\ub85c 761", "lat": "36.15276", "lng": "126.549804"}, {"statNm": "\uccad\uc591\uc74d\uc0ac\ubb34\uc18c \uc55e \uacf5\uc601\uc8fc\ucc28\uc7a5", "addr": "\ucda9\uccad\ub0a8\ub3c4 \uccad\uc591\uad70 \uccad\uc591\uc74d \uce60\uac11\uc0b0\ub85c6\uae38 28", "lat": "36.448522", "lng": "126.801788"}, {"statNm": "\uc815\uc0b0\uba74\uc0ac\ubb34\uc18c", "addr": "\ucda9\uccad\ub0a8\ub3c4 \uccad\uc591\uad70 \uc815\uc0b0\uba74 \uce60\uac11\uc0b0\ub85c 1857", "lat": "36.414679", "lng": "126.944913"}, {"statNm": "\ud64d\uc8fc\uc885\ud569\uacbd\uae30\uc7a5", "addr": "\ucda9\uccad\ub0a8\ub3c4 \ud64d\uc131\uad70 \ud64d\uc131\uc74d \uc18c\ud5a5\ub9ac 397-118", "lat": "36.606382", "lng": "126.64192"}, {"statNm": "\uad11\ucc9c\uc0dd\ud65c\uccb4\uc721\uacf5\uc6d0", "addr": "\ucda9\uccad\ub0a8\ub3c4 \ud64d\uc131\uad70 \uad11\ucc9c\uc74d \ud64d\ub0a8\ub85c 764-42", "lat": "36.508184", "lng": "126.635298"}, {"statNm": "\uc608\uc0b0\ubcf5\ud569\ubb38\ud654\ubcf5\uc9c0\uc13c\ud130", "addr": "\ucda9\uccad\ub0a8\ub3c4 \uc608\uc0b0\uad70 \uc608\uc0b0\uc74d \uc11d\uc591\ub9ac 213-2", "lat": "36.6999594", "lng": "126.8407188"}, {"statNm": "\ub0a8\uba74\uc0ac\ubb34\uc18c", "addr": "\ucda9\uccad\ub0a8\ub3c4 \ud0dc\uc548\uad70 \ub0a8\uba74 \ub2ec\uc0b0\ub9ac 1179", "lat": "36.671559", "lng": "126.298053"}, {"statNm": "\ud0dc\uc548\uc0c1\uc124\uc2dc\uc7a5 \uacf5\uc601\uc8fc\ucc28\uc7a5", "addr": "\ucda9\uccad\ub0a8\ub3c4 \ud0dc\uc548\uad70 \ud0dc\uc548\uc74d \ub3d9\ubc31\ub85c 251", "lat": "36.751056", "lng": "126.2987644"}, {"statNm": "\ub86f\ub370\ub9c8\ud2b8 \ub2f9\uc9c4\uc810", "addr": "\ucda9\uccad\ub0a8\ub3c4 \ub2f9\uc9c4\uc2dc \uc815\uc548\ub85c 20", "lat": "36.905631", "lng": "126.645898"}, {"statNm": "\uc0bc\ubd094\ub9ac\uc0ac\ubb34\uc18c", "addr": "\ucda9\uccad\ub0a8\ub3c4 \ub2f9\uc9c4\uc2dc \uc11d\ubb38\uba74 \ub300\ud638\ub9cc\ub85c 1736-7", "lat": "37.013251", "lng": "126.537678"}, {"statNm": "\ub17c\uc0b0\uc2dc\uccad \uc55e \uacf5\uc601\uc8fc\ucc28\uc7a5", "addr": "\ucda9\uccad\ub0a8\ub3c4 \ub17c\uc0b0\uc2dc \ub0b4\ub3d9 825", "lat": "36.1860835", "lng": "127.0993556"}, {"statNm": "\uad6d\ub9bd\uc0dd\ud0dc\uc6d0 \uc815\ubb38 \uc8fc\ucc28\uc7a5", "addr": "\ucda9\uccad\ub0a8\ub3c4 \uc11c\ucc9c\uad70 \ub9c8\uc11c\uba74 \uc1a1\ub0b4\ub9ac 758", "lat": "36.027168", "lng": "126.7215749"}, {"statNm": "\uc785\uc7a5\ud734\uac8c\uc18c(\uc11c\uc6b8\ubc29\ud5a5)", "addr": "\ucda9\uccad\ub0a8\ub3c4 \ucc9c\uc548\uc2dc \uc11c\ubd81\uad6c \uc785\uc7a5\uba74 \uc5f0\uace1\uae38 407", "lat": "36.9427836", "lng": "127.1943661"}, {"statNm": "\uc785\uc7a5\ud734\uac8c\uc18c(\uc11c\uc6b8\ubc29\ud5a5)", "addr": "\ucda9\uccad\ub0a8\ub3c4 \ucc9c\uc548\uc2dc \uc11c\ubd81\uad6c \uc785\uc7a5\uba74 \uc5f0\uace1\uae38 407", "lat": "36.9427836", "lng": "127.1943661"}, {"statNm": "\ucc9c\uc548\ud734\uac8c\uc18c(\uc11c\uc6b8\ubc29\ud5a5)", "addr": "\ucda9\uccad\ub0a8\ub3c4 \ucc9c\uc548\uc2dc \ub3d9\ub0a8\uad6c \uc27c1\uae38 42 (\uc0bc\ub8e1\ub3d9)173-1", "lat": "36.7882107", "lng": "127.1735101"}, {"statNm": "\ucc9c\uc548\ud734\uac8c\uc18c(\uc11c\uc6b8\ubc29\ud5a5)", "addr": "\ucda9\uccad\ub0a8\ub3c4 \ucc9c\uc548\uc2dc \ub3d9\ub0a8\uad6c \uc27c1\uae38 42 (\uc0bc\ub8e1\ub3d9)173-1", "lat": "36.7882107", "lng": "127.1735101"}, {"statNm": "\ucc9c\uc548\ud734\uac8c\uc18c(\uc11c\uc6b8\ubc29\ud5a5)", "addr": "\ucda9\uccad\ub0a8\ub3c4 \ucc9c\uc548\uc2dc \ub3d9\ub0a8\uad6c \uc27c1\uae38 42 (\uc0bc\ub8e1\ub3d9)173-1", "lat": "36.7882107", "lng": "127.1735101"}, {"statNm": "\ub300\ucc9c\ud734\uac8c\uc18c(\ubaa9\ud3ec\ubc29\ud5a5)", "addr": "\ucda9\uccad\ub0a8\ub3c4 \ubcf4\ub839\uc2dc \uc8fc\uad50\uba74 \uc11c\ud574\uc548\uace0\uc18d\ub3c4\ub85c 199 (\uc8fc\uad50\ub9ac)", "lat": "36.3729958", "lng": "126.5563709"}, {"statNm": "\ub300\ucc9c\ud734\uac8c\uc18c(\uc2dc\ud765\ubc29\ud5a5)", "addr": "\ucda9\uccad\ub0a8\ub3c4 \ubcf4\ub839\uc2dc \uc8fc\uad50\uba74 \uc11c\ud574\uc548\uace0\uc18d\ub3c4\ub85c 200 (\uc8fc\uad50\ub9ac)", "lat": "36.3737327", "lng": "126.557557"}, {"statNm": "\uc11c\uc0b0\ud734\uac8c\uc18c(\uc2dc\ud765\ubc29\ud5a5)", "addr": "\ucda9\uccad\ub0a8\ub3c4 \uc11c\uc0b0\uc2dc \ud574\ubbf8\uba74 \uc11c\ud574\uc548\uace0\uc18d\ub3c4\ub85c 242 (\uc0bc\uc1a1\ub9ac)", "lat": "36.7338867", "lng": "126.5670967"}, {"statNm": "\uc11c\uc0b0\ud734\uac8c\uc18c(\uc2dc\ud765\ubc29\ud5a5)", "addr": "\ucda9\uccad\ub0a8\ub3c4 \uc11c\uc0b0\uc2dc \ud574\ubbf8\uba74 \uc11c\ud574\uc548\uace0\uc18d\ub3c4\ub85c 242 (\uc0bc\uc1a1\ub9ac)", "lat": "36.7338867", "lng": "126.5670967"}, {"statNm": "\uc11c\ucc9c\ud734\uac8c\uc18c(\ubaa9\ud3ec\ubc29\ud5a5)", "addr": "\ucda9\uccad\ub0a8\ub3c4 \uc11c\ucc9c\uad70 \ube44\uc778\uba74 \uc11c\ud574\uc548\uace0\uc18d\ub3c4\ub85c 169 (\uc131\uc0b0\ub9ac)", "lat": "36.1292781", "lng": "126.6269803"}, {"statNm": "\uc11c\ucc9c\ud734\uac8c\uc18c(\ubaa9\ud3ec\ubc29\ud5a5)", "addr": "\ucda9\uccad\ub0a8\ub3c4 \uc11c\ucc9c\uad70 \ube44\uc778\uba74 \uc11c\ud574\uc548\uace0\uc18d\ub3c4\ub85c 169 (\uc131\uc0b0\ub9ac)", "lat": "36.1292781", "lng": "126.6269803"}, {"statNm": "\uc11c\ucc9c\ud734\uac8c\uc18c(\uc2dc\ud765\ubc29\ud5a5)", "addr": "\ucda9\uccad\ub0a8\ub3c4 \uc11c\ucc9c\uad70 \ube44\uc778\uba74 \uc11c\ud574\uc548\uace0\uc18d\ub3c4\ub85c 168 (\uc131\uc0b0\ub9ac)", "lat": "36.1320831", "lng": "126.6275272"}, {"statNm": "\uc11c\ucc9c\ud734\uac8c\uc18c(\uc2dc\ud765\ubc29\ud5a5)", "addr": "\ucda9\uccad\ub0a8\ub3c4 \uc11c\ucc9c\uad70 \ube44\uc778\uba74 \uc11c\ud574\uc548\uace0\uc18d\ub3c4\ub85c 168 (\uc131\uc0b0\ub9ac)", "lat": "36.1320831", "lng": "126.6275272"}, {"statNm": "\ud64d\uc131\ud734\uac8c\uc18c(\ubaa9\ud3ec\ubc29\ud5a5)", "addr": "\ucda9\uccad\ub0a8\ub3c4 \ud64d\uc131\uad70 \uc740\ud558\uba74 \uc11c\ud574\uc548\uace0\uc18d\ub3c4\ub85c 221 (\uae08\uad6d\ub9ac)", "lat": "36.5520256", "lng": "126.579626"}, {"statNm": "\ud64d\uc131\ud734\uac8c\uc18c(\uc2dc\ud765\ubc29\ud5a5)", "addr": "\ucda9\uccad\ub0a8\ub3c4 \ud64d\uc131\uad70 \uc740\ud558\uba74 \uc11c\ud574\uc548\uace0\uc18d\ub3c4\ub85c 220 (\uae08\uad6d\ub9ac)", "lat": "36.5538232", "lng": "126.5818528"}, {"statNm": "\ubc8c\uace1\ud734\uac8c\uc18c(\ub17c\uc0b0\ubc29\ud5a5)", "addr": "\ucda9\uccad\ub0a8\ub3c4 \ub17c\uc0b0\uc2dc \ubc8c\uace1\uba74 \ud638\ub0a8\uace0\uc18d\ub3c4\ub85c 2465-10 (\uc2e0\uc591\ub9ac)", "lat": "36.2175076", "lng": "127.2740754"}, {"statNm": "\uc778\uc0bc\ub79c\ub4dc\ud734\uac8c\uc18c(\ud1b5\uc601\ubc29\ud5a5)", "addr": "\ucda9\uccad\ub0a8\ub3c4 \uae08\uc0b0\uad70 \uad70\ubd81\uba74 \uc5b4\ud544\uac01\ub85c 300 (\uc678\ubd80\ub9ac)", "lat": "36.1536077", "lng": "127.4953731"}, {"statNm": "\uc778\uc0bc\ub79c\ub4dc\ud734\uac8c\uc18c(\ud558\ub0a8\ubc29\ud5a5)", "addr": "\ucda9\uccad\ub0a8\ub3c4 \uae08\uc0b0\uad70 \uad70\ubd81\uba74 \ub300\uc554\uae38 34-30 (\uc678\ubd80\ub9ac)", "lat": "36.1550665", "lng": "127.4964759"}, {"statNm": "\uacf5\uc8fc\ud734\uac8c\uc18c(\ub2f9\uc9c4\ubc29\ud5a5)", "addr": "\ucda9\uccad\ub0a8\ub3c4 \uacf5\uc8fc\uc2dc \uc758\ub2f9\uba74 \ub2f9\uc9c4\uc601\ub355\uace0\uc18d\ub3c4\ub85c 71 (\uccad\ub8e1\ub9ac)", "lat": "36.4985499", "lng": "127.1668661"}, {"statNm": "\uacf5\uc8fc\ud734\uac8c\uc18c(\ub300\uc804\ubc29\ud5a5)", "addr": "\ucda9\uccad\ub0a8\ub3c4 \uacf5\uc8fc\uc2dc \uc758\ub2f9\uba74 \ub2f9\uc9c4\uc601\ub355\uace0\uc18d\ub3c4\ub85c 72 (\uc1a1\uc120\ub3d9)", "lat": "36.4967019", "lng": "127.1662711"}, {"statNm": "\uc608\uc0b0\ud734\uac8c\uc18c(\ub2f9\uc9c4\ubc29\ud5a5)", "addr": "\ucda9\uccad\ub0a8\ub3c4 \uc608\uc0b0\uad70 \uc2e0\uc591\uba74 \ub2f9\uc9c4\uc601\ub355\uace0\uc18d\ub3c4\ub85c 33 (\uc11c\uacc4\uc591\ub9ac)", "lat": "36.6193815", "lng": "126.8465667"}, {"statNm": "\uc608\uc0b0\ud734\uac8c\uc18c(\ub300\uc804\ubc29\ud5a5)", "addr": "\ucda9\uccad\ub0a8\ub3c4 \uc608\uc0b0\uad70 \uc2e0\uc591\uba74 \ub2f9\uc9c4\uc601\ub355\uace0\uc18d\ub3c4\ub85c 34 (\uc11c\uacc4\uc591\ub9ac)", "lat": "36.6229771", "lng": "126.8402835"}, {"statNm": "\ubd80\uc5ec\ubc31\uc81c\ud734\uac8c\uc18c(\uacf5\uc8fc\ubc29\ud5a5)", "addr": "\ucda9\uccad\ub0a8\ub3c4 \ubd80\uc5ec\uad70 \ub0b4\uc0b0\uba74 \uc11c\ucc9c\uacf5\uc8fc\uace0\uc18d\ub3c4\ub85c 26 (\uc728\uc554\ub9ac)", "lat": "36.2589649", "lng": "126.8004163"}, {"statNm": "\ubd80\uc5ec\ubc31\uc81c\ud734\uac8c\uc18c(\uc11c\ucc9c\ubc29\ud5a5)", "addr": "\ucda9\uccad\ub0a8\ub3c4 \ubd80\uc5ec\uad70 \ub0b4\uc0b0\uba74 \uc11c\ucc9c\uacf5\uc8fc\uace0\uc18d\ub3c4\ub85c 25 (\uc728\uc554\ub9ac)", "lat": "36.2570854", "lng": "126.7961141"}, {"statNm": "\ub86f\ub370\ub9c8\ud2b8 \uc11c\uc0b0\uc810", "addr": "\ucda9\uccad\ub0a8\ub3c4 \uc11c\uc0b0\uc2dc \ucda9\uc758\ub85c 27 (\uc608\ucc9c\ub3d9)", "lat": "36.7727044", "lng": "126.4395537"}, {"statNm": "GS\uc7a5\ud56d\uc194\ubc14\ub78c\uc810", "addr": "\ucda9\uccad\ub0a8\ub3c4 \uc11c\ucc9c\uad70 \uc7a5\ud56d\uc74d \uc1a1\ub9bc\ub9ac 755-12", "lat": "36.024538", "lng": "126.66773"}, {"statNm": "\ud0dc\uc548\ud574\uc548\uad6d\ub9bd\uacf5\uc6d0 \uc0bc\ubd09\uc8fc\ucc28\uc7a5", "addr": "\ucda9\uccad\ub0a8\ub3c4 \ud0dc\uc548\uad70 \uc548\uba74\uc74d \ucc3d\uae30\ub9ac 1304-6", "lat": "36.570842", "lng": "126.315921"}, {"statNm": "\ud0dc\uc548\ud574\uc548\uad6d\ub9bd\uacf5\uc6d0 \uc0bc\ubd09\uc8fc\ucc28\uc7a5", "addr": "\ucda9\uccad\ub0a8\ub3c4 \ud0dc\uc548\uad70 \uc548\uba74\uc74d \ucc3d\uae30\ub9ac 1304-6", "lat": "36.570842", "lng": "126.315921"}, {"statNm": "\ud0dc\uc548\ud574\uc548\uad6d\ub9bd\uacf5\uc6d0 \ud559\uc554\ud3ec\uc57c\uc601\uc7a5", "addr": "\ucda9\uccad\ub0a8\ub3c4 \ud0dc\uc548\uad70 \uc6d0\ubd81\uba74 \ubc29\uac08\ub9ac 515-79", "lat": "36.896882", "lng": "126.206457"}, {"statNm": "\ud0dc\uc548\ud574\uc548\uad6d\ub9bd\uacf5\uc6d0 \ud559\uc554\ud3ec\uc57c\uc601\uc7a5", "addr": "\ucda9\uccad\ub0a8\ub3c4 \ud0dc\uc548\uad70 \uc6d0\ubd81\uba74 \ubc29\uac08\ub9ac 515-79", "lat": "36.896882", "lng": "126.206457"}, {"statNm": "\ub86f\ub370\ub9c8\ud2b8 \ucc9c\uc548\uc810", "addr": "\ucda9\uccad\ub0a8\ub3c4 \ucc9c\uc548\uc2dc \uc11c\ubd81\uad6c \uc6d4\ubd09\ub85c 95-0 (\uc30d\uc6a92\ub3d9)", "lat": "36.799709", "lng": "127.117648"}, {"statNm": "\ub86f\ub370\ub9c8\ud2b8 \ucc9c\uc548\uc810", "addr": "\ucda9\uccad\ub0a8\ub3c4 \ucc9c\uc548\uc2dc \uc11c\ubd81\uad6c \uc6d4\ubd09\ub85c 95-0 (\uc30d\uc6a92\ub3d9)", "lat": "36.799709", "lng": "127.117648"}, {"statNm": "\ub86f\ub370\ub9c8\ud2b8 \ud64d\uc131\uc810", "addr": "\ucda9\uccad\ub0a8\ub3c4 \ud64d\uc131\uad70 \ud64d\uc131\uc74d \uc870\uc591\ub85c247\ubc88\uae38 9 (\uace0\uc554\ub9ac)", "lat": "36.600955", "lng": "126.676311"}, {"statNm": "\uc785\uc7a5\ud734\uac8c\uc18c(\uc11c\uc6b8\ubc29\ud5a5)", "addr": "\ucda9\uccad\ub0a8\ub3c4 \ucc9c\uc548\uc2dc \uc11c\ubd81\uad6c \uc785\uc7a5\uba74 \uc5f0\uace1\uae38 407", "lat": "36.9428836", "lng": "127.1941661"}, {"statNm": "\ucc9c\uc548\ud734\uac8c\uc18c(\ubd80\uc0b0\ubc29\ud5a5)", "addr": "\ucda9\uccad\ub0a8\ub3c4 \ucc9c\uc548\uc2dc \ub3d9\ub0a8\uad6c \uc218\uc2e0\uba74 \uc131\ub0a8\ub85c 793-40", "lat": "36.7304441", "lng": "127.2629759"}, {"statNm": "\uc815\uc548\ud734\uac8c\uc18c(\ucc9c\uc548\ubc29\ud5a5)", "addr": "\ucda9\uccad\ub0a8\ub3c4 \uacf5\uc8fc\uc2dc \uc815\uc548\uba74 \uc7a5\uc6d0\uc7a5\uc790\uc6b8\uae38 73-47", "lat": "36.5685878", "lng": "127.1144045"}, {"statNm": "\uc774\uc778\ud734\uac8c\uc18c(\ucc9c\uc548\ubc29\ud5a5)", "addr": "\ucda9\uccad\ub0a8\ub3c4 \uacf5\uc8fc\uc2dc \uc774\uc778\uba74 \uc774\uc778\ub9ac", "lat": "36.3520509", "lng": "127.0692232"}, {"statNm": "\ud0c4\ucc9c\ud734\uac8c\uc18c(\ub17c\uc0b0\ubc29\ud5a5)", "addr": "\ucda9\uccad\ub0a8\ub3c4 \uacf5\uc8fc\uc2dc \ud0c4\ucc9c\uba74 \uc7a5\uc120\ub9ac 151-6", "lat": "36.3200333", "lng": "127.0705915"}, {"statNm": "\uc815\uc548\ud734\uac8c\uc18c(\uc21c\ucc9c\ubc29\ud5a5)", "addr": "\ucda9\uccad\ub0a8\ub3c4 \uacf5\uc8fc\uc2dc \uc815\uc548\uba74 \uc11d\uc1a1\ub9ac", "lat": "36.5717709", "lng": "127.1127178"}, {"statNm": "\uc544\ud2b8\uc13c\ud130 \uace0\ub9c8", "addr": "\ucda9\uccad\ub0a8\ub3c4 \uacf5\uc8fc\uc2dc \uc6c5\uc9c4\ub3d9 354-6", "lat": "36.466735", "lng": "127.109715"}, {"statNm": "\ub454\ud3ec\uba74\uc0ac\ubb34\uc18c", "addr": "\ucda9\uccad\ub0a8\ub3c4 \uc544\uc0b0\uc2dc \ub454\ud3ec\uba74 \ub454\ud3ec\ub9ac 461-11", "lat": "36.92976", "lng": "127.037976"}, {"statNm": "\uc9c0\uace1\uba74 \uacf5\uc601\uc8fc\ucc28\uc7a5", "addr": "\ucda9\uccad\ub0a8\ub3c4 \uc11c\uc0b0\uc2dc \uc9c0\uace1\uba74 \ud654\ucc9c\ub9ac 1301-17", "lat": "36.86375", "lng": "126.434241"}, {"statNm": "\ubc8c\uace1\ud734\uac8c\uc18c(\ub300\uc804\ubc29\ud5a5)", "addr": "\ucda9\uccad\ub0a8\ub3c4 \ub17c\uc0b0\uc2dc \ubc8c\uace1\uba74 \uc591\uc0b0\ub9ac", "lat": "36.210813", "lng": "127.2704991"}, {"statNm": "\uc5c4\uc0ac\uc0c1\uc810\uac00 \uacf5\uc601\uc8fc\ucc28\uc7a5", "addr": "\ucda9\uccad\ub0a8\ub3c4 \uacc4\ub8e1\uc2dc \uc5c4\uc0ac\uba74 \uc5c4\uc0ac\ub9ac 181-3", "lat": "36.289045", "lng": "127.242876"}, {"statNm": "\uba74\ucc9c\uba74\uc0ac\ubb34\uc18c", "addr": "\ucda9\uccad\ub0a8\ub3c4 \ub2f9\uc9c4\uc2dc \uba74\ucc9c\ub85c 623", "lat": "36.8162641", "lng": "126.66494"}, {"statNm": "\ud589\ub2f4\ub3c4\ud734\uac8c\uc18c(\uc11c\uc6b8\ubc29\ud5a5)", "addr": "\ucda9\uccad\ub0a8\ub3c4 \ub2f9\uc9c4\uc2dc \uc2e0\ud3c9\uba74 \uc11c\ud574\uc548\uace0\uc18d\ub3c4\ub85c 275,", "lat": "36.943895", "lng": "126.806949"}, {"statNm": "\ud589\ub2f4\ub3c4\ud734\uac8c\uc18c(\ubaa9\ud3ec\ubc29\ud5a5)", "addr": "\ucda9\uccad\ub0a8\ub3c4 \ub2f9\uc9c4\uc2dc \uc2e0\ud3c9\uba74 \uc11c\ud574\uc548\uace0\uc18d\ub3c4\ub85c 275,", "lat": "36.944564", "lng": "126.809261"}, {"statNm": "\uc778\uc0bc\ub79c\ub4dc\ud734\uac8c\uc18c(\ud558\ub0a8\ubc29\ud5a5)", "addr": "\ucda9\uccad\ub0a8\ub3c4 \uae08\uc0b0\uad70 \uad70\ubd81\uba74 \ub300\uc554\uae38 34-30", "lat": "36.1551665", "lng": "127.4962759"}, {"statNm": "\uc778\uc0bc\ub79c\ub4dc\ud734\uac8c\uc18c(\ud1b5\uc601\ubc29\ud5a5)", "addr": "\ucda9\uccad\ub0a8\ub3c4 \uae08\uc0b0\uad70 \uad70\ubd81\uba74 \uc5b4\ud544\uac01\ub85c 300", "lat": "36.1537077", "lng": "127.4951731"}, {"statNm": "\uae08\uc0b0\uad70\uccad", "addr": "\ucda9\uccad\ub0a8\ub3c4 \uae08\uc0b0\uad70 \uae08\uc0b0\uc74d \uad70\uccad\uae38 13", "lat": "36.108708", "lng": "127.486678"}, {"statNm": "\ubd80\uc5ec\ubc31\uc81c\ud734\uac8c\uc18c(\uacf5\uc8fc\ubc29\ud5a5)", "addr": "\ucda9\uccad\ub0a8\ub3c4 \ubd80\uc5ec\uad70 \ub0b4\uc0b0\uba74 \uc11c\ucc9c\uacf5\uc8fc\uace0\uc18d\ub3c4\ub85c 26", "lat": "36.2590649", "lng": "126.8002163"}, {"statNm": "\ubd80\uc5ec\ubc31\uc81c\ud734\uac8c\uc18c(\uc11c\ucc9c\ubc29\ud5a5)", "addr": "\ucda9\uccad\ub0a8\ub3c4 \ubd80\uc5ec\uad70 \ub0b4\uc0b0\uba74 \uc11c\ucc9c\uacf5\uc8fc\uace0\uc18d\ub3c4\ub85c 25", "lat": "36.2571854", "lng": "126.7959141"}, {"statNm": "\ub3d9\ubd80\uc5ec\uc11d\uc131\ud734\uac8c\uc18c", "addr": "\ucda9\uccad\ub0a8\ub3c4 \ubd80\uc5ec\uad70 \uc11d\uc131\uba74 \ub300\ubc31\uc81c\ub85c 3050", "lat": "36.252312", "lng": "126.980859"}, {"statNm": "\uc11c\uba74\uc0ac\ubb34\uc18c", "addr": "\ucda9\uccad\ub0a8\ub3c4 \uc11c\ucc9c\uad70 \uc11c\uba74 \uc11c\uc778\ub85c 761", "lat": "36.15276", "lng": "126.549804"}, {"statNm": "\uccad\uc591\uc74d\uc0ac\ubb34\uc18c \uc55e \uacf5\uc601\uc8fc\ucc28\uc7a5", "addr": "\ucda9\uccad\ub0a8\ub3c4 \uccad\uc591\uad70 \uccad\uc591\uc74d \uce60\uac11\uc0b0\ub85c6\uae38 28", "lat": "36.448522", "lng": "126.801788"}, {"statNm": "\uc815\uc0b0\uba74\uc0ac\ubb34\uc18c", "addr": "\ucda9\uccad\ub0a8\ub3c4 \uccad\uc591\uad70 \uc815\uc0b0\uba74 \uce60\uac11\uc0b0\ub85c 1857", "lat": "36.414679", "lng": "126.944913"}, {"statNm": "\ud64d\uc8fc\uc885\ud569\uacbd\uae30\uc7a5", "addr": "\ucda9\uccad\ub0a8\ub3c4 \ud64d\uc131\uad70 \ud64d\uc131\uc74d \uc18c\ud5a5\ub9ac 397-118", "lat": "36.606382", "lng": "126.64192"}, {"statNm": "\uad11\ucc9c\uc0dd\ud65c\uccb4\uc721\uacf5\uc6d0", "addr": "\ucda9\uccad\ub0a8\ub3c4 \ud64d\uc131\uad70 \uad11\ucc9c\uc74d \ud64d\ub0a8\ub85c 764-42", "lat": "36.508184", "lng": "126.635298"}, {"statNm": "\uc608\uc0b0\ubcf5\ud569\ubb38\ud654\ubcf5\uc9c0\uc13c\ud130", "addr": "\ucda9\uccad\ub0a8\ub3c4 \uc608\uc0b0\uad70 \uc608\uc0b0\uc74d \uc11d\uc591\ub9ac 213-2", "lat": "36.6999594", "lng": "126.8407188"}, {"statNm": "\ub0a8\uba74\uc0ac\ubb34\uc18c", "addr": "\ucda9\uccad\ub0a8\ub3c4 \ud0dc\uc548\uad70 \ub0a8\uba74 \ub2ec\uc0b0\ub9ac 1179", "lat": "36.671559", "lng": "126.298053"}, {"statNm": "\ud0dc\uc548\uc0c1\uc124\uc2dc\uc7a5 \uacf5\uc601\uc8fc\ucc28\uc7a5", "addr": "\ucda9\uccad\ub0a8\ub3c4 \ud0dc\uc548\uad70 \ud0dc\uc548\uc74d \ub3d9\ubc31\ub85c 251", "lat": "36.751056", "lng": "126.2987644"}, {"statNm": "\ub86f\ub370\ub9c8\ud2b8 \ub2f9\uc9c4\uc810", "addr": "\ucda9\uccad\ub0a8\ub3c4 \ub2f9\uc9c4\uc2dc \uc815\uc548\ub85c 20", "lat": "36.905631", "lng": "126.645898"}, {"statNm": "\uc0bc\ubd094\ub9ac\uc0ac\ubb34\uc18c", "addr": "\ucda9\uccad\ub0a8\ub3c4 \ub2f9\uc9c4\uc2dc \uc11d\ubb38\uba74 \ub300\ud638\ub9cc\ub85c 1736-7", "lat": "37.013251", "lng": "126.537678"}, {"statNm": "\ub17c\uc0b0\uc2dc\uccad \uc55e \uacf5\uc601\uc8fc\ucc28\uc7a5", "addr": "\ucda9\uccad\ub0a8\ub3c4 \ub17c\uc0b0\uc2dc \ub0b4\ub3d9 825", "lat": "36.1860835", "lng": "127.0993556"}, {"statNm": "\uad6d\ub9bd\uc0dd\ud0dc\uc6d0 \uc815\ubb38 \uc8fc\ucc28\uc7a5", "addr": "\ucda9\uccad\ub0a8\ub3c4 \uc11c\ucc9c\uad70 \ub9c8\uc11c\uba74 \uc1a1\ub0b4\ub9ac 758", "lat": "36.027168", "lng": "126.7215749"}, {"statNm": "\uc785\uc7a5\ud734\uac8c\uc18c(\uc11c\uc6b8\ubc29\ud5a5)", "addr": "\ucda9\uccad\ub0a8\ub3c4 \ucc9c\uc548\uc2dc \uc11c\ubd81\uad6c \uc785\uc7a5\uba74 \uc5f0\uace1\uae38 407", "lat": "36.9427836", "lng": "127.1943661"}, {"statNm": "\uc785\uc7a5\ud734\uac8c\uc18c(\uc11c\uc6b8\ubc29\ud5a5)", "addr": "\ucda9\uccad\ub0a8\ub3c4 \ucc9c\uc548\uc2dc \uc11c\ubd81\uad6c \uc785\uc7a5\uba74 \uc5f0\uace1\uae38 407", "lat": "36.9427836", "lng": "127.1943661"}, {"statNm": "\ucc9c\uc548\ud734\uac8c\uc18c(\uc11c\uc6b8\ubc29\ud5a5)", "addr": "\ucda9\uccad\ub0a8\ub3c4 \ucc9c\uc548\uc2dc \ub3d9\ub0a8\uad6c \uc27c1\uae38 42 (\uc0bc\ub8e1\ub3d9)173-1", "lat": "36.7882107", "lng": "127.1735101"}, {"statNm": "\ucc9c\uc548\ud734\uac8c\uc18c(\uc11c\uc6b8\ubc29\ud5a5)", "addr": "\ucda9\uccad\ub0a8\ub3c4 \ucc9c\uc548\uc2dc \ub3d9\ub0a8\uad6c \uc27c1\uae38 42 (\uc0bc\ub8e1\ub3d9)173-1", "lat": "36.7882107", "lng": "127.1735101"}, {"statNm": "\ucc9c\uc548\ud734\uac8c\uc18c(\uc11c\uc6b8\ubc29\ud5a5)", "addr": "\ucda9\uccad\ub0a8\ub3c4 \ucc9c\uc548\uc2dc \ub3d9\ub0a8\uad6c \uc27c1\uae38 42 (\uc0bc\ub8e1\ub3d9)173-1", "lat": "36.7882107", "lng": "127.1735101"}, {"statNm": "\ub300\ucc9c\ud734\uac8c\uc18c(\ubaa9\ud3ec\ubc29\ud5a5)", "addr": "\ucda9\uccad\ub0a8\ub3c4 \ubcf4\ub839\uc2dc \uc8fc\uad50\uba74 \uc11c\ud574\uc548\uace0\uc18d\ub3c4\ub85c 199 (\uc8fc\uad50\ub9ac)", "lat": "36.3729958", "lng": "126.5563709"}, {"statNm": "\ub300\ucc9c\ud734\uac8c\uc18c(\uc2dc\ud765\ubc29\ud5a5)", "addr": "\ucda9\uccad\ub0a8\ub3c4 \ubcf4\ub839\uc2dc \uc8fc\uad50\uba74 \uc11c\ud574\uc548\uace0\uc18d\ub3c4\ub85c 200 (\uc8fc\uad50\ub9ac)", "lat": "36.3737327", "lng": "126.557557"}, {"statNm": "\uc11c\uc0b0\ud734\uac8c\uc18c(\uc2dc\ud765\ubc29\ud5a5)", "addr": "\ucda9\uccad\ub0a8\ub3c4 \uc11c\uc0b0\uc2dc \ud574\ubbf8\uba74 \uc11c\ud574\uc548\uace0\uc18d\ub3c4\ub85c 242 (\uc0bc\uc1a1\ub9ac)", "lat": "36.7338867", "lng": "126.5670967"}, {"statNm": "\uc11c\uc0b0\ud734\uac8c\uc18c(\uc2dc\ud765\ubc29\ud5a5)", "addr": "\ucda9\uccad\ub0a8\ub3c4 \uc11c\uc0b0\uc2dc \ud574\ubbf8\uba74 \uc11c\ud574\uc548\uace0\uc18d\ub3c4\ub85c 242 (\uc0bc\uc1a1\ub9ac)", "lat": "36.7338867", "lng": "126.5670967"}, {"statNm": "\uc11c\ucc9c\ud734\uac8c\uc18c(\ubaa9\ud3ec\ubc29\ud5a5)", "addr": "\ucda9\uccad\ub0a8\ub3c4 \uc11c\ucc9c\uad70 \ube44\uc778\uba74 \uc11c\ud574\uc548\uace0\uc18d\ub3c4\ub85c 169 (\uc131\uc0b0\ub9ac)", "lat": "36.1292781", "lng": "126.6269803"}, {"statNm": "\uc11c\ucc9c\ud734\uac8c\uc18c(\ubaa9\ud3ec\ubc29\ud5a5)", "addr": "\ucda9\uccad\ub0a8\ub3c4 \uc11c\ucc9c\uad70 \ube44\uc778\uba74 \uc11c\ud574\uc548\uace0\uc18d\ub3c4\ub85c 169 (\uc131\uc0b0\ub9ac)", "lat": "36.1292781", "lng": "126.6269803"}, {"statNm": "\uc11c\ucc9c\ud734\uac8c\uc18c(\uc2dc\ud765\ubc29\ud5a5)", "addr": "\ucda9\uccad\ub0a8\ub3c4 \uc11c\ucc9c\uad70 \ube44\uc778\uba74 \uc11c\ud574\uc548\uace0\uc18d\ub3c4\ub85c 168 (\uc131\uc0b0\ub9ac)", "lat": "36.1320831", "lng": "126.6275272"}, {"statNm": "\uc11c\ucc9c\ud734\uac8c\uc18c(\uc2dc\ud765\ubc29\ud5a5)", "addr": "\ucda9\uccad\ub0a8\ub3c4 \uc11c\ucc9c\uad70 \ube44\uc778\uba74 \uc11c\ud574\uc548\uace0\uc18d\ub3c4\ub85c 168 (\uc131\uc0b0\ub9ac)", "lat": "36.1320831", "lng": "126.6275272"}, {"statNm": "\ud64d\uc131\ud734\uac8c\uc18c(\ubaa9\ud3ec\ubc29\ud5a5)", "addr": "\ucda9\uccad\ub0a8\ub3c4 \ud64d\uc131\uad70 \uc740\ud558\uba74 \uc11c\ud574\uc548\uace0\uc18d\ub3c4\ub85c 221 (\uae08\uad6d\ub9ac)", "lat": "36.5520256", "lng": "126.579626"}, {"statNm": "\ud64d\uc131\ud734\uac8c\uc18c(\uc2dc\ud765\ubc29\ud5a5)", "addr": "\ucda9\uccad\ub0a8\ub3c4 \ud64d\uc131\uad70 \uc740\ud558\uba74 \uc11c\ud574\uc548\uace0\uc18d\ub3c4\ub85c 220 (\uae08\uad6d\ub9ac)", "lat": "36.5538232", "lng": "126.5818528"}, {"statNm": "\ubc8c\uace1\ud734\uac8c\uc18c(\ub17c\uc0b0\ubc29\ud5a5)", "addr": "\ucda9\uccad\ub0a8\ub3c4 \ub17c\uc0b0\uc2dc \ubc8c\uace1\uba74 \ud638\ub0a8\uace0\uc18d\ub3c4\ub85c 2465-10 (\uc2e0\uc591\ub9ac)", "lat": "36.2175076", "lng": "127.2740754"},