[{"statNm": "\uc774\ub9c8\ud2b8 \uc804\uc8fc\uc810", "addr": "\uc804\ub77c\ubd81\ub3c4 \uc804\uc8fc\uc2dc \uc644\uc0b0\uad6c \ub2f9\uc0b0\ub85c 111", "lat": "35.83286374", "lng": "127.12089862"}, {"statNm": "\uc804\uc8fc\ub355\uc9c4\uacf5\uc6d0 \uc8fc\ucc28\uc7a5", "addr": "\uc804\ub77c\ubd81\ub3c4 \uc804\uc8fc\uc2dc \ub355\uc9c4\uad6c \ub355\uc9c4\ub3d9 2\uac00 179-6", "lat": "35.8481760", "lng": "127.1204980"}, {"statNm": "\uc608\uc220\uc758 \uc804\ub2f9", "addr": "\uc804\ub77c\ubd81\ub3c4 \uad70\uc0b0\uc2dc \uc9c0\uace1\ub3d9 286-8", "lat": "35.9607154", "lng": "126.7090665"}, {"statNm": "\uae08\uac15\ucca0\uc0c8\uc870\ub9dd\ub300", "addr": "\uc804\ub77c\ubd81\ub3c4 \uad70\uc0b0\uc2dc \uc131\uc0b0\uba74 \uc131\ub355\ub9ac", "lat": "36.0197065", "lng": "126.7635205"}, {"statNm": "\uc5ec\uc0b0\ud734\uac8c\uc18c(\uc21c\ucc9c\ubc29\ud5a5)", "addr": "\uc804\ub77c\ubd81\ub3c4 \uc775\uc0b0\uc2dc \uc5ec\uc0b0\uba74 \ud638\uc0b0\ub9ac \uc0b032-6", "lat": "36.0479377", "lng": "127.1026013"}, {"statNm": "\ud568\uc5f4\uc62c\ub9bc\ud53d \uc2a4\ud3ec\uce20\uc13c\ud130", "addr": "\uc804\ub77c\ubd81\ub3c4 \uc775\uc0b0\uc2dc \ud568\uc5f4\uc74d \uc640\ub9ac164", "lat": "36.0741298", "lng": "126.963993"}, {"statNm": "\uc815\uc74d\ub179\ub450\uc7a5\uad70\ud734\uac8c\uc18c(\ub17c\uc0b0\ubc29\ud5a5)", "addr": "\uc804\ub77c\ubd81\ub3c4 \uc815\uc74d\uc2dc \ubd81\uba74 \ub0a8\uc0b0\ub9ac", "lat": "35.6006769", "lng": "126.8644591"}, {"statNm": "\uc815\uc74d\ub179\ub450\uc7a5\uad70\ud734\uac8c\uc18c(\uc21c\ucc9c\ubc29\ud5a5)", "addr": "\uc804\ub77c\ubd81\ub3c4 \uc815\uc74d\uc2dc \ubd81\uba74 \uc815\uc2e0\ub85c 135-61", "lat": "35.6016871", "lng": "126.8624805"}, {"statNm": "\uc9c0\ub9ac\uc0b0\ud734\uac8c\uc18c(\uc625\ud3ec\ubc29\ud5a5)", "addr": "\uc804\ub77c\ubd81\ub3c4 \ub0a8\uc6d0\uc2dc \uc544\uc601\uba74 \uc544\uace1\ub9ac", "lat": "35.4808967", "lng": "127.566233"}, {"statNm": "\uadfc\ub85c\uc790\uc885\ud569\ubcf5\uc9c0\uad00", "addr": "\uc804\ub77c\ubd81\ub3c4 \uc644\uc8fc\uad70 \ubd09\ub3d9\uc74d \ub454\uc0b0\ub9ac 881", "lat": "35.9628434", "lng": "127.1270991"}, {"statNm": "\uc9c4\uc548\uad70\uccad", "addr": "\uc804\ub77c\ubd81\ub3c4 \uc9c4\uc548\uad70 \uc9c4\uc548\uc74d \uc911\uc559\ub85c 67", "lat": "35.7918402", "lng": "127.4245086"}, {"statNm": "\ub355\uc720\uc0b0\ud734\uac8c\uc18c(\ud558\ub0a8\ubc29\ud5a5)", "addr": "\uc804\ub77c\ubd81\ub3c4 \ubb34\uc8fc\uad70 \uc548\uc131\uba74 \ud1b5\uc601\ub300\uc804\uace0\uc18d\ub3c4\ub85c 148", "lat": "35.8171253", "lng": "127.6457339"}, {"statNm": "\ubb34\uc8fc\uc74d\uc8fc\ubbfc\uc790\uce58\uc13c\ud130", "addr": "\uc804\ub77c\ubd81\ub3c4 \ubb34\uc8fc\uad70 \ubb34\uc8fc\uc74d \ud5a5\ud559\ub85c 49", "lat": "36.0088603", "lng": "127.6619473"}, {"statNm": "\uc548\uc131\uba74\uc8fc\ubbfc\uc790\uce58\uc13c\ud130", "addr": "\uc804\ub77c\ubd81\ub3c4 \ubb34\uc8fc\uad70 \uc548\uc131\uba74 \uc548\uc131\ub85c 246-17", "lat": "35.8629478", "lng": "127.6528909"}, {"statNm": "\ub355\uc720\uc0b0\ud734\uac8c\uc18c(\ud1b5\uc601\ubc29\ud5a5)", "addr": "\uc804\ub77c\ubd81\ub3c4 \uc7a5\uc218\uad70 \uacc4\ubd81\uba74 \ub2f9\uc800\uae38 59", "lat": "35.8142655", "lng": "127.6433798"}, {"statNm": "\uc7a5\uc218\uad70\uccad", "addr": "\uc804\ub77c\ubd81\ub3c4 \uc7a5\uc218\uad70 \uc7a5\uc218\uc74d \ud638\ube44\ub85c 10", "lat": "35.6467192", "lng": "127.5215713"}, {"statNm": "\uc624\uc218\ud734\uac8c\uc18c(\uc804\uc8fc\ubc29\ud5a5)", "addr": "\uc804\ub77c\ubd81\ub3c4 \uc784\uc2e4\uad70 \uc624\uc218\uba74 \ub300\uba85\ub9ac", "lat": "35.5391924", "lng": "127.3111266"}, {"statNm": "\uc624\uc218\ud734\uac8c\uc18c(\uad11\uc591\ubc29\ud5a5)", "addr": "\uc804\ub77c\ubd81\ub3c4 \uc784\uc2e4\uad70 \uc624\uc218\uba74 \uc624\uc0b0\ub9ac", "lat": "35.5398971", "lng": "127.3091337"}, {"statNm": "\uace0\ucc3d\uad70 \uc74d\uc131\uc8fc\ucc28\uc7a5", "addr": "\uc804\ub77c\ubd81\ub3c4 \uace0\ucc3d\uad70 \uace0\ucc3d\uc74d \ub3d9\ub9ac\ub85c 117", "lat": "35.4329963", "lng": "126.7061833"}, {"statNm": "\uace0\ucc3d\uace0\uc778\ub3cc\ud734\uac8c\uc18c(\ubaa9\ud3ec\ubc29\ud5a5)", "addr": "\uc804\ub77c\ubd81\ub3c4 \uace0\ucc3d\uad70 \uace0\ucc3d\uc74d \uc11c\ud574\uc548\uace0\uc18d\ub3c4\ub85c 81 (\ubcbd\uc1a1\ub9ac)", "lat": "35.4690375", "lng": "126.6742688"}, {"statNm": "\uace0\ucc3d\uace0\uc778\ub3cc\ud734\uac8c\uc18c(\uc2dc\ud765\ubc29\ud5a5)", "addr": "\uc804\ub77c\ubd81\ub3c4 \uace0\ucc3d\uad70 \uace0\ucc3d\uc74d \uc11c\ud574\uc548\uace0\uc18d\ub3c4\ub85c 80 (\uc2e0\uc6d4\ub9ac)", "lat": "35.461348", "lng": "126.6729203"}, {"statNm": "\uc774\uc11c\ud734\uac8c\uc18c(\uc21c\ucc9c\ubc29\ud5a5)", "addr": "\uc804\ub77c\ubd81\ub3c4 \uc644\uc8fc\uad70 \uc774\uc11c\uba74 \ud638\ub0a8\uace0\uc18d\ub3c4\ub85c 161 (\uc740\uad50\ub9ac)", "lat": "35.8034454", "lng": "127.0240566"}, {"statNm": "\uc774\uc11c\ud734\uac8c\uc18c(\ucc9c\uc548\ubc29\ud5a5)", "addr": "\uc804\ub77c\ubd81\ub3c4 \uc644\uc8fc\uad70 \uc774\uc11c\uba74 \ud638\ub0a8\uace0\uc18d\ub3c4\ub85c 162 (\uc740\uad50\ub9ac)", "lat": "35.802184", "lng": "127.0258792"}, {"statNm": "\uc815\uc74d\ud734\uac8c\uc18c(\ub17c\uc0b0\ubc29\ud5a5)", "addr": "\uc804\ub77c\ubd81\ub3c4 \uc815\uc74d\uc2dc \ubd81\uba74 \ud558\ubd811\uae38 227-17 (\ub0a8\uc0b0\ub9ac)", "lat": "35.6005769", "lng": "126.8646591"}, {"statNm": "\uc815\uc74d\ud734\uac8c\uc18c(\uc21c\ucc9c\ubc29\ud5a5)", "addr": "\uc804\ub77c\ubd81\ub3c4 \uc815\uc74d\uc2dc \ubd81\uba74 \uc815\uc2e0\ub85c 135-61 (\ub0a8\uc0b0\ub9ac)", "lat": "35.6015871", "lng": "126.8626805"}, {"statNm": "\ub355\uc720\uc0b0\ud734\uac8c\uc18c(\ud1b5\uc601\ubc29\ud5a5)", "addr": "\uc804\ub77c\ubd81\ub3c4 \uc7a5\uc218\uad70 \uacc4\ubd81\uba74 \ub2f9\uc800\uae38 59 (\uc591\uc545\ub9ac)", "lat": "35.8141655", "lng": "127.6435798"}, {"statNm": "\ub355\uc720\uc0b0\ud734\uac8c\uc18c(\ud558\ub0a8\ubc29\ud5a5)", "addr": "\uc804\ub77c\ubd81\ub3c4 \ubb34\uc8fc\uad70 \uc548\uc131\uba74 \ud1b5\uc601\ub300\uc804\uace0\uc18d\ub3c4\ub85c 148 (\uacf5\uc9c4\ub9ac)", "lat": "35.8170253", "lng": "127.6459339"}, {"statNm": "\uc9c0\ub9ac\uc0b0\ud734\uac8c\uc18c(\uace0\uc11c\ubc29\ud5a5)", "addr": "\uc804\ub77c\ubd81\ub3c4 \ub0a8\uc6d0\uc2dc \uc544\uc601\uba74 88\uc62c\ub9bc\ud53d\uace0\uc18d\ub3c4\ub85c 75 (\uc544\uace1\ub9ac)", "lat": "35.4836213", "lng": "127.5667699"}, {"statNm": "\uc9c0\ub9ac\uc0b0\ud734\uac8c\uc18c(\uc625\ud3ec\ubc29\ud5a5)", "addr": "\uc804\ub77c\ubd81\ub3c4 \ub0a8\uc6d0\uc2dc \uc544\uc601\uba74 88\uc62c\ub9bc\ud53d\uace0\uc18d\ub3c4\ub85c 76 (\uc544\uace1\ub9ac)", "lat": "35.4808967", "lng": "127.566233"}, {"statNm": "\uac15\ucc9c\uc0b0\ud734\uac8c\uc18c(\ub300\uad6c\ubc29\ud5a5)", "addr": "\uc804\ub77c\ubd81\ub3c4 \uc21c\ucc3d\uad70 \uc21c\ucc3d\uc74d 88\uc62c\ub9bc\ud53d\uace0\uc18d\ub3c4\ub85c 22 (\ubc31\uc0b0\ub9ac)", "lat": "35.364473", "lng": "127.1048023"}, {"statNm": "\uc9c4\uc548\ud734\uac8c\uc18c(\uc775\uc0b0\ubc29\ud5a5)", "addr": "\uc804\ub77c\ubd81\ub3c4 \uc9c4\uc548\uad70 \uc9c4\uc548\uc74d \uc775\uc0b0\uc7a5\uc218\uace0\uc18d\ub3c4\ub85c 41 (\ub2e8\uc591\ub9ac)", "lat": "35.7782697", "lng": "127.425744"}, {"statNm": "\uc9c4\uc548\ud734\uac8c\uc18c(\uc7a5\uc218\ubc29\ud5a5)", "addr": "\uc804\ub77c\ubd81\ub3c4 \uc9c4\uc548\uad70 \uc9c4\uc548\uc74d \uc775\uc0b0\uc7a5\uc218\uace0\uc18d\ub3c4\ub85c 42 (\ub2e8\uc591\ub9ac)", "lat": "35.774925", "lng": "127.4262837"}, {"statNm": "\ub86f\ub370\ub9c8\ud2b8 \uad70\uc0b0\uc810", "addr": "\uc804\ub77c\ubd81\ub3c4 \uad70\uc0b0\uc2dc \uc218\uc1a1\ub85c 185 (\uc218\uc1a1\ub3d9)", "lat": "35.9647788", "lng": "126.7163555"}, {"statNm": "\ub86f\ub370\ub9c8\ud2b8 \uc775\uc0b0\uc810", "addr": "\uc804\ub77c\ubd81\ub3c4 \uc775\uc0b0\uc2dc \ubb34\uc655\ub85c 1053 (\uc601\ub4f1\ub3d9)", "lat": "35.9597398", "lng": "126.9741078"}, {"statNm": "\ubcc0\uc0b0\ubc18\ub3c4\uad6d\ub9bd\uacf5\uc6d0 \uaca9\ud3ec\uc8fc\ucc28\uc7a5", "addr": "\uc804\ub77c\ubd81\ub3c4 \ubd80\uc548\uad70 \ubcc0\uc0b0\uba74 \uaca9\ud3ec\ub9ac 283-1", "lat": "35.627881", "lng": "126.471165"}, {"statNm": "\ubcc0\uc0b0\ubc18\ub3c4\uad6d\ub9bd\uacf5\uc6d0 \ub0b4\uc18c\uc8fc\ucc28\uc7a5", "addr": "\uc804\ub77c\ubd81\ub3c4 \ubd80\uc548\uad70 \uc9c4\uc11c\uba74 \uc11d\ud3ec\ub9ac 240", "lat": "35.610062", "lng": "126.588533"}, {"statNm": "\uc9c0\ub9ac\uc0b0\uad6d\ub9bd\uacf5\uc6d0 \ubd81\ubd80 \ubc18\uc120\uc8fc\ucc28\uc7a5", "addr": "\uc804\ub77c\ubd81\ub3c4 \ub0a8\uc6d0\uc2dc \uc0b0\ub0b4\uba74 \ubd80\uc6b4\ub9ac 216-10", "lat": "35.377231", "lng": "127.581692"}, {"statNm": "\uc9c0\ub9ac\uc0b0\uad6d\ub9bd\uacf5\uc6d0 \ubc40\uc0ac\uace8\uc57c\uc601\uc7a5", "addr": "\uc804\ub77c\ubd81\ub3c4 \ub0a8\uc6d0\uc2dc \uc0b0\ub0b4\uba74 \ub355\ub3d9\ub9ac 406", "lat": "35.354821", "lng": "127.558283"}, {"statNm": "\ub0b4\uc7a5\uc0b0\uad6d\ub9bd\uacf5\uc6d0 \ud0d0\ubc29\uc548\ub0b4\uc18c", "addr": "\uc804\ub77c\ubd81\ub3c4 \uc815\uc74d\uc2dc \ub0b4\uc7a5\ub3d9 673-1", "lat": "35.487895", "lng": "126.907447"}, {"statNm": "\ub0b4\uc7a5\uc0b0\uad6d\ub9bd\uacf5\uc6d0 1(\ub0b4\uc7a5)\uc8fc\ucc28\uc7a5", "addr": "\uc804\ub77c\ubd81\ub3c4 \uc815\uc74d\uc2dc \ub0b4\uc7a5\ub3d9 52", "lat": "35.49408", "lng": "126.925858"}, {"statNm": "\ub0b4\uc7a5\uc0b0\uad6d\ub9bd\uacf5\uc6d0 \ub124\uc774\ucc98\uc13c\ud130", "addr": "\uc804\ub77c\ubd81\ub3c4 \uc815\uc74d\uc2dc \ub0b4\uc7a5\ub3d9 169-1", "lat": "35.508267", "lng": "126.906523"}, {"statNm": "\ub355\uc720\uc0b0\uad6d\ub9bd\uacf5\uc6d0 \ub355\uc720\ub300\uc57c\uc601\uc7a5", "addr": "\uc804\ub77c\ubd81\ub3c4 \ubb34\uc8fc\uad70 \uc124\ucc9c\uba74 \uc0bc\uacf5\ub9ac 456-1\ubc88\uc9c0", "lat": "35.893725", "lng": "127.772644"}, {"statNm": "\ub355\uc720\uc0b0\uad6d\ub9bd\uacf5\uc6d0 \uad00\ub9ac\uc0ac\ubb34\uc18c \uc55e \uc8fc\ucc28\uc7a5", "addr": "\uc804\ub77c\ubd81\ub3c4 \ubb34\uc8fc\uad70 \uc124\ucc9c\uba74 \uc0bc\uacf5\ub9ac 411", "lat": "35.901189", "lng": "127.775679"}, {"statNm": "SK \uc81c\uc77c\uc8fc\uc720\uc18c", "addr": "\uc804\ub77c\ubd81\ub3c4 \ub0a8\uc6d0\uc2dc \uc8fc\uc0dd\uba74 \uc81c\ucc9c\ub9ac 245", "lat": "35.372288", "lng": "127.312663"}, {"statNm": "\ub0a8\uc6d0\uc0c8\ub9c8\uc744\uae08\uace0\uc8fc\uc720\uc18c", "addr": "\uc804\ub77c\ubd81\ub3c4 \ub0a8\uc6d0\uc2dc \uae08\ub3d9 437-6", "lat": "35.406314", "lng": "127.372393"}, {"statNm": "SK \uc6b4\ubd09\uc8fc\uc720\uc18c", "addr": "\uc804\ub77c\ubd81\ub3c4 \ub0a8\uc6d0\uc2dc \uc6b4\ubd09\uc74d \ud669\uc0b0\ub85c1026", "lat": "35.437148", "lng": "127.524895"}, {"statNm": "SK \uc11c\uc6b8\uc8fc\uc720\uc18c", "addr": "\uc804\ub77c\ubd81\ub3c4 \uad70\uc0b0\uc2dc \uc11c\uc218\uba74 \ub3d9\uad70\uc0b0\ub85c 984", "lat": "36.003038", "lng": "126.869701"}, {"statNm": "\uc2a4\ud30c\ub77c\ucfe0\uc544", "addr": "\uc804\ub77c\ubd81\ub3c4 \uc804\uc8fc\uc2dc \uc644\uc0b0\uad6c \uc2e0\ucd0c3\uae3824\ubc88\uc9c0", "lat": "35.817418", "lng": "127.115631"}, {"statNm": "\ub86f\ub370\ub9c8\ud2b8 \ub0a8\uc6d0\uc810", "addr": "\uc804\ub77c\ubd81\ub3c4 \ub0a8\uc6d0\uc2dc \ud5a5\uad50\ub3d9 \ucd98\ud5a5\ub85c 96 (\ud5a5\uad50\ub3d9)", "lat": "35.423317", "lng": "127.39247"}, {"statNm": "\uae40\uc81c\uc2dc \uad00\uad11\uc548\ub0b4\uc18c", "addr": "\uc804\ub77c\ubd81\ub3c4 \uae40\uc81c\uc2dc \uae08\uc0b0\uba74 \uae08\uc0b0\ub9ac 203-2, \ub300\ud615 \uc8fc\ucc28\uc7a5", "lat": "35.7173289", "lng": "127.0400475"}, {"statNm": "\uace0\uc0b0\uc2dc\uc7a5 \uc8fc\ucc28\uc7a5", "addr": "\uc804\ub77c\ubd81\ub3c4 \uc644\uc8fc\uad70 \uace0\uc0b0\uba74 \uc74d\ub0b4\ub9ac 919, \uc785\uad6c \uc88c\uce21", "lat": "35.9738738", "lng": "127.2049296"}, {"statNm": "\ub300\ub454\uc0b0 \uc8fc\ucc28\uc7a5", "addr": "\uc804\ub77c\ubd81\ub3c4 \uc644\uc8fc\uad70 \uc6b4\uc8fc\uba74 \uc0b0\ubd81\ub9ac 610-15", "lat": "36.1174505", "lng": "127.3339364"}, {"statNm": "\uc804\uae30\uc548\uc804\uacf5\uc0ac \ubcf8\uc0ac", "addr": "\uc804\ub77c\ubd81\ub3c4 \uc644\uc8fc\uad70 \uc774\uc11c\uba74 \uc624\uacf5\ub85c 12, \uc785\uad6c \uc6b0\uce21", "lat": "35.8348483", "lng": "127.0570093"}, {"statNm": "\uc0c8\ub9cc\uae08\uacbd\uc81c\uc790\uc720\uad6c\uc5ed\uc0ac\uc5c5\ub2e8", "addr": "\uc804\ub77c\ubd81\ub3c4 \uad70\uc0b0\uc2dc \uc624\uc2dd\ub3c4\ub3d9 1010", "lat": "35.946572", "lng": "126.5854209"}, {"statNm": "\uace0\ucc3d\uace0\uc778\ub3cc\ud734\uac8c\uc18c(\uc2dc\ud765\ubc29\ud5a5)", "addr": "\uc804\ub77c\ubd81\ub3c4 \uace0\ucc3d\uad70 \uace0\ucc3d\uc74d \uc11c\ud574\uc548\uace0\uc18d\ub3c4\ub85c 80", "lat": "35.461448", "lng": "126.6727203"}, {"statNm": "\uace0\ucc3d\uace0\uc778\ub3cc\ud734\uac8c\uc18c(\ubaa9\ud3ec\ubc29\ud5a5)", "addr": "\uc804\ub77c\ubd81\ub3c4 \uace0\ucc3d\uad70 \uc2e0\ub9bc\uba74 \uc11c\ud574\uc548\uace0\uc18d\ub3c4\ub85c 81", "lat": "35.4691375", "lng": "126.6740688"}, {"statNm": "\uad70\uc0b0\ud734\uac8c\uc18c(\uc2dc\ud765\ubc29\ud5a5)", "addr": "\uc804\ub77c\ubd81\ub3c4 \uad70\uc0b0\uc2dc \ub098\ud3ec\uba74 \uc11c\ud574\uc548\uace0\uc18d\ub3c4\ub85c 148", "lat": "36.0196253", "lng": "126.7973109"}, {"statNm": "\uad70\uc0b0\ud734\uac8c\uc18c(\ubaa9\ud3ec\ubc29\ud5a5)", "addr": "\uc804\ub77c\ubd81\ub3c4 \uad70\uc0b0\uc2dc \uc131\uc0b0\uba74 \uc11c\ud574\uc548\uace0\uc18d\ub3c4\ub85c 141", "lat": "35.9803208", "lng": "126.8295334"}, {"statNm": "\uae40\uc81c\uc2dc\uccad", "addr": "\uc804\ub77c\ubd81\ub3c4 \uae40\uc81c\uc2dc \uc911\uc559\ub85c 40", "lat": "35.8030384", "lng": "126.8794421"}, {"statNm": "\ucd98\ud5a5\ud14c\ub9c8\ud30c\ud06c", "addr": "\uc804\ub77c\ubd81\ub3c4 \ub0a8\uc6d0\uc2dc \uc591\ub9bc\uae38 14-9", "lat": "35.4037818", "lng": "127.3867063"}, {"statNm": "\uc904\ud3ec\uba74\ubcf4\uac74\uc9c0\uc18c", "addr": "\uc804\ub77c\ubd81\ub3c4 \ubd80\uc548\uad70 \uc904\ud3ec\uba74 \uc904\ud3ec4\uae38 4", "lat": "35.5905929", "lng": "126.6771364"}, {"statNm": "\ucd94\ub839\uc7a5\uc2b9\ucd0c\ud14c\ub9c8\uacf5\uc6d0", "addr": "\uc804\ub77c\ubd81\ub3c4 \uc21c\ucc3d\uad70 \ubcf5\ud765\uba74 \ucd94\ub839\ub85c 1792-12", "lat": "35.4772758", "lng": "126.9271275"}, {"statNm": "\uc21c\ucc3d\uc74d\uc0ac\ubb34\uc18c \uc55e \ucc9c\ubcc0\uc8fc\ucc28\uc7a5", "addr": "\uc804\ub77c\ubd81\ub3c4 \uc21c\ucc3d\uad70 \uc21c\ucc3d\uc74d \uc7a5\ub958\ub85c 407-7", "lat": "35.3780971", "lng": "127.1463045"}, {"statNm": "\uc0c1\uad00\uba74\uc0ac\ubb34\uc18c", "addr": "\uc804\ub77c\ubd81\ub3c4 \uc644\uc8fc\uad70 \uc0c1\uad00\uba74 \uc2e0\ub9ac\ub85c 105", "lat": "35.7715231", "lng": "127.2072809"}, {"statNm": "\uc784\uc2e4\uad70\uccad", "addr": "\uc804\ub77c\ubd81\ub3c4 \uc784\uc2e4\uad70 \uc784\uc2e4\uc74d \uc218\uc815\ub85c 30", "lat": "35.6179929", "lng": "127.2880088"}, {"statNm": "\uce60\ubcf4\uba74\uc0ac\ubb34\uc18c", "addr": "\uc804\ub77c\ubd81\ub3c4 \uc815\uc74d\uc2dc \uce60\ubcf4\uba74 \uce60\ubcf4\uc911\uc559\ub85c 68", "lat": "35.6023975", "lng": "126.9935406"}, {"statNm": "\uc815\uc74d\uc2dc\uccad", "addr": "\uc804\ub77c\ubd81\ub3c4 \uc815\uc74d\uc2dc \ucda9\uc815\ub85c 234", "lat": "35.570499", "lng": "126.8559667"}, {"statNm": "\uace0\ucc3d\uad70\uccad \ubcc4\uad00", "addr": "\uc804\ub77c\ubd81\ub3c4 \uace0\ucc3d\uad70 \uace0\ucc3d\uc74d \uc74d\ub0b4\ub9ac 192-3", "lat": "35.436435", "lng": "126.700382"}, {"statNm": "\uc11d\uc815\uc628\ucc9c\uad00\uad11\uc9c0", "addr": "\uc804\ub77c\ubd81\ub3c4 \uace0\ucc3d\uad70 \uace0\ucc3d\uc74d \uc11d\uc815\ub9ac 792-5", "lat": "35.42982", "lng": "126.740767"}, {"statNm": "\ud765\ub355\uba74 \uc0ac\ubb34\uc18c", "addr": "\uc804\ub77c\ubd81\ub3c4 \uace0\ucc3d\uad70 \ud765\ub355\uba74 \ubb38\ud6542\uae38 27", "lat": "35.517547", "lng": "126.703636"}, {"statNm": "\uad70\uc0b0\ud734\uac8c\uc18c(\uc2dc\ud765\ubc29\ud5a5)", "addr": "\uc804\ub77c\ubd81\ub3c4 \uad70\uc0b0\uc2dc \ub098\ud3ec\uba74 \uc11c\ud574\uc548\uace0\uc18d\ub3c4\ub85c 3182", "lat": "36.01961", "lng": "126.797311"}, {"statNm": "\ucd98\ud5a5\uace8 \ub18d\ud611\uc2e0\uc6d4\uc9c0\uc810", "addr": "\uc804\ub77c\ubd81\ub3c4 \ub0a8\uc6d0\uc2dc \uae08\uc9c0\uba74 \uae08\uc9c0\uc21c\ud658\uae38 917-31", "lat": "35.357484", "lng": "127.304436"}, {"statNm": "\ubaa8\uc545\uc0b0 \uad00\ub9ac\uc0ac\ubb34\uc18c", "addr": "\uc804\ub77c\ubd81\ub3c4 \uc644\uc8fc\uad70 \uad6c\uc774\uba74 \ubaa8\uc545\uc0b0\uae38 83-13", "lat": "35.729426", "lng": "127.110283"}, {"statNm": "\uc18c\uc591\uba74 \uc0ac\ubb34\uc18c", "addr": "\uc804\ub77c\ubd81\ub3c4 \uc644\uc8fc\uad70 \uc18c\uc591\uba74 \uc18c\uc591\ub85c 161", "lat": "35.853942", "lng": "127.225737"}, {"statNm": "\uc774\uc11c\uba74 \uc0ac\ubb34\uc18c", "addr": "\uc804\ub77c\ubd81\ub3c4 \uc644\uc8fc\uad70 \uc774\uc11c\uba74 \uc774\uc11c\ub85c 55", "lat": "35.820747", "lng": "127.022453"}, {"statNm": "\ub18d\uc5c5\uae30\uc220\uc2e4\uc6a9\ud654\uc7ac\ub2e8", "addr": "\uc804\ub77c\ubd81\ub3c4 \uc775\uc0b0\uc2dc \ud3c9\ub3d9\ub85c 457", "lat": "35.938514", "lng": "126.9333111"}, {"statNm": "\uc624\uc218\ud734\uac8c\uc18c(\uad11\uc591\ubc29\ud5a5)", "addr": "\uc804\ub77c\ubd81\ub3c4 \uc784\uc2e4\uad70 \uc624\uc218\uba74 \uc21c\ucc9c\uc644\uc8fc\uace0\uc18d\ub3c4\ub85c 73", "lat": "35.53977", "lng": "127.309083"}, {"statNm": "\uc624\uc218\ud734\uac8c\uc18c(\uc804\uc8fc\ubc29\ud5a5)", "addr": "\uc804\ub77c\ubd81\ub3c4 \uc784\uc2e4\uad70 \uc624\uc218\uba74 \uc21c\ucc9c\uc644\uc8fc\uace0\uc18d\ub3c4\ub85c 74", "lat": "35.539107", "lng": "127.310886"}, {"statNm": "\uc0b0\uc11c\uba74 \uc0ac\ubb34\uc18c", "addr": "\uc804\ub77c\ubd81\ub3c4 \uc7a5\uc218\uad70 \uc0b0\uc11c\uba74 \ubcf4\uc0b0\ub85c 1858", "lat": "35.583978", "lng": "127.396539"}, {"statNm": "\ucc9c\ucc9c\uba74 \uc0ac\ubb34\uc18c", "addr": "\uc804\ub77c\ubd81\ub3c4 \uc7a5\uc218\uad70 \ucc9c\ucc9c\uba74 \uc7a5\ucc9c\ub85c 1186", "lat": "35.733549", "lng": "127.532258"}, {"statNm": "\uc11c\ubd80\uc2e0\uc2dc\uac00\uc9c0\uacf5\uc601\uc8fc\ucc28\uc7a5", "addr": "\uc804\ub77c\ubd81\ub3c4 \uc804\uc8fc\uc2dc \uc644\uc0b0\uad6c \ud6a8\uc790\ub3d93\uac00 1712-10", "lat": "35.817533", "lng": "127.096936"}, {"statNm": "\uc6b0\uc5442\ub3d9 \uacf5\uc601\uc8fc\ucc28\uc7a5", "addr": "\uc804\ub77c\ubd81\ub3c4 \uc804\uc8fc\uc2dc \ub355\uc9c4\uad6c \uc0b0\uc815\ub3d9 862", "lat": "35.837903", "lng": "127.168354"}, {"statNm": "\uc778\ud6c43\ub3d9 \uc9c4\ubc84\ub4e4\uacf5\uc601\uc8fc\ucc28\uc7a5", "addr": "\uc804\ub77c\ubd81\ub3c4 \uc804\uc8fc\uc2dc \ub355\uc9c4\uad6c \uc778\ud6c4\ub3d91\uac00 807-6", "lat": "35.836117", "lng": "127.164467"}, {"statNm": "\uac15\ucc9c\uc0b0\ud734\uac8c\uc18c(\uad11\uc8fc\ubc29\ud5a5)", "addr": "\uc804\ub77c\ubd81\ub3c4 \uc21c\ucc3d\uad70 \uc21c\ucc3d\uc74d \uad11\uc8fc\ub300\uad6c\uace0\uc18d\ub3c4\ub85c 27", "lat": "35.365764", "lng": "127.105461"}, {"statNm": "\uc0c1\uad00\ub098\ub4e4\ubaa9 \ub9cc\ub0a8\uc758\uad11\uc7a5", "addr": "\uc804\ub77c\ubd81\ub3c4 \uc644\uc8fc\uad70 \uc0c1\uad00\uba74 \uc2e0\ub9ac 83\ubc88\uc9c0", "lat": "35.753017", "lng": "127.217897"}, {"statNm": "\ud558\uac00\uc9c0\uad6c \uacf5\uc6a9 \uc8fc\ucc28\uc7a5", "addr": "\uc804\ub77c\ubd81\ub3c4 \uc804\uc8fc\uc2dc \ub355\uc9c4\ub3d9 2\uac00 694-1", "lat": "35.841588", "lng": "127.11142"}, {"statNm": "\uc815\uc74d\uc2dc \ubcf4\uac74\uc18c", "addr": "\uc804\ub77c\ubd81\ub3c4 \uc815\uc74d\uc2dc \uc218\uc1311\ub85c 61", "lat": "35.577511", "lng": "126.854301"}, {"statNm": "\ub86f\ub370\ub9c8\ud2b8 \uc804\uc8fc\uc810", "addr": "\uc804\ub77c\ubd81\ub3c4 \uc804\uc8fc\uc2dc \uc644\uc0b0\uad6c \ud6a8\uc790\ub3d92\uac00 1234-3, 5\uce35", "lat": "35.816434", "lng": "127.102499"}, {"statNm": "\uc9c4\uc548\uad70 \ubcf4\uac74\uc18c", "addr": "\uc804\ub77c\ubd81\ub3c4 \uc9c4\uc548\uad70 \uc9c4\uc548\uc74d \uc9c4\ubb34\ub85c 1189", "lat": "35.79718", "lng": "127.434802"}, {"statNm": "\uace0\uc778\ub3cc\uacf5\uc6d0 \uc8fc\ucc28\uc7a5", "addr": "\uc804\ub77c\ubd81\ub3c4 \uace0\ucc3d\uad70 \uace0\ucc3d\uc74d \uace0\uc778\ub3cc\uacf5\uc6d0\uae38 74", "lat": "35.441001", "lng": "126.651707"}, {"statNm": "\uc120\uc6b4\uc0b0\ub3c4\ub9bd\uacf5\uc6d0 \uc8fc\ucc28\uc7a5", "addr": "\uc804\ub77c\ubd81\ub3c4 \uace0\ucc3d\uad70 \uc544\uc0b0\uba74 \uc0bc\uc778\ub9ac 126\ubc88\uc9c0", "lat": "35.503679", "lng": "126.587551"}, {"statNm": "\uad70\uc0b0\uacf5\ud56d", "addr": "\uc804\ub77c\ubd81\ub3c4 \uad70\uc0b0\uc2dc \uc625\uc11c\uba74 \uc0b0\ub3d9\uae38 2", "lat": "35.926752", "lng": "126.615773"}, {"statNm": "\uae40\uc81c\uad6d\ubbfc\uccb4\uc721\uc13c\ud130", "addr": "\uc804\ub77c\ubd81\ub3c4 \uae40\uc81c\uc2dc \uac80\uc0b0\ub3d9 433-21", "lat": "35.813476", "lng": "126.902492"}, {"statNm": "\ub0a8\uc6d0\uc5ec\uc131\ubb38\ud654\uc13c\ud130", "addr": "\uc804\ub77c\ubd81\ub3c4 \ub0a8\uc6d0\uc2dc \uc694\ucc9c\ub85c 1283", "lat": "35.397298", "lng": "127.363667"}, {"statNm": "\ub0a8\uc6d0\uc2dc\uccad", "addr": "\uc804\ub77c\ubd81\ub3c4 \ub0a8\uc6d0\uc2dc \uc2dc\uccad\ub85c 60", "lat": "35.416292", "lng": "127.390481"}, {"statNm": "\uc8fc\ucc9c\uba74 \uc0ac\ubb34\uc18c", "addr": "\uc804\ub77c\ubd81\ub3c4 \ub0a8\uc6d0\uc2dc \uc8fc\ucc9c\uba74 \uc815\ub839\uce58\ub85c 61", "lat": "35.390862", "lng": "127.441937"}, {"statNm": "\uacf0\uc18c\ub2e4\uc6a9\ub3c4\ubd80\uc9c0", "addr": "\uc804\ub77c\ubd81\ub3c4 \ubd80\uc548\uad70 \uc9c4\uc11c\uba74 \uacf0\uc18c\ub9ac 964", "lat": "35.588658", "lng": "126.611408"}, {"statNm": "\ubd80\uc548\uad6d\ubbfc\uccb4\uc721\uc13c\ud130", "addr": "\uc804\ub77c\ubd81\ub3c4 \ubd80\uc548\uad70 \ubd80\uc548\uc74d \uc11d\uc815\ub85c 162", "lat": "35.730959", "lng": "126.73641"}, {"statNm": "\ubbfc\uc18d\ub9c8\uc744 \uc8fc\ucc28\uc7a5", "addr": "\uc804\ub77c\ubd81\ub3c4 \uc21c\ucc3d\uad70 \uc21c\ucc3d\uc74d \ubc31\uc0b0\ub9ac 265-85", "lat": "35.369183", "lng": "127.110795"}, {"statNm": "\uc21c\ucc3d\uad70\uccad", "addr": "\uc804\ub77c\ubd81\ub3c4 \uc21c\ucc3d\uad70 \uc21c\ucc3d\uc74d \uc21c\ud654\ub9ac 388", "lat": "35.374877", "lng": "127.136875"}, {"statNm": "\uc775\uc0b0\uc2dc \ub18d\uc5c5\uae30\uc220\uc13c\ud130", "addr": "\uc804\ub77c\ubd81\ub3c4 \uc775\uc0b0\uc2dc \uc775\uc0b0\ub300\ub85c 1366-20", "lat": "36.0407", "lng": "126.958525"}, {"statNm": "\uc12c\uc9c4\uac15\ub310 \ubb3c\ubb38\ud654\uad00", "addr": "\uc804\ub77c\ubd81\ub3c4 \uc784\uc2e4\uad70 \uc6b4\uc554\uba74 \uac15\uc6b4\ub85c 1239", "lat": "35.60644", "lng": "127.110569"}, {"statNm": "\uc784\uc2e4\uad70 \ubb38\ud654\uccb4\uc721\uc13c\ud130", "addr": "\uc804\ub77c\ubd81\ub3c4 \uc784\uc2e4\uad70 \ucda9\ud6a8\ub85c 2096-16", "lat": "35.545517", "lng": "127.332649"}, {"statNm": "\uc7a5\uc218\ub204\ub9ac\ud30c\ud06c \uc8fc\ucc28\uc7a5", "addr": "\uc804\ub77c\ubd81\ub3c4 \uc7a5\uc218\uad70 \uc7a5\uc218\uc74d \ub17c\uac1c\uc0ac\ub2f9\uae38 65", "lat": "35.641802", "lng": "127.522652"}, {"statNm": "\uc5ec\uac00\ucea0\ud551\uc7a5", "addr": "\uc804\ub77c\ubd81\ub3c4 \uc815\uc74d\uc2dc \ub0b4\uc7a5\uc0b0\ub85c 390", "lat": "35.523652", "lng": "126.895518"}, {"statNm": "\ub0b4\uc7a5\uc0c1\ub3d9 \uacf5\uac10\ud50c\ub7ec\uc2a4\uc13c\ud130", "addr": "\uc804\ub77c\ubd81\ub3c4 \uc815\uc74d\uc2dc \uc0c1\ub3d9 258-4", "lat": "35.556232", "lng": "126.870936"}, {"statNm": "\uc815\uc74d \uc885\ud569\uacbd\uae30\uc7a5", "addr": "\uc804\ub77c\ubd81\ub3c4 \uc815\uc74d\uc2dc \uc0c1\ud3c9\ub3d9 62-3 \uff1f", "lat": "35.563359", "lng": "126.835408"}, {"statNm": "\uc815\uc74d\uc2dc \uc81c2\uccad\uc0ac \uc8fc\ucc28\uc7a5", "addr": "\uc804\ub77c\ubd81\ub3c4 \uc815\uc74d\uc2dc \uc815\uc6b0\ub0a8\ub85c 282", "lat": "35.62294", "lng": "126.895158"}, {"statNm": "\uacf5\uc124\uc6b4\ub3d9\uc7a5", "addr": "\uc804\ub77c\ubd81\ub3c4 \uc775\uc0b0\uc2dc \ubb34\uc655\ub85c 1397", "lat": "35.966547", "lng": "127.009811"}, {"statNm": "\uc804\uc8fc \uc6d4\ub4dc\ucef5\uacbd\uae30\uc7a5", "addr": "\uc804\ub77c\ubd81\ub3c4 \uc804\uc8fc\uc2dc \ub355\uc9c4\uad6c \uae30\ub9b0\ub300\ub85c 1055", "lat": "35.868871", "lng": "127.063387"}, {"statNm": "\uc218\ud611\uc911\uc559\ud68c \uc804\uc8fc\uacf5\ud310\uc7a5", "addr": "\uc804\ub77c\ubd81\ub3c4 \uc804\uc8fc\uc2dc \ub355\uc9c4\uad6c \ub3d9\ubd80\ub300\ub85c 1179", "lat": "35.869493", "lng": "127.116823"}, {"statNm": "\ub3d9\ub0a8\ubd80\uad8c \uacf5\uc601\uc8fc\ucc28\uc7a5", "addr": "\uc804\ub77c\ubd81\ub3c4 \uc804\uc8fc\uc2dc \uc644\uc0b0\uad6c \ub300\uc131\ub3d9 343-1", "lat": "35.80088", "lng": "127.169656"}, {"statNm": "\ubc30\uc0b0\uccb4\uc721\uacf5\uc6d0", "addr": "\uc804\ub77c\ubd81\ub3c4 \uc775\uc0b0\uc2dc \ub3d9\uc11c\ub85c 5-40", "lat": "35.962469", "lng": "126.941112"}, {"statNm": "\uc0ac\ub9e4\uba74\ubcf4\uac74\uc9c0\uc18c", "addr": "\uc804\ub77c\ubd81\ub3c4 \ub0a8\uc6d0\uc2dc \uc0ac\ub9e4\uba74 \uc624\uc2e01\uae38 8", "lat": "35.497843", "lng": "127.360343"}, {"statNm": "\uc0bc\ub840\uc2dc\uc7a5 \uc8fc\ucc28\uc7a5", "addr": "\uc804\ub77c\ubd81\ub3c4 \uc644\uc8fc\uad70 \uc0bc\ub840\uc74d \uc0bc\ub840\ub9ac 1410", "lat": "35.910105", "lng": "127.072718"}, {"statNm": "\uad6c\uc774\uba74\uc0ac\ubb34\uc18c", "addr": "\uc804\ub77c\ubd81\ub3c4 \uc644\uc8fc\uad70 \uad6c\uc774\uba74 \uad6c\uc774\ub85c 1482", "lat": "35.731976", "lng": "127.120308"}, {"statNm": "\uc624\uc0b0\uba74\ud589\uc815\ubcf5\uc9c0\uc13c\ud130", "addr": "\uc804\ub77c\ubd81\ub3c4 \uc775\uc0b0\uc2dc \uc624\uc0b0\uba74 \ud3c9\ub3d9\ub85c 323", "lat": "35.938599", "lng": "126.916585"}, {"statNm": "\uad00\ucd0c1\uad6c \uacf5\uc601\uc8fc\ucc28\uc7a5", "addr": "\uc804\ub77c\ubd81\ub3c4 \uc784\uc2e4\uad70 \uad00\ucd0c\uba74 \uad00\ucd0c\ub9ac 299-10", "lat": "35.673301", "lng": "127.269031"}, {"statNm": "\uc1a1\ucc9c2\ub3d9(\uc2dc\uc601)\uacf5\uc601\uc8fc\ucc28\uc7a5", "addr": "\uc804\ub77c\ubd81\ub3c4 \uc804\uc8fc\uc2dc \ub355\uc9c4\uad6c \uc1a1\ucc9c\ub3d92\uac00 1257", "lat": "35.867871", "lng": "127.114379"}, {"statNm": "\uc544\uc911\uc9c0\uad6c\ub86f\ub370APT\uc606\uacf5\uc601\uc8fc\ucc28\uc7a5", "addr": "\uc804\ub77c\ubd81\ub3c4 \uc804\uc8fc\uc2dc \ub355\uc9c4\uad6c \uc815\uc5b8\uc2e0\ub85c 151", "lat": "35.831669", "lng": "127.170714"}, {"statNm": "\uc138\ubcd1\uacf5\uc6d0", "addr": "\uc804\ub77c\ubd81\ub3c4 \uc804\uc8fc\uc2dc \ub355\uc9c4\uad6c \uc1a1\ucc9c\ub3d92\uac00 1316", "lat": "35.879621", "lng": "127.132533"}, {"statNm": "\ub9c8\ub839\uba74\uc0ac\ubb34\uc18c \uc8fc\ucc28\uc7a5", "addr": "\uc804\ub77c\ubd81\ub3c4 \uc9c4\uc548\uad70 \ub9c8\ub839\uba74 \uc194\uc5482\uae38 8", "lat": "35.734373", "lng": "127.370357"}, {"statNm": "\uc8fc\ucc9c\uba74\uc0ac\ubb34\uc18c \uc8fc\ucc28\uc7a5", "addr": "\uc804\ub77c\ubd81\ub3c4 \uc9c4\uc548\uad70 \uc8fc\ucc9c\uba74 \ub3d9\uc0c1\uc8fc\ucc9c\ub85c 2213", "lat": "35.974992", "lng": "127.425836"}, {"statNm": "\ud55c\uad6d\uc218\uc790\uc6d0\uacf5\uc0ac \uc6a9\ub2f4\uc9c0\uc0ac", "addr": "\uc804\ub77c\ubd81\ub3c4 \uc9c4\uc548\uad70 \uc548\ucc9c\uba74 \uc0bc\ub77d\ub9ac 1102-5", "lat": "35.944565", "lng": "127.529363"}, {"statNm": "\ubc88\uc554\uba74\uc0ac\ubb34\uc18c\uc606 \uacf5\uc601\uc8fc\ucc28\uc7a5", "addr": "\uc804\ub77c\ubd81\ub3c4 \uc7a5\uc218\uad70 \ubc88\uc554\uba74 \ub178\ub2e8\ub9ac 1149-1", "lat": "35.53159", "lng": "127.543549"}, {"statNm": "\uad70\uc0b0\uc2dc \ubcf4\uac74\uc18c", "addr": "\uc804\ub77c\ubd81\ub3c4 \uad70\uc0b0\uc2dc \uc218\uc1a1\ub3d9\ub85c 58", "lat": "35.964988", "lng": "126.719842"}, {"statNm": "\uad70\uc0b0\uc2dc \uc138\ubb34\uc11c", "addr": "\uc804\ub77c\ubd81\ub3c4 \uad70\uc0b0\uc2dc \ubbf8\uc7a5\ub3d9 525", "lat": "35.963986", "lng": "126.733593"}, {"statNm": "\uae40\uc81c\ubb38\ud654\uc608\uc220\ud68c\uad00", "addr": "\uc804\ub77c\ubd81\ub3c4 \uae40\uc81c\uc2dc \uc131\uc0b0\uae38 20", "lat": "35.803223", "lng": "126.877496"}, {"statNm": "\ub178\uc554\ub3d9 \uacf5\uc601\uc8fc\ucc28\uc7a5", "addr": "\uc804\ub77c\ubd81\ub3c4 \ub0a8\uc6d0\uc2dc \ub178\uc554\ub3d9 612-7", "lat": "35.393046", "lng": "127.374048"}, {"statNm": "\uc804\ub77c\ubd81\ub3c4 \uc778\uc7ac\uac1c\ubc1c\uc6d0", "addr": "\uc804\ub77c\ubd81\ub3c4 \ub0a8\uc6d0\uc2dc \uc0b0\uc131\uae38 87", "lat": "35.422605", "lng": "127.371942"}, {"statNm": "\uc30d\uce58\uba74 \ucee4\ubba4\ub2c8\ud2f0\uc13c\ud130", "addr": "\uc804\ub77c\ubd81\ub3c4 \uc21c\ucc3d\uad70 \uc30d\uce58\uba74 \uc30d\uacc4\ub9ac 454-10", "lat": "35.50018", "lng": "127.000474"}, {"statNm": "\ubc30\uc0b0\uccb4\uc721\uacf5\uc6d0", "addr": "\uc804\ub77c\ubd81\ub3c4 \uc775\uc0b0\uc2dc \ub3d9\uc11c\ub85c 21", "lat": "35.959593", "lng": "126.939775"}, {"statNm": "\uacc4\ubd81\uba74\uc885\ud569\ubcf5\uc9c0\ud68c\uad00", "addr": "\uc804\ub77c\ubd81\ub3c4 \uc7a5\uc218\uad70 \uacc4\ubd81\uba74 \uc7a5\ubb34\ub85c 962-5", "lat": "35.785359", "lng": "127.613241"}, {"statNm": "\ud55c\uad6d\uad6d\ud1a0\uc815\ubcf4\uacf5\uc0ac \ubcf8\uc0ac", "addr": "\uc804\ub77c\ubd81\ub3c4 \uc804\uc8fc\uc2dc \ub355\uc9c4\uad6c \uae30\uc9c0\ub85c 120", "lat": "35.838473", "lng": "127.066237"}, {"statNm": "\uc804\ub77c\ubd81\ub3c4\uad50\uc721\uccad", "addr": "\uc804\ub77c\ubd81\ub3c4 \uc804\uc8fc\uc2dc \uc644\uc0b0\uad6c \ud64d\uc0b0\ub85c 111", "lat": "35.804863", "lng": "127.103247"}, {"statNm": "\ubaa8\uc545\uc0b0\uc8fc\ucc28\uc7a5 \uacf5\uc601\uc8fc\ucc28\uc7a5", "addr": "\uc804\ub77c\ubd81\ub3c4 \uc804\uc8fc\uc2dc \uc644\uc0b0\uad6c \uc911\uc7781\uae38 254", "lat": "35.757959", "lng": "127.086404"}, {"statNm": "\uc2e0\uc77c\uac15\ubcc0APT\uc55e \uacf5\uc601\uc8fc\ucc28\uc7a5", "addr": "\uc804\ub77c\ubd81\ub3c4 \uc804\uc8fc\uc2dc \uc644\uc0b0\uad6c \uac15\ubcc0\ub85c 98", "lat": "35.799056", "lng": "127.11387"}, {"statNm": "\uad6d\ubbfc\uc5f0\uae08\uacf5\ub2e8 \ubcf8\uad00", "addr": "\uc804\ub77c\ubd81\ub3c4 \uc804\uc8fc\uc2dc \ub355\uc9c4\uad6c \ub9cc\uc131\ub3d9 1165", "lat": "35.837662", "lng": "127.072505"}, {"statNm": "\uc548\ucc9c\uba74\uc0ac\ubb34\uc18c \uc8fc\ucc28\uc7a5", "addr": "\uc804\ub77c\ubd81\ub3c4 \uc9c4\uc548\uad70 \uc548\ucc9c\uba74 \uc9c4\ubb34\ub85c 2998", "lat": "35.897277", "lng": "127.552307"}, {"statNm": "\ub355\uc9c4\uc608\uc220\ud68c\uad00", "addr": "\uc804\ub77c\ubd81\ub3c4 \uc804\uc8fc\uc2dc \ub355\uc9c4\uad6c \uad8c\uc0bc\ub4dd\ub85c 407", "lat": "35.847534", "lng": "127.119762"}, {"statNm": "\ub18d\uc5c5\uae30\uc220\uc13c\ud130", "addr": "\uc804\ub77c\ubd81\ub3c4 \ub0a8\uc6d0\uc2dc \uc774\ubc31\uba74 \uc774\ubc31\ub85c 309", "lat": "35.424971", "lng": "127.441106"}, {"statNm": "\uad6d\ubbfc\uac74\uac15\ubcf4\ud5d8\uacf5\ub2e8 \uae40\uc81c\uc9c0\uc0ac", "addr": "\uc804\ub77c\ubd81\ub3c4 \uae40\uc81c\uc2dc \ub3d9\uc11c\ub85c 317", "lat": "35.804273", "lng": "126.901249"}, {"statNm": "\uad70\uc0b0\uc2dc\uccad", "addr": "\uc804\ub77c\ubd81\ub3c4 \uad70\uc0b0\uc2dc \uc2dc\uccad\ub85c 17", "lat": "35.967892", "lng": "126.736263"}, {"statNm": "\uccad\uc18c\ub144\ub18d\uc0dd\uba85\uc13c\ud130", "addr": "\uc804\ub77c\ubd81\ub3c4 \uae40\uc81c\uc2dc \ubd80\ub7c9\uba74 \ubcbd\uace8\uc81c\ub85c 421", "lat": "35.752183", "lng": "126.850964"}, {"statNm": "\ub18d\ucd0c\uc9c4\ud765\uccad", "addr": "\uc804\ub77c\ubd81\ub3c4 \uc804\uc8fc\uc2dc \ub355\uc9c4\uad6c \ub18d\uc0dd\uba85\ub85c 300", "lat": "35.832", "lng": "127.05596"}, {"statNm": "\uc815\uc74d\uad50\ub3c4\uc18c \uc804\uae30\ucc28 \ucda9\uc804\uc18c", "addr": "\uc804\ub77c\ubd81\ub3c4 \uc815\uc74d\uc2dc \uc18c\uc131\uba74 \uc800\ub3d9\uae38 45", "lat": "35.575182", "lng": "126.797702"}, {"statNm": "\ubb34\uc8fcIC\ub9cc\ub0a8\uc758\uad11\uc7a5\uc810", "addr": "\uc804\ub77c\ubd81\ub3c4 \ubb34\uc8fc\uad70 \ubb34\uc8fc\ub85c 1739", "lat": "35.973357", "lng": "127.651458"}, {"statNm": "\uad6d\ub9bd\ubb34\ud615\uc720\uc0b0\uc6d0 \uc8fc\ucc28\uc7a5(2\uacf3)", "addr": "\uc804\ub77c\ubd81\ub3c4 \uc804\uc8fc\uc2dc \uc644\uc0b0\uad6c \uc11c\ud559\ub85c 95", "lat": "35.810342", "lng": "127.161033"}, {"statNm": "\ud48d\uc0b0\uba74 \uc8fc\ubbfc\uc885\ud569\ubcf5\uc9c0\uc13c\ud130", "addr": "\uc804\ub77c\ubd81\ub3c4 \uc21c\ucc3d\uad70 \ud48d\uc0b0\uba74 \ubc18\uc6d4\ub9ac 12-4", "lat": "35.336655", "lng": "127.138776"}, {"statNm": "\ub9c8\uc774\uc0b0\ub0a8\ubd80 \uc8fc\ucc28\uc7a5 CU\ud3b8\uc758\uc810 \uc55e", "addr": "\uc804\ub77c\ubd81\ub3c4 \uc9c4\uc548\uad70 \ub9c8\ub839\uba74 \ub3d9\ucd0c\ub9ac", "lat": "35.757211", "lng": "127.393399"}, {"statNm": "\ub9c8\uc774\uc0b0\ubd81\ubd80\uc8fc\ucc28\uc7a5 \ub300\ud615\ubc84\uc2a4\uc8fc\ucc28\uc7a5", "addr": "\uc804\ub77c\ubd81\ub3c4 \uc9c4\uc548\uad70 \uc9c4\uc548\uc74d \ub2e8\uc591\ub9ac", "lat": "35.767161", "lng": "127.414667"}, {"statNm": "\uc804\ubd81\ub300\ud559\uad50\ubcd1\uc6d0 \uc81c3\uc8fc\ucc28\uc7a5", "addr": "\uc804\ub77c\ubd81\ub3c4 \uc804\uc8fc\uc2dc \ub355\uc9c4\uad6c \uac74\uc9c0\ub85c", "lat": "35.845067", "lng": "127.141660"}, {"statNm": "\uc775\uc0b0 \uc911\uc559\uccb4\uc721\uacf5\uc6d0 \ubb38\ud654\uc6d0 \uc606 \uc8fc\ucc28\uc7a5", "addr": "\uc804\ub77c\ubd81\ub3c4 \uc775\uc0b0\uc2dc \ud558\ub098\ub85c", "lat": "35.947869", "lng": "126.987372"}, {"statNm": "\uc120\uc720\ub3c4 \ubb3c\ub7c9\uc7a5 \uacf5\uc601\uc8fc\ucc28\uc7a5", "addr": "\uc804\ub77c\ubd81\ub3c4 \uad70\uc0b0\uc2dc \uc625\ub3c4\uba74 \uc120\uc720\ub3c4\ub9ac", "lat": "35.807961", "lng": "126.414107"}, {"statNm": "\uad70\uc0b0 \uc7a5\uc790\ub3c4 \uacf5\uc601\uc8fc\ucc28\uc7a5", "addr": "\uc804\ub77c\ubd81\ub3c4 \uad70\uc0b0\uc2dc \uc625\ub3c4\uba74 \uc7a5\uc790\ub3c41\uae38", "lat": "35.812029", "lng": "126.397700"}, {"statNm": "\ub3d9\uad70\uc0b0(\uc11c\uc218)\uc0b0\uc5c5\ub2e8\uc9c0 \uad00\ub9ac\uc0ac\ubb34\uc18c \uc8fc\ucc28\uc7a5", "addr": "\uc804\ub77c\ubd81\ub3c4 \uad70\uc0b0\uc2dc \uc11c\uc218\uba74 \uc6a9\ucc9c\ub85c 334-23", "lat": "36.012387", "lng": "126.882940"}, {"statNm": "\uc11c\uad70\uc0b0(\uc625\uad6c)\uc0b0\uc5c5\ub2e8\uc9c0 \uad00\ub9ac\uc0ac\ubb34\uc18c \uc8fc\ucc28\uc7a5", "addr": "\uc804\ub77c\ubd81\ub3c4 \uad70\uc0b0\uc2dc \uc625\uad6c\uc74d \uad11\uc6d4\uae38 8-4", "lat": "35.928300", "lng": "126.712116"}, {"statNm": "\uad6d\uc545\uc758 \uc131\uc9c0", "addr": "\uc804\ub77c\ubd81\ub3c4 \ub0a8\uc6d0\uc2dc \uc6b4\ubd09\uc74d \ube44\uc804\uae38 69", "lat": "35.460017", "lng": "127.568242"}, {"statNm": "\ub0a8\uc6d0\uc2dc \uacf5\uc601\uc8fc\ucc28\uc7a5", "addr": "\uc804\ub77c\ubd81\ub3c4 \ub0a8\uc6d0\uc2dc \uc6a9\uc131\ub85c 66", "lat": "35.408947", "lng": "127.383746"}, {"statNm": "\ub0a8\uc6d0\uc2dc \ud654\uc7a5\ud488\uc0b0\uc5c5\uc9c0\uc6d0\uc13c\ud130", "addr": "\uc804\ub77c\ubd81\ub3c4 \ub0a8\uc6d0\uc2dc \uc2dc\ubb18\uae38 43", "lat": "35.388474", "lng": "127.374794"}, {"statNm": "\ub300\uac15\uba74\uc0ac\ubb34\uc18c", "addr": "\uc804\ub77c\ubd81\ub3c4 \ub0a8\uc6d0\uc2dc \ub300\uac15\uba74 \uc12c\uc9c4\ub85c 865 \ub300\uac15\uba74\uc0ac\ubb34\uc18c", "lat": "35.347276", "lng": "127.227844"}, {"statNm": "\uc1a1\ub3d9\uba74\uc0ac\ubb34\uc18c", "addr": "\uc804\ub77c\ubd81\ub3c4 \ub0a8\uc6d0\uc2dc \uc1a1\ub3d9\uba74 \uc1a1\uae30\uae38 56", "lat": "35.354714", "lng": "127.336987"}, {"statNm": "\uc218\uc9c0\uba74\uc0ac\ubb34\uc18c", "addr": "\uc804\ub77c\ubd81\ub3c4 \ub0a8\uc6d0\uc2dc \uc218\uc9c0\uba74 \uace0\uc8fc\ub85c 623-10", "lat": "35.339211", "lng": "127.371561"}, {"statNm": "\uc6b4\ubd09\uc74d \uacf5\uc601\uc8fc\ucc28\uc7a5", "addr": "\uc804\ub77c\ubd81\ub3c4 \ub0a8\uc6d0\uc2dc \uc6b4\ubd09\uc74d \uc11c\ucc9c1\uae38 21-2", "lat": "35.437063", "lng": "127.530877"}, {"statNm": "\ud5a5\uad50\ub3d9 \uacf5\uc601\uc8fc\ucc28\uc7a5", "addr": "\uc804\ub77c\ubd81\ub3c4 \ub0a8\uc6d0\uc2dc \ubd95\ub9db1\uae38 6", "lat": "35.417400", "lng": "127.380822"}, {"statNm": "\ubb34\uc8fc\ubc18\ub514\ub79c\ub4dc", "addr": "\uc804\ub77c\ubd81\ub3c4 \ubb34\uc8fc\uad70 \uc124\ucc9c\uba74 \ubb34\uc124\ub85c 1324", "lat": "36.013009", "lng": "127.759121"}, {"statNm": "\ub0a8\ubd80\uc548\ub18d\ud611\uacbd\uc81c\uc13c\ud0c0", "addr": "\uc804\ub77c\ubd81\ub3c4 \ubd80\uc548\uad70 \ubcf4\uc548\uba74 \ubd80\uc548\ub85c 1197", "lat": "35.615283", "lng": "126.668929"}, {"statNm": "\uc0c1\uc11c\uba74\uc0ac\ubb34\uc18c \uc8fc\ucc28\uc7a5", "addr": "\uc804\ub77c\ubd81\ub3c4 \ubd80\uc548\uad70 \uc0c1\uc11c\uba74 \ubd80\uc548\ub85c 2001", "lat": "35.686227", "lng": "126.678181"}, {"statNm": "\uc624\ud22c\uadf8\ub780\ub370 \uacf5\uc6a9\uc8fc\ucc28\uc7a5", "addr": "\uc81c\uc77c\uc624\ud22c\ub9c8\ud2b8 \uc55e \uc8fc\ucc28\uc7a5", "lat": "35.987822", "lng": "127.17734"}, {"statNm": "\uc775\uc0b0\ubb38\ud654\uccb4\uc721\uc13c\ud130", "addr": "\uc804\ub77c\ubd81\ub3c4 \uc775\uc0b0\uc2dc \uc120\ud654\ub85c 823", "lat": "35.968111", "lng": "126.998559"}, {"statNm": "\uc775\uc0b0\uc2dc\uccad \ubd81\ubd80\uccad\uc0ac", "addr": "\uc804\ub77c\ubd81\ub3c4 \uc775\uc0b0\uc2dc \ud568\uc5f4\uc911\uc559\ub85c 83", "lat": "36.079200", "lng": "126.966849"}, {"statNm": "\uc9c4\uc548\uc74d\uc0ac\ubb34\uc18c \uc8fc\ucc28\uc7a5", "addr": "\uc804\ub77c\ubd81\ub3c4 \uc775\uc0b0\uc2dc \ub300\uc131\uae38 5", "lat": "35.789395", "lng": "127.423293"}, {"statNm": "\uc778\uc6d4\uc804\ud1b5\uc2dc\uc7a5\uc8fc\ucc28\uc7a5", "addr": "\uc804\ub77c\ubd81\ub3c4 \ub0a8\uc6d0\uc2dc \uc778\uc6d4\uba74 \uc778\uc6d41\uae38 58", "lat": "35.462455", "lng": "127.601846"}, {"statNm": "\ubd80\ub0a8\uba74 \ud589\uc815\ubcf5\uc9c0\uc13c\ud130", "addr": "\uc804\ub77c\ubd81\ub3c4 \ubb34\uc8fc\uad70 \ubd80\ub0a8\uba74 \ub300\uc18c\uae38 3", "lat": "35.973710", "lng": "127.559052"}, {"statNm": "\ubcc0\uc0b0\uba74\uc0ac\ubb34\uc18c", "addr": "\uc804\ub77c\ubd81\ub3c4 \ubd80\uc548\uad70 \ubcc0\uc0b0\uba74 \uc9c0\uc11c\ub85c 77-2", "lat": "35.658627", "lng": "126.527218"}, {"statNm": "\ud568\ub77c\uba74 \ud589\uc815\ubcf5\uc9c0\uc13c\ud130", "addr": "\uc804\ub77c\ubd81\ub3c4 \uc775\uc0b0\uc2dc \ud568\ub77c\uba74 \ud568\ub77c1\uae38 65", "lat": "36.059918", "lng": "126.910486"}, {"statNm": "\uc2e0\ub355\uba74\uc0ac\ubb34\uc18c", "addr": "\uc804\ub77c\ubd81\ub3c4 \uc784\uc2e4\uad70 \uc2e0\ub355\uba74 \uc218\uc9c0\ub85c 94", "lat": "35.684093", "lng": "127.178118"}, {"statNm": "\ub17c\uac1c\uc0dd\uac00\uc9c0 \uc8fc\ucc28\uc7a5", "addr": "\uc804\ub77c\ubd81\ub3c4 \uc7a5\uc218\uad70 \uc7a5\uacc4\uba74 \uc758\uc554\ub85c 558", "lat": "35.680851", "lng": "127.620807"}, {"statNm": "\ud55c\ub204\ub9ac\uc804\ub2f9 \uc8fc\ucc28\uc7a5", "addr": "\uc804\ub77c\ubd81\ub3c4 \uc7a5\uc218\uad70 \ud55c\ub204\ub9ac\ub85c 394", "lat": "35.641276", "lng": "127.518072"}, {"statNm": "\ud55c\uad6d\uc804\uae30\uc548\uc804\uacf5\uc0ac \uc804\ubd81\uc11c\ubd80\uc9c0\uc0ac", "addr": "\uc804\ub77c\ubd81\ub3c4 \uc815\uc74d\uc2dc \ucca8\ub2e82\ub85c 119", "lat": "35.50267432", "lng": "126.84453264"}, {"statNm": "\uc774\ub9c8\ud2b8 \uc775\uc0b0\uc810", "addr": "\uc804\ub77c\ubd81\ub3c4 \uc775\uc0b0\uc2dc \ud3c9\ub3d9\ub85c 705", "lat": "35.930407", "lng": "126.958026"}, {"statNm": "\uacf5\uc6a9\uc8fc\ucc28\uc7a5(\uc74d\ub0b4\ub9ac)", "addr": "\uc804\ub77c\ubd81\ub3c4 \uace0\ucc3d\uad70 \uace0\ucc3d\uc74d \uc74d\ub0b4\ub9ac 371-4", "lat": "35.4321732", "lng": "126.6990506"}, {"statNm": "\uace0\ucc3d \ub300\uc0b0\uba74\uc0ac\ubb34\uc18c \uc8fc\ucc28\uc7a5", "addr": "\uc804\ub77c\ubd81\ub3c4 \uace0\ucc3d\uad70 \ub300\uc0b0\uba74 \ub300\uc131\ub85c 273", "lat": "35.3409517", "lng": "126.6036930"}, {"statNm": "\uc0c1\ud558\uc2e4\ub0b4\uccb4\uc721\uad00 \uc8fc\ucc28\uc7a5", "addr": "\uc804\ub77c\ubd81\ub3c4 \uace0\ucc3d\uad70 \uc0c1\ud558\uba74 \uc120\uc6b4\ub300\ub85c 810", "lat": "35.4455059", "lng": "126.4916877"}, {"statNm": "\uc0c1\uc0dd\uacbd\uc81c\uacfc\uc8fc\ucc28\uc7a5", "addr": "\uc804\ub77c\ubd81\ub3c4 \uace0\ucc3d\uad70 \ud574\ub9ac\uba74 \ud558\ub828\ub9ac189-5", "lat": "35.45966", "lng": "126.541226"}, {"statNm": "\uace0\uc218\uba74\uc0ac\ubb34\uc18c \uc8fc\ucc28\uc7a5", "addr": "\uc804\ub77c\ubd81\ub3c4 \uace0\ucc3d\uad70 \uace0\uc218\uba74 \uace0\uc778\ub3cc\ub300\ub85c 1412", "lat": "35.4093886", "lng": "126.6783483"}, {"statNm": "\ubbf8\uc7a5\uadfc\ub9b0\uacf5\uc6d0", "addr": "\uc804\ub77c\ubd81\ub3c4 \uad70\uc0b0\uc2dc \ubbf8\uc7a5\ub3d9 500-1", "lat": "35.96542", "lng": "126.729135"}, {"statNm": "\ub098\uc6b4\uadfc\ub9b0\uacf5\uc6d0", "addr": "\uc804\ub77c\ubd81\ub3c4 \uad70\uc0b0\uc2dc \ub098\uc6b4\ub3d9 156-1", "lat": "35.959297", "lng": "126.697788"}, {"statNm": "\uad6c\uc554 \uc5b4\ub9b0\uc774\uacf5\uc6d0", "addr": "\uc804\ub77c\ubd81\ub3c4 \uad70\uc0b0\uc2dc \uad6c\uc554\ub3d9 613", "lat": "35.988305", "lng": "126.743562"}, {"statNm": "\ud55c\uad6d\uc0b0\uc5c5\ub2e8\uc9c0\uacf5\ub2e8 \uc804\ubd81\uc9c0\uc5ed\ubcf8\ubd80", "addr": "\uc804\ub77c\ubd81\ub3c4 \uad70\uc0b0\uc2dc \uc0b0\ub2e8\ub0a8\ubd81\ub85c 169", "lat": "35.960968", "lng": "126.560352"}, {"statNm": "\ub18d\ub9bc\ucd95\uc0b0\uac80\uc5ed\ubcf8\ubd80 \ud638\ub0a8\uc9c0\uc5ed\ubcf8\ubd80", "addr": "\uc804\ub77c\ubd81\ub3c4 \uad70\uc0b0\uc2dc \ubbf8\uc7a58\uae387", "lat": "35.960462", "lng": "126.731837"}, {"statNm": "\uad11\uc8fc\uc9c0\ubc29\uace0\uc6a9\ub178\ub3d9\uccad \uad70\uc0b0\uc9c0\uccad", "addr": "\uc804\ub77c\ubd81\ub3c4 \uad70\uc0b0\uc2dc \uc870\ucd0c5\uae38 44", "lat": "35.971853", "lng": "126.736664"}, {"statNm": "\uad70\uc0b0\ud574\uc591\uacbd\ucc30\uc11c", "addr": "\uc804\ub77c\ubd81\ub3c4 \uad70\uc0b0\uc2dc \ucc3d\uae3821", "lat": "35.991226", "lng": "126.708007"}, {"statNm": "\uc18c\ub8e1\ub3d9 \ud589\uc815\ubcf5\uc9c0\uc13c\ud130", "addr": "\uc804\ub77c\ubd81\ub3c4 \uad70\uc0b0\uc2dc \uc124\ub9bc\uc5484\uae38 30", "lat": "35.973553", "lng": "126.683336"}, {"statNm": "\uc625\uad6c\uc74d\uc0ac\ubb34\uc18c", "addr": "\uc804\ub77c\ubd81\ub3c4 \uad70\uc0b0\uc2dc \uc625\uad6c\uc74d \uc625\uad6c\ub85c 6", "lat": "35.923043", "lng": "126.685102"}, {"statNm": "\ud574\uc2e0\ub3d9 \ud589\uc815\ubcf5\uc9c0\uc13c\ud130", "addr": "\uc804\ub77c\ubd81\ub3c4 \uad70\uc0b0\uc2dc \uc911\uc559\ub85c 220", "lat": "35.98982", "lng": "126.707511"}, {"statNm": "\uc8fd\uc0b0\ubcf5\uc9c0\uc0dd\ud65c\uad00", "addr": "\uc804\ub77c\ubd81\ub3c4 \uae40\uc81c\uc2dc \uc8fd\uc0b0\uba74 \uc8fd\uc0b03\uae38 3", "lat": "35.772423", "lng": "126.814896"}, {"statNm": "\uc9c0\ud3c9\uc120\uc0b0\ub2e8 \ube44\uc988\ub2c8\uc2a4\uc13c\ud130", "addr": "\uc804\ub77c\ubd81\ub3c4 \uae40\uc81c\uc2dc \ubc31\uc0b0\uba74 \ubd80\uac70\ub9ac 1597-10", "lat": "35.851174", "lng": "126.886701"}, {"statNm": "\ud55c\uad6d\uc0dd\uc0b0\uae30\uc220\uc5f0\uad6c\uc6d0 \ubfcc\ub9ac\uae30\uc220\uc9c0\uc6d0\uc13c\ud130", "addr": "\uc804\ub77c\ubd81\ub3c4 \uae40\uc81c\uc2dc \ubc31\uc0b0\uba74 \uc9c0\ud3c9\uc120\uc0b0\ub2e83\uae38 100", "lat": "35.848359", "lng": "126.870881"}, {"statNm": "\ub0a8\uc6d0\uacbd\ucc30\uc11c", "addr": "\uc804\ub77c\ubd81\ub3c4 \ub0a8\uc6d0\uc2dc \uad50\ub8e1\ub85c 185", "lat": "35.413696548", "lng": "127.37282178"}, {"statNm": "\uc655\uc815\ub3d9\uc0ac\ubb34\uc18c", "addr": "\uc804\ub77c\ubd81\ub3c4 \ub0a8\uc6d0\uc2dc \uc131\ud669\ub2e8\uae38 7", "lat": "35.4082342", "lng": "127.3696594"}, {"statNm": "\uad11\uce581\ub18d\uacf5\ub2e8\uc9c0 \uad00\ub9ac\uc0ac\ubb34\uc18c", "addr": "\uc804\ub77c\ubd81\ub3c4 \ub0a8\uc6d0\uc2dc \uad11\uce58\ub3d9 195-15", "lat": "35.44054442", "lng": "127.38450664"}, {"statNm": "\uad11\uce582\ub18d\uacf5\ub2e8\uc9c0 \uad00\ub9ac\uc0ac\ubb34\uc18c", "addr": "\uc804\ub77c\ubd81\ub3c4 \ub0a8\uc6d0\uc2dc \uc6a9\uc815\ub3d9 75-14", "lat": "35.43616735", "lng": "127.38076407"}, {"statNm": "\ub178\uc5541\ub18d\uacf5\ub2e8\uc9c0 \uad00\ub9ac\uc0ac\ubb34\uc18c", "addr": "\uc804\ub77c\ubd81\ub3c4 \ub0a8\uc6d0\uc2dc \ub178\uc554\ub3d9 839-1", "lat": "35.38655646", "lng": "127.37702929"}, {"statNm": "\ub0a8\uc6d0 \ub300\uc0b0\uba74\uc0ac\ubb34\uc18c \uc8fc\ucc28\uc7a5", "addr": "\uc804\ub77c\ubd81\ub3c4 \ub0a8\uc6d0\uc2dc \ub300\uc0b0\uba74 \uc6b4\uad501\uae38 26", "lat": "35.432021463", "lng": "127.32486773"}, {"statNm": "\uc6b4\ubd09\uc74d\ud589\uc815\ubcf5\uc9c0\uc13c\ud130", "addr": "\uc804\ub77c\ubd81\ub3c4 \ub0a8\uc6d0\uc2dc \uc6b4\ubd09\uc74d \ud669\uc0b0\ub85c 1083", "lat": "35.43934862", "lng": "127.52941703"}, {"statNm": "\uc778\uc6d4\uba74\ud589\uc815\ubcf5\uc9c0\uc13c\ud130", "addr": "\uc804\ub77c\ubd81\ub3c4 \ub0a8\uc6d0\uc2dc \uc778\uc6d4\uba74 \uc11c\ubb34\ub9ac 628-3", "lat": "35.46407952", "lng": "127.60017254"}, {"statNm": "\uc124\ucc9c\uba74\uc0ac\ubb34\uc18c", "addr": "\uc804\ub77c\ubd81\ub3c4 \ubb34\uc8fc\uad70 \uc124\ucc9c\uba74 \uc18c\ucc9c\ub9ac 903", "lat": "36.0082327", "lng": "127.7893577"}, {"statNm": "\ubb34\uc8fc\ub355\uc720\uc0b0\ub9ac\uc870\ud2b8", "addr": "\uc804\ub77c\ubd81\ub3c4 \ubb34\uc8fc\uad70 \uc124\ucc9c\uba74 \ub9cc\uc120\ub85c 185", "lat": "35.8910197", "lng": "127.737605"}, {"statNm": "\ubb34\ud48d\uba74 \ud589\uc815\ubcf5\uc9c0\uc13c\ud130", "addr": "\uc804\ub77c\ubd81\ub3c4 \ubb34\uc8fc\uad70 \ubb34\ud48d\uba74 \ud604\ub0b4\ub9ac 574", "lat": "35.9695937", "lng": "127.84503240"}, {"statNm": "\ubb34\uc8fc\uad70\uccad \ucc28\uc27c\ud130", "addr": "\uc804\ub77c\ubd81\ub3c4 \ubb34\uc8fc\uad70 \ubb34\uc8fc\uc74d \uc8fc\uacc4\ub85c 101", "lat": "37.00674853", "lng": "127.66154737"}, {"statNm": "\ub9e4\ucc3d\uacf5\uc6d0 \uc804\uae30\uc790\ub3d9\ucc28 \ucda9\uc804\uc18c", "addr": "\uc804\ub77c\ubd81\ub3c4 \ubd80\uc548\uad70 \ubd80\uc548\uc74d \uc11c\uc678\ub9ac 566", "lat": "35.7187082", "lng": "126.7281779"}, {"statNm": "\ubcc0\uc0b0\ubc18\ub3c4\uad6d\ub9bd\uacf5\uc6d0 \uace0\uc0ac\ud3ec \uc57c\uc601\uc7a5", "addr": "\uc804\ub77c\ubd81\ub3c4 \ubd80\uc548\uad70 \ubcc0\uc0b0\ud574\ubcc0\ub85c 765", "lat": "35.662731", "lng": "126.510811"}, {"statNm": "\ubcc0\uc0b0\ubc18\ub3c4\uad6d\ub9bd\uacf5\uc6d0 \ub0b4\ubcc0\uc0b0\ubd84\uc18c \uc8fc\ucc28\uc7a5", "addr": "\uc804\ub77c\ubd81\ub3c4 \ubd80\uc548\uad70 \uc911\uacc4\ub9ac 190-8", "lat": "35.645452", "lng": "126.580576"}, {"statNm": "\ubb3c\uc18c\ub9ac \ud734\uac8c\uc18c \uc8fc\ucc28\uc7a5", "addr": "\uc804\ub77c\ubd81\ub3c4 \ubd80\uc548\uad70 \ubcc0\uc0b0\uba74 \uc911\uacc4\ub9ac 464-7", "lat": "35.672781", "lng": "126.565213"}, {"statNm": "\ubc31\uc0b0\uba74\uc0ac\ubb34\uc18c", "addr": "\uc804\ub77c\ubd81\ub3c4 \ubd80\uc548\uad70 \ubc31\uc0b0\uba74 \ubc31\uc0b0\ub85c 335", "lat": "35.70420750", "lng": "126.78727210"}, {"statNm": "\ubd80\uc548 \ub204\uc5d0\ud0c0\uc6b4", "addr": "\uc804\ub77c\ubd81\ub3c4 \ubd80\uc548\uad70 \ubcc0\uc0b0\uba74 \ub9c8\ud3ec\ub9ac 87-26", "lat": "35.63277", "lng": "126.512561"}, {"statNm": "\uc904\ud3ec\uba74\uc0ac\ubb34\uc18c", "addr": "\uc804\ub77c\ubd81\ub3c4 \ubd80\uc548\uad70 \uc904\ud3ec\uba74 \uc904\ud3ec\ub9ac 408-1", "lat": "35.591481", "lng": "126.677972"}, {"statNm": "\uac15\ucc9c\uc0b0\uad70\ub9bd\uacf5\uc6d0", "addr": "\uc804\ub77c\ubd81\ub3c4 \uc21c\ucc3d\uad70 \ud314\ub355\uba74 \uccad\uacc4\ub9ac 958-18", "lat": "35.408887", "lng": "127.070194"}, {"statNm": "\uc644\uc8fc\uc18c\uc15c\uad7f\uc988\ud601\uc2e0\ud30c\ud06c(\uad6c\uc0bc\ub840\uc911\ud559\uad50)", "addr": "\uc804\ub77c\ubd81\ub3c4 \uc644\uc8fc\uad70 \uc0bc\ub840\uc74d \uc0bc\ub840\ub9ac 182", "lat": "35.9235", "lng": "127.084625"}, {"statNm": "\uc544\uc0ac\ub2ec\uacf5\uc6d0", "addr": "\uc804\ub77c\ubd81\ub3c4 \uc775\uc0b0\uc2dc \ud568\uc5f4\uc74d \ud568\ub0ad\ub85c 492", "lat": "36.07364691", "lng": "126.96214856"}, {"statNm": "\uc6a9\ub3d9\uccb4\uc721\uacf5\uc6d0", "addr": "\uc804\ub77c\ubd81\ub3c4 \uc775\uc0b0\uc2dc \uc6a9\ub3d9\uba74 \ub300\uc870\ub9ac 814", "lat": "36.109654059", "lng": "126.99203280"}, {"statNm": "\uc5ec\uc0b0\uccb4\uc721\uacf5\uc6d0", "addr": "\uc804\ub77c\ubd81\ub3c4 \uc775\uc0b0\uc2dc \uc5ec\uc0b0\uba74 \uc5ec\uc0b0\ub9ac 332", "lat": "36.05978732", "lng": "127.08326902"}, {"statNm": "\ub18d\ucd0c\ud14c\ub9c8\uacf5\uc6d0", "addr": "\uc804\ub77c\ubd81\ub3c4 \uc775\uc0b0\uc2dc \uae08\ub9c8\uba74 \uae08\ub9c8\ud638\uc218\uae38 387", "lat": "36.00705350", "lng": "127.05474850"}, {"statNm": "\uc655\uad81\ub9ac\uc720\uc801\uc804\uc2dc\uad00", "addr": "\uc804\ub77c\ubd81\ub3c4 \uc775\uc0b0\uc2dc \uc655\uad81\uba74 \uad81\uc131\ub85c666", "lat": "35.971017", "lng": "127.054025"}, {"statNm": "\uc815\uc218\uc6d0(\uc804 \uc775\uc0b0\ubb18\uc9c0\uacf5\uc6d0)", "addr": "\uc804\ub77c\ubd81\ub3c4 \uc775\uc0b0\uc2dc \ubb34\uc655\ub85c 1471-63", "lat": "35.9732451", "lng": "127.0177473"}, {"statNm": "\ud314\ubd09\ud55c\uc194\uacf5\uc6d0", "addr": "\uc804\ub77c\ubd81\ub3c4 \uc775\uc0b0\uc2dc \ud314\ubd09\ub3d9 883", "lat": "35.960311", "lng": "127.016039"}, {"statNm": "\ub178\uc778\uc885\ud569\ubcf5\uc9c0\uad00(\uc804 \ubc30\uc0b0\uadfc\ub9b0\uacf5\uc6d0)", "addr": "\uc804\ub77c\ubd81\ub3c4 \uc775\uc0b0\uc2dc \ub3d9\uc11c\ub85c 103", "lat": "35.95614", "lng": "126.94549"}, {"statNm": "\ud669\ub4f1\uc0dd\ud65c\uccb4\uc721\uacf5\uc6d0", "addr": "\uc804\ub77c\ubd81\ub3c4 \uc775\uc0b0\uc2dc \ud669\ub4f1\uba74 \ud669\ub4f1\ub9ac 656-2", "lat": "36.010261759", "lng": "126.94598970"}, {"statNm": "4\uc0b0\uc5c5\ub2e8\uc9c0 \uc8fc\ucc28\uc7a5", "addr": "\uc804\ub77c\ubd81\ub3c4 \uc775\uc0b0\uc2dc \ud568\uc5f4\uc74d \ub2e4\uc1a1\ub9ac 888", "lat": "36.031409657", "lng": "126.95645398"}, {"statNm": "\uc0c1\ud558\uc218\ub3c4\uc0ac\uc5c5\ub2e8 \uccad\uc0ac", "addr": "\uc804\ub77c\ubd81\ub3c4 \uc775\uc0b0\uc2dc \ubcf4\uc11d\ub85c 81", "lat": "35.946407", "lng": "126.97165"}, {"statNm": "\uc6c5\ud3ec\uba74\ud589\uc815\ubcf5\uc9c0\uc13c\ud130", "addr": "\uc804\ub77c\ubd81\ub3c4 \uc775\uc0b0\uc2dc \uc6c5\ud3ec\uba74 \uac15\ubcc0\ub85c 9", "lat": "36.064169985", "lng": "126.87702097"}, {"statNm": "\uc131\uc218\uba74\uc0ac\ubb34\uc18c", "addr": "\uc804\ub77c\ubd81\ub3c4 \uc784\uc2e4\uad70 \uc131\uc218\uba74 \uc784\uc9c4\ub85c 213", "lat": "35.629926", "lng": "127.333105"}, {"statNm": "\uc7a5\uc218\uad70 \uacf5\uc601\uc8fc\ucc28\uc7a5", "addr": "\uc804\ub77c\ubd81\ub3c4 \uc7a5\uc218\uad70 \uc7a5\uc218\uc74d \uc7a5\uc218\ub9ac 456-5", "lat": "35.6486831", "lng": "127.5196246"}, {"statNm": "\uc640\ub8e1\uc790\uc5f0\ud734\uc591\ub9bc \uc8fc\ucc28\uc7a5", "addr": "\uc804\ub77c\ubd81\ub3c4 \uc7a5\uc218\uad70 \ucc9c\ucc9c\uba74 \ube44\ub8e1\ub9ac \uc0b0 49-10", "lat": "35.67975368", "lng": "127.47787225"}, {"statNm": "\uc7a5\uacc4\uba74 \uc2dc\uc7a5\uc8fc\ucc28\uc7a5", "addr": "\uc804\ub77c\ubd81\ub3c4 \uc7a5\uc218\uad70 \uacc4\ub0a8\uba74 \ud638\ub355\ub9ac 560-3", "lat": "35.7283349", "lng": "127.5809848"}, {"statNm": "\ub3d9\ubb3c\uc6d0 \uc8fc\ucc28\uc7a5", "addr": "\uc804\ub77c\ubd81\ub3c4 \uc804\uc8fc\uc2dc \ub355\uc9c4\uad6c \uc18c\ub9ac\ub85c 68", "lat": "35.854611", "lng": "127.142263"}, {"statNm": "\uc11c\uc11c\ud559\ub3d9 \ub9cc\ub0a8\uc758 \uad11\uc7a5", "addr": "\uc804\ub77c\ubd81\ub3c4 \uc804\uc8fc\uc2dc \uc644\uc0b0\uad6c \uc11c\uc11c\ud559\ub3d9 986-6", "lat": "35.797605", "lng": "127.149571"}, {"statNm": "\uc785\uc554\uba74\uc0ac\ubb34\uc18c", "addr": "\uc804\ub77c\ubd81\ub3c4 \uc815\uc74d\uc2dc \uc785\uc554\uba74 \uc815\uc74d\ub0a8\ub85c 489", "lat": "35.50386710", "lng": "126.79357580"}, {"statNm": "\uc0b0\uc678\uba74\uc0ac\ubb34\uc18c", "addr": "\uc804\ub77c\ubd81\ub3c4 \uc815\uc74d\uc2dc \uc0b0\uc678\uba74 \uc0b0\uc678\ub85c 438-4", "lat": "35.621237", "lng": "127.039787"}, {"statNm": "\uc815\uc6b0\uba74\uc0ac\ubb34\uc18c", "addr": "\uc804\ub77c\ubd81\ub3c4 \uc815\uc74d\uc2dc \uc815\uc6b0\uba74 \ucd08\uac15\ub9ac 40-2", "lat": "35.644658", "lng": "126.876174"}, {"statNm": "\ub0b4\uc7a5\uc0b0\uad6d\ub9bd\uacf5\uc6d0 \uc0ac\ubb34\uc18c", "addr": "\uc804\ub77c\ubd81\ub3c4 \uc815\uc74d\uc2dc \ub0b4\uc7a5\ud638\ubc18\ub85c 328", "lat": "35.509087", "lng": "126.909257"}, {"statNm": "\uc2e0\ud0dc\uc778\ub3c4\uc11c\uad00", "addr": "\uc804\ub77c\ubd81\ub3c4 \uc815\uc74d\uc2dc \uc2e0\ud0dc\uc778\ub9ac 214-2", "lat": "35.690108", "lng": "126.890385"}, {"statNm": "\uc6a9\ub2f4\uba74\uc0ac\ubb34\uc18c \uc8fc\ucc28\uc7a5", "addr": "\uc804\ub77c\ubd81\ub3c4 \uc9c4\uc548\uad70 \uc6a9\ub2f4\uba74 \uc1a1\ud48d\ub9ac 924-3", "lat": "35.9662614", "lng": "127.5205205"}, {"statNm": "\uc0c1\uc804\uba74\uc0ac\ubb34\uc18c \uc8fc\ucc28\uc7a5", "addr": "\uc804\ub77c\ubd81\ub3c4 \uc9c4\uc548\uad70 \uc0c1\uc804\uba74 \uc8fc\ud3c9\ub85c 41", "lat": "35.82266094", "lng": "127.48662234"}, {"statNm": "\ubc31\uc6b4\uba74\uc0ac\ubb34\uc18c \uc8fc\ucc28\uc7a5", "addr": "\uc804\ub77c\ubd81\ub3c4 \uc9c4\uc548\uad70 \ubc31\uc6b4\uba74 \uc784\uc9c4\ub85c 1297", "lat": "35.6889195", "lng": "127.3958599"}, {"statNm": "\ubd80\uadc0\uba74\uc0ac\ubb34\uc18c \uc8fc\ucc28\uc7a5", "addr": "\uc804\ub77c\ubd81\ub3c4 \uc9c4\uc548\uad70 \ubd80\uadc0\uba74 \ubd80\uadc0\ub85c 305-7", "lat": "35.8368743", "lng": "127.3606631"}, {"statNm": "\uad6d\ubbfc\uac74\uac15\ubcf4\ud5d8\uacf5\ub2e8 \uc9c4\uc548\uc9c0\uc0ac", "addr": "\uc804\ub77c\ubd81\ub3c4 \uc9c4\uc548\uad70 \uc9c4\uc548\uc74d \ud559\ucc9c\ubcc0\uae38 33", "lat": "35.7942441", "lng": "127.4352329"}, {"statNm": "\uacf5\uc6a9\uc8fc\ucc28\uc7a5(\uc6d4\uace1\ub9ac760)", "addr": "\uc804\ub77c\ubd81\ub3c4 \uace0\ucc3d\uad70 \uace0\ucc3d\uc74d \uc6d4\uace18\uae38 19", "lat": "35.4358247", "lng": "126.7132063"}, {"statNm": "\ubcf4\uac74\uc18c\uc8fc\ucc28\uc7a5", "addr": "\uc804\ub77c\ubd81\ub3c4 \uace0\ucc3d\uad70 \uace0\ucc3d\uc74d \uc804\ubd09\uc900\ub85c 90", "lat": "35.44347447", "lng": "126.68300911"}, {"statNm": "\uacf5\uc6a9\uc8fc\ucc28\uc7a5(\uc6d4\uace1\ub9ac 425-4)", "addr": "\uc804\ub77c\ubd81\ub3c4 \uace0\ucc3d\uad70 \uace0\ucc3d\uc74d \uc6d4\uace1\ub9ac 425-4", "lat": "35.44042174", "lng": "126.7116114"}, {"statNm": "\uc0c1\ud558\uba74\uc0ac\ubb34\uc18c \uc8fc\ucc28\uc7a5", "addr": "\uc804\ub77c\ubd81\ub3c4 \uace0\ucc3d\uad70 \uc0c1\ud558\uba74 \uc0c1\ud558\ub85c 84-11", "lat": "34.444673", "lng": "126.494846"}, {"statNm": "\uc0c8\ub9cc\uae08\ube44\uc751\uacf5\uc6d0\uc8fc\ucc28\uc7a5", "addr": "\uc804\ub77c\ubd81\ub3c4 \uad70\uc0b0\uc2dc \uc0c8\ub9cc\uae08\ubd81\ub85c 27", "lat": "35.9434929", "lng": "126.5386477"}, {"statNm": "28\uadfc\ub9b0\uacf5\uc6d0", "addr": "\uc804\ub77c\ubd81\ub3c4 \uad70\uc0b0\uc2dc \uc218\uc1a1\ub3d9 851", "lat": "35.9666169", "lng": "126.7206104"}, {"statNm": "\uc0c8\ub9cc\uae08\ucee8\ubca4\uc158\uc13c\ud130(\uc9c0\uc2a4\ucf54)", "addr": "\uc804\ub77c\ubd81\ub3c4 \uad70\uc0b0\uc2dc \uc0c8\ub9cc\uae08\ubd81\ub85c 437", "lat": "35.9496433", "lng": "126.5833844"}, {"statNm": "\uad70\uc0b0\uc9c0\ubc29\ud574\uc591\uc218\uc0b0\uccad", "addr": "\uc804\ub77c\ubd81\ub3c4 \uad70\uc0b0\uc2dc \uc124\ub9bc\uae38 11", "lat": "35.97223989", "lng": "126.68335884"}, {"statNm": "\uc0bc\ud559\ub3d9 \uc8fc\ubbfc\uc13c\ud130", "addr": "\uc804\ub77c\ubd81\ub3c4 \uad70\uc0b0\uc2dc \ubbf8\uc6d0\ub85c 17", "lat": "35.97661139", "lng": "126.70771491"}, {"statNm": "\ub300\ub3d9\ub18d\uacf5\ub2e8\uc9c0 \uad00\ub9ac\uc0ac", "addr": "\uc804\ub77c\ubd81\ub3c4 \uae40\uc81c\uc2dc \ub9cc\uacbd\uc74d \ub300\ub3d9\uacf5\ub2e82\uae38 12", "lat": "35.84862663", "lng": "126.86459091"}, {"statNm": "\ub9cc\uacbd\ub18d\uacf5\ub2e8\uc9c0 \uad00\ub9ac\uc0ac", "addr": "\uc804\ub77c\ubd81\ub3c4 \uae40\uc81c\uc2dc \ub9cc\uacbd\uc74d \ub9cc\uacbd\uacf5\ub2e81\uae38 7", "lat": "35.85782273", "lng": "126.81766913"}, {"statNm": "\uccad\uc18c\ub144\ubb38\ud654\uc758\uc9d1\uc606", "addr": "\uc804\ub77c\ubd81\ub3c4 \uae40\uc81c\uc2dc 468-65", "lat": "35.71607637", "lng": "126.99601566"}, {"statNm": "\ud5a5\uad50\ub3d9\ud589\uc815\ubcf5\uc9c0\uc13c\ud130", "addr": "\uc804\ub77c\ubd81\ub3c4 \ub0a8\uc6d0\uc2dc \ub3d9\ub9bc\ub85c 116", "lat": "35.41810145", "lng": "127.38455751"}, {"statNm": "\ubd80\uc548 \uccad\uc790\ubc15\ubb3c\uad00 \uc804\uae30\uc790\ub3d9\ucc28 \ucda9\uc804\uc18c", "addr": "\uc804\ub77c\ubd81\ub3c4 \ubd80\uc548\uad70 \ubcf4\uc548\uba74 \uc720\ucc9c\ub9ac 797-1", "lat": "35.61171398", "lng": "126.65297626"}, {"statNm": "\uc0ac\ud68c\ubcf5\uc9c0\ud68c\uad00 \uc804\uae30\uc790\ub3d9\ucc28 \ucda9\uc804\uc18c", "addr": "\uc804\ub77c\ubd81\ub3c4 \ubd80\uc548\uad70 \ubd80\uc548\uc74d \uc6a9\uc554\ub85c 134", "lat": "35.7164962", "lng": "126.7471431"}, {"statNm": "\uacc4\ud654\uba74\uc0ac\ubb34\uc18c\uc8fc\ucc28\uc7a5", "addr": "\uc804\ub77c\ubd81\ub3c4 \ubd80\uc548\uad70 \uacc4\ud654\uba74 \uac04\uc7ac\ub85c 405", "lat": "35.7618065", "lng": "126.6976857"}, {"statNm": "\ubcc0\uc0b0\uc790\uc5f0\ud734\uc591\ub9bc", "addr": "\uc804\ub77c\ubd81\ub3c4 \ubd80\uc548\uad70 \ubcc0\uc0b0\uba74 \ub3c4\uccad\ub9ac \uc0b01-147", "lat": "35.582649", "lng": "126.523762"}, {"statNm": "\ubaa8\ud56d\ud574\uc218\uc695\uc7a5", "addr": "\uc804\ub77c\ubd81\ub3c4 \ubd80\uc548\uad70 \ubcc0\uc0b0\uba74 \ub3c4\uccad\ub9ac 172", "lat": "35.58278215", "lng": "126.50823533"}, {"statNm": "\uc0c8\ub9cc\uae08 \ud658\uacbd\uc0dd\ud0dc\uc6a9\uc9c0(1\ub2e8\uacc4)", "addr": "\uc804\ub77c\ubd81\ub3c4 \ubd80\uc548\uad70 \ud558\uc11c\uba74 \uc7a5\uc2e0\ub9ac 1909-10", "lat": "35.74025220", "lng": "126.61499750"}, {"statNm": "\uc21c\ucc3d\uad70 \uacf5\uc124\uc6b4\ub3d9\uc7a5", "addr": "\uc804\ub77c\ubd81\ub3c4 \uc21c\ucc3d\uad70 \uc21c\ucc3d\uc74d \uad50\uc131\ub9ac 196-25", "lat": "35.37086744", "lng": "127.12947729"}, {"statNm": "\ub18d\uc5c5\uae30\uc220\uc13c\ud130", "addr": "\uc804\ub77c\ubd81\ub3c4 \uc21c\ucc3d\uad70 \uc720\ub4f1\uba74 \ub2f4\uc21c\ub85c 1548", "lat": "35.3800185", "lng": "127.1640051"}, {"statNm": "\uc774\uc11c\uacf5\uc601\uc8fc\ucc28\uc7a5", "addr": "\uc804\ub77c\ubd81\ub3c4 \uc644\uc8fc\uad70 \uc774\uc11c\uba74 \uc0c1\uac1c\ub9ac 560-2", "lat": "35.82085", "lng": "127.025316"}, {"statNm": "\ub18d\uc5c5\uc778\ud68c\uad00 \uc8fc\ucc28\uc7a5", "addr": "\uc804\ub77c\ubd81\ub3c4 \uc644\uc8fc\uad70 \uace0\uc0b0\uba74 \uace0\uc0b0\ucc9c\ub85c 720-45", "lat": "35.9839711", "lng": "127.2209866"}, {"statNm": "\ubd81\ubd80\uc2dc\uc7a5\uc8fc\ucc28\uc7a5", "addr": "\uc804\ub77c\ubd81\ub3c4 \uc775\uc0b0\uc2dc \ub0a8\uc911\ub3d9 12-1", "lat": "35.9523308", "lng": "126.9567962"}, {"statNm": "\ub0a8\ubd80\uc2dc\uc7a5\uc8fc\ucc28\uc7a5", "addr": "\uc804\ub77c\ubd81\ub3c4 \uc775\uc0b0\uc2dc \uc778\ud654\ub3d92\uac00 7", "lat": "35.932097", "lng": "126.952236"}, {"statNm": "\uc2dc\uc124\uc6b4\uc601\uc0ac\uc5c5\uc18c \uc0dd\ud65c\uccb4\uc721\uacf5\uc6d0", "addr": "\uc804\ub77c\ubd81\ub3c4 \uc784\uc2e4\uad70 \uc784\uc2e4\uc74d \ud638\uad6d\ub85c 1640", "lat": "35.610331", "lng": "127.283186"}, {"statNm": "\uc804\ub77c\ubd81\ub3c4 \uad6d\uc81c\uc591\uad81\uc7a5", "addr": "\uc804\ub77c\ubd81\ub3c4 \uc784\uc2e4\uad70 \uc624\uc218\uba74 \uc758\uacac\ub85c 1", "lat": "35.538582", "lng": "127.3387"}, {"statNm": "\uc7a5\uc218\uad70\uccad \uc8fc\ucc28\uc7a5", "addr": "\uc804\ub77c\ubd81\ub3c4 \uc7a5\uc218\uad70 \uc7a5\uc218\uc74d \uc7a5\uc218\ub9ac 192", "lat": "35.64688469", "lng": "127.52122270"}, {"statNm": "\uc0b0\uc11c\uba74 \uacf5\uc601\uc8fc\ucc28\uc7a5", "addr": "\uc804\ub77c\ubd81\ub3c4 \uc7a5\uc218\uad70 \uc0b0\uc11c\uba74 \ub3d9\ud654\ub9ac 162-6", "lat": "35.5842042", "lng": "127.3950996"}, {"statNm": "\uc804\ubd81\uad50\uc721\ubb38\ud654\ud68c\uad00", "addr": "\uc804\ub77c\ubd81\ub3c4 \uc804\uc8fc\uc2dc \ub355\uc9c4\uad6c \uc548\ub355\uc6d0\ub85c 71", "lat": "35.8289409", "lng": "127.1388118"}, {"statNm": "\uc804\ubd81\uc9c0\ubc29\ud658\uacbd\uccad", "addr": "\uc804\ub77c\ubd81\ub3c4 \uc804\uc8fc\uc2dc \ub355\uc9c4\uad6c \uc548\uc804\ub85c 120", "lat": "35.8348463", "lng": "127.0588926"}, {"statNm": "\uace0\ubd80\uba74(\ub3d9\ud559\uc6b8\ub9bc\uc13c\ud130 \ub3c4\ub85c\ubcc0\ucabd \uc8fc\ucc28\uc7a5)", "addr": "\uc804\ub77c\ubd81\ub3c4 \uc815\uc74d\uc2dc \uc601\uc8fc\ub85c 530", "lat": "35.619493", "lng": "126.77213"}, {"statNm": "\uc2e0\ud0dc\uc778\uc74d \uc0dd\ud65c\ubb38\ud654\uc13c\ud130", "addr": "\uc804\ub77c\ubd81\ub3c4 \uc815\uc74d\uc2dc \uc2e0\ud0dc\uc778\ub9ac 260-1", "lat": "35.68879986", "lng": "126.88593901"}, {"statNm": "\ucca0\ub3c4\uc0b0\uc5c5 \ub18d\uacf5\ub2e8\uc9c0 \uae30\uc219\uc0ac", "addr": "\uc804\ub77c\ubd81\ub3c4 \uc815\uc74d\uc2dc \uc785\uc554\uba74 \uc785\uc554\ub85c 345-1", "lat": "35.49677458", "lng": "126.80819108"}, {"statNm": "\uc790\uc720\ubb34\uc5ed\uc9c0\uc5ed\uad00\ub9ac\uc6d0", "addr": "\uc804\ub77c\ubd81\ub3c4 \uae40\uc81c\uc2dc \uc790\uc720\ubb34\uc5ed\uae38 215", "lat": "35.84645699", "lng": "126.88617632"}, {"statNm": "\ubd80\uc548 \uc2a4\ud3ec\uce20\ud30c\ud06c \uc8fc\ucc28\uc7a5", "addr": "\uc804\ub77c\ubd81\ub3c4 \ubd80\uc548\uad70 \ud589\uc548\uba74 \uc9c4\ub3d9\ub9ac 817", "lat": "35.70163700", "lng": "126.7258446"}, {"statNm": "\ub0b4\uc7a5\uc0b0\uad6d\ub9bd\uacf5\uc6d0 \uc0dd\ud0dc\ud0d0\ubc29\uc6d0", "addr": "\uc804\ub77c\ubd81\ub3c4 \uc815\uc74d\uc2dc \ub0b4\uc7a5\ud638\ubc18\ub85c266", "lat": "35.50793521", "lng": "126.90540062"}, {"statNm": "\uacf5\uc6a9\uc8fc\ucc28\uc7a5(\uc11d\uad50\ub9ac6-4)", "addr": "\uc804\ub77c\ubd81\ub3c4 \uace0\ucc3d\uad70 \uace0\ucc3d\uc74d \uc11d\uad50\ub9ac 6-4", "lat": "35.44124970", "lng": "126.69763050"}, {"statNm": "\uc9c0\ub9ac\uc0b0\ud5c8\ube0c\ubc38\ub9ac", "addr": "\uc804\ub77c\ubd81\ub3c4 \ub0a8\uc6d0\uc2dc \uc6b4\ubd09\uc74d \uc6a9\uc0b0\ub9ac266", "lat": "37.43311750", "lng": "127.54586810"}, {"statNm": "\uc904\ud3ec\uc0dd\ud0dc\uacf5\uc6d0 \uc804\uae30\uc790\ub3d9\ucc28 \ucda9\uc804\uc18c", "addr": "\uc804\ub77c\ubd81\ub3c4 \ubd80\uc548\uad70 \uc904\ud3ec\uba74 \uc6b0\ud3ec\ub9ac 132-1", "lat": "35.5857866", "lng": "126.6748274"}, {"statNm": "\ubcc0\uc0b0\ud574\uc218\uc695\uc7a5", "addr": "\uc804\ub77c\ubd81\ub3c4 \ubd80\uc548\uad70 \ubcc0\uc0b0\uba74 \ub300\ud56d\ub9ac 609", "lat": "35.683243", "lng": "126.534491"}, {"statNm": "\uc0bc\ub840\uacf5\uc601\uc8fc\ucc28\uc7a5", "addr": "\uc804\ub77c\ubd81\ub3c4 \uc644\uc8fc\uad70 \uc0bc\ub840\uc74d \uc0bc\ub840\ub9ac 896-13", "lat": "35.9121028", "lng": "127.0758181"}, {"statNm": "\ubbf8\ub975\uc0b0\ubcc4\uc7a5\uac00\ub4e0\uc785\uad6c \uc8fc\ucc28\uc7a5", "addr": "\uc804\ub77c\ubd81\ub3c4 \uc775\uc0b0\uc2dc \uae08\ub9c8\uba74 \uae30\uc591\ub9ac 209 - 2", "lat": "36.016192", "lng": "127.020407"}, {"statNm": "\ud55c\uc625\ub9c8\uc744 1 \uc8fc\ucc28\uc7a5", "addr": "\uc804\ub77c\ubd81\ub3c4 \uc804\uc8fc\uc2dc \uc644\uc0b0\uad6c \uae30\ub9b0\ub300\ub85c 99", "lat": "35.8193087", "lng": "127.1533287"}, {"statNm": "\ub3d9\ud559\ub18d\ubbfc\ud601\uba85\uae30\ub150\uacf5\uc6d0", "addr": "\uc804\ub77c\ubd81\ub3c4 \uc815\uc74d\uc2dc \ub355\ucc9c\uba74 \ub3d9\ud559\ub85c 742", "lat": "35.6335196", "lng": "126.8343127"}, {"statNm": "\uad6d\ub9bd\uc2dd\ub7c9\uacfc\ud559\uc6d0", "addr": "\uc804\ub77c\ubd81\ub3c4 \uc644\uc8fc\uad70 \uc774\uc11c\uba74 \ud601\uc2e0\ub85c 181", "lat": "35.840799", "lng": "127.045465"}, {"statNm": "\ub0a8\uc6d0\uad6d\ud1a0\uad00\ub9ac\uc0ac\ubb34\uc18c \ubcf8\uc18c", "addr": "\uc804\ub77c\ubd81\ub3c4 \ub0a8\uc6d0\uc2dc \uc774\ubc31\ub85c13", "lat": "35.4234958", "lng": "127.411601"}, {"statNm": "\uc775\uc0b0\uc9c0\ubc29\uad6d\ud1a0\uad00\ub9ac\uccad \ubcf8\uccad", "addr": "\uc804\ub77c\ubd81\ub3c4 \uc775\uc0b0\uc2dc \uc775\uc0b0\ub300\ub85c 52\uae3827", "lat": "35.951898", "lng": "126.955018"}, {"statNm": "\uac15\uc9c4\uba74\uc0ac\ubb34\uc18c", "addr": "\uc804\ub77c\ubd81\ub3c4 \uc784\uc2e4\uad70 \uac15\uc9c4\uba74 \ud638\uad6d\ub85c 47", "lat": "35.5301241", "lng": "127.1632729"}, {"statNm": "\uad6d\ubbfc\uc5f0\uae08\uacf5\ub2e8 \uae30\uae08\uad00", "addr": "\uc804\ub77c\ubd81\ub3c4 \uc804\uc8fc\uc2dc \ub355\uc9c4\uad6c \uae30\uc9c0\ub85c 170", "lat": "35.8383652", "lng": "127.0707588"}, {"statNm": "\uad6d\ubbfc\uc5f0\uae08\uacf5\ub2e8 \uc81c2\uc0ac\uc625", "addr": "\uc804\ub77c\ubd81\ub3c4 \uc804\uc8fc\uc2dc \ub355\uc9c4\uad6c \uc624\uacf5\ub85c 131", "lat": "35.8357667", "lng": "127.0699126"}, {"statNm": "\ub355\uce58\uba74\uc0ac\ubb34\uc18c", "addr": "\uc804\ub77c\ubd81\ub3c4 \uc784\uc2e4\uad70 \ub355\uce58\uba74 \uc778\ub355\ub85c 1401", "lat": "35.5102018", "lng": "127.157382"}, {"statNm": "\uc0bc\uacc4\uba74\uc0ac\ubb34\uc18c", "addr": "\uc804\ub77c\ubd81\ub3c4 \uc784\uc2e4\uad70 \uc0bc\uacc4\uba74 \ucda9\ud6a8\ub85c 1281", "lat": "35.507599", "lng": "127.2746126"}, {"statNm": "\ud55c\uad6d\uc2dd\ud488\uc5f0\uad6c\uc6d0", "addr": "\uc804\ub77c\ubd81\ub3c4 \uc644\uc8fc\uad70 \uc774\uc11c\uba74 \ub18d\uc0dd\uba85\ub85c 245", "lat": "35.8337766", "lng": "127.0508964"}, {"statNm": "\uc2e0\uc7ac\uc0dd\uc5d0\ub108\uc9c0\ud14c\ub9c8\ud30c\ud06c \uc8fc\ucc28\uc7a5", "addr": "\uc804\ub77c\ubd81\ub3c4 \ubd80\uc548\uad70 \ud558\uc11c\uba74 \uc2e0\uc7ac\uc0dd\uc5d0\ub108\uc9c0\ub85c 10", "lat": "35.7099092", "lng": "126.5962891"}, {"statNm": "\ubd80\uc548 \uc608\uc220\ud68c\uad00", "addr": "\uc804\ub77c\ubd81\ub3c4 \ubd80\uc548\uad70 \ubd80\uc548\uc74d \uc608\uc220\ud68c\uad00\uae38 11", "lat": "35.7243548", "lng": "126.7232505"}, {"statNm": "\uc5d8\ud0c0\uc6cc \uad70\uc0b0", "addr": "\uc804\ub77c\ubd81\ub3c4 \uad70\uc0b0\uc2dc \ubd80\uace11\uae38 52", "lat": "35.960831703", "lng": "126.69117558"}, {"statNm": "\ub85c\uc820\ud0dd\ubc30 \uc775\uc0b0\uc9c0\uc810", "addr": "\uc804\ub77c\ubd81\ub3c4 \uc775\uc0b0\uc2dc \ubaa9\ucc9c\ub85c 56-31", "lat": "35.917993546", "lng": "126.93464709"}, {"statNm": "\uad70\uc0b0\ub300\ud559\uad50", "addr": "\uc804\ub77c\ubd81\ub3c4 \uad70\uc0b0\uc2dc \ub300\ud559\ub85c 558", "lat": "35.947275", "lng": "126.683333"}, {"statNm": "\uc6d0\uad11\ub300\ud559\uad50", "addr": "\uc804\ub77c\ubd81\ub3c4 \uc775\uc0b0\uc2dc \uc775\uc0b0\ub300\ub85c 460", "lat": "35.968286", "lng": "126.9585868"}, {"statNm": "\uc804\ubd81\ub300\ud559\uad50", "addr": "\uc804\ub77c\ubd81\ub3c4 \uc804\uc8fc\uc2dc \ub355\uc9c4\uad6c \ubc31\uc81c\ub300\ub85c 567", "lat": "35.844158", "lng": "127.129272"}, {"statNm": "\ubc97\ub2d8\ub137 \uc804\uae30\ucc28\ucda9\uc804\uc18c", "addr": "\uc804\ub77c\ubd81\ub3c4 \ubd80\uc548\uad70 \ub3d9\uc9c4\uba74 \uc99d\uc0b0\uae38 89-1", "lat": "35.765682", "lng": "126.728071"}, {"statNm": "\ucee4\ud53c202", "addr": "\uc804\ub77c\ubd81\ub3c4 \uc775\uc0b0\uc2dc \ud558\ub098\ub85c 540", "lat": "35.968349", "lng": "126.980284"}, {"statNm": "\ub3d9\uc6d0\uc21c\ub300\uc9d1\ub9c9\uac78\ub9ac", "addr": "\uc804\ub77c\ubd81\ub3c4 \uc804\uc8fc\uc2dc \uc644\uc0b0\uad6c \uc465\uace0\uac1c\ub85c 391", "lat": "35.804580", "lng": "127.107672"}, {"statNm": "\uc9c0\uc911\ud574\ubb34\uc778\ud154", "addr": "\uc804\ub77c\ubd81\ub3c4 \uad70\uc0b0\uc2dc \uacbd\ud3ec\ucc9c\uc11c\uae38 25", "lat": "35.976286", "lng": "126.725562"}, {"statNm": "\ub77c\uc628\ud638\ud154", "addr": "\uc804\ub77c\ubd81\ub3c4 \uad70\uc0b0\uc2dc \uac00\ub3c4\uc5481\uae38 47", "lat": "35.94654", "lng": "126.562138"}, {"statNm": "\uc77c\uacf1\uc2dd\uad6c \ucea0\ud551\uc7a5", "addr": "\uc804\ub77c\ubd81\ub3c4 \uc815\uc74d\uc2dc \uce60\ubcf4\uba74 \ud589\ub2e81\uae38 153", "lat": "35.586759", "lng": "127.013581"}, {"statNm": "\uc77c\uc131\ub808\uc800\uc0b0\uc5c5(\uc8fc)\ubb34\uc8fc\uc9c0\uc810", "addr": "\uc804\ub77c\ubd81\ub3c4 \ubb34\uc8fc\uad70 \ubb34\ud48d\uba74 \ub77c\uc81c\ud1b5\ubb38\ub85c 455", "lat": "35.979409", "lng": "127.82652"}, {"statNm": "\ud55c\uad6d\ud574\uc0c1\ud48d\ub825\ubc1c\uc804\uc8fc\uc2dd\ud68c\uc0ac", "addr": "\uc804\ub77c\ubd81\ub3c4 \uace0\ucc3d\uad70 \uc0c1\ud558\uba74 \uba85\uc0ac\uc2ed\ub9ac\ub85c 50", "lat": "35.4544798", "lng": "126.4481996"}, {"statNm": "\ubd80\uc548\ud574\uc591\uacbd\ucc30\uc11c", "addr": "\uc804\ub77c\ubd81\ub3c4 \ubd80\uc548\uad70 \ubd80\uc548\uc74d \ub3d9\uc9112\uae38 15", "lat": "35.7289384", "lng": "126.7367436"}, {"statNm": "\ub86f\ub370\ub9ac\uc544 \uc0b0\ubd81\uc810", "addr": "\uc804\ub77c\ubd81\ub3c4 \uad70\uc0b0\uc2dc \uacf5\ub2e8\ub300\ub85c 566", "lat": "35.970392", "lng": "126.684262"}, {"statNm": "GS\uc218\ud37c\ub9c8\ucf13 \uad70\uc0b0\ub098\uc6b4\uc810", "addr": "\uc804\ub77c\ubd81\ub3c4 \uad70\uc0b0\uc2dc \uc218\uc1a1\ub85c 50", "lat": "35.9662390000", "lng": "126.7013319999"}, {"statNm": "\ub300\uba85\ub9ac\uc870\ud2b8 \ubcc0\uc0b0", "addr": "\uc804\ub77c\ubd81\ub3c4 \ubd80\uc548\uad70 \ubcc0\uc0b0\uba74 \ubcc0\uc0b0\ud574\ubcc0\ub85c 51", "lat": "35.632202", "lng": "126.470448"}, {"statNm": "\uc775\uc0b0 \ucc9c\ud61c\uc6b0", "addr": "\uc804\ub77c\ubd81\ub3c4 \uc775\uc0b0\uc2dc \ud568\ub77c\uba74 \ubc31\uc81c\ub85c 646", "lat": "36.068658", "lng": "126.915565"}, {"statNm": "\ud55c\uad6d\uc804\uae30\uc548\uc804\uacf5\uc0ac \uc804\ubd81\uc9c0\uc5ed\ubcf8\ubd80", "addr": "\uc804\ub77c\ubd81\ub3c4 \uc804\uc8fc\uc2dc \ub355\uc9c4\uad6c \ubc31\uc81c\ub300\ub85c 795", "lat": "35.847915", "lng": "127.1552629"}, {"statNm": "\ud55c\uad6d\uc804\uae30\uc548\uc804\uacf5\uc0ac \uc775\uc0b0\uc9c0\uc0ac", "addr": "\uc804\ub77c\ubd81\ub3c4 \uc775\uc0b0\uc2dc \ubb34\uc655\ub85c 1432", "lat": "35.966379", "lng": "127.0136689"}, {"statNm": "\ud55c\uad6d\uc804\uae30\uc548\uc804\uacf5\uc0ac \ubcf8\uc0ac", "addr": "\uc804\ub77c\ubd81\ub3c4 \uc644\uc8fc\uad70 \uc774\uc11c\uba74 \uc548\uc804\ub85c 111", "lat": "35.835108", "lng": "127.057487"}, {"statNm": "\uc804\uc8fc\ud638\uc131\ub3d9W-PARK 2\ub2e8\uc9c0", "addr": "\uc804\ub77c\ubd81\ub3c4 \uc804\uc8fc\uc2dc \ub355\uc9c4\uad6c \ud638\uc131\ub85c 136", "lat": "35.864349", "lng": "127.147525"}, {"statNm": "\uc815\uc74d\ub300\ub9bc\uc544\ud30c\ud2b8", "addr": "\uc804\ub77c\ubd81\ub3c4 \uc815\uc74d\uc2dc \uae08\ubd951\uae38 1-1", "lat": "35.5565339", "lng": "126.8739388"}, {"statNm": "\ub974\ub124\uc0c1\uc2a4\uc6e8\ub529\ud640\ubdd4\ud398", "addr": "\uc804\ub77c\ubd81\ub3c4 \uace0\ucc3d\uad70 \uace0\ucc3d\uc74d \uc911\uc559\ub85c 151", "lat": "35.4355776", "lng": "126.6914914"}, {"statNm": "\uc720\ud55c\ud68c\uc0ac \uc624\uac00\ub124\uc218\uc0b0", "addr": "\uc804\ub77c\ubd81\ub3c4 \uace0\ucc3d\uad70 \uc544\uc0b0\uba74 \uc120\uc6b4\uc0ac\ub85c 59", "lat": "35.5037385", "lng": "126.5968691"}, {"statNm": "\uac08\uacf5\uc810\ud604\ub300\uc790\ub3d9\ucc28", "addr": "\uc804\ub77c\ubd81\ub3c4 \uae40\uc81c\uc2dc \ubcbd\uc131\ub85c 305", "lat": "35.80124", "lng": "126.8704369"}, {"statNm": "\ud604\ub300\uc790\ub3d9\ucc28 \uc694\ucd0c\uc810", "addr": "\uc804\ub77c\ubd81\ub3c4 \uae40\uc81c\uc2dc \uc911\uc559\ub85c 130", "lat": "35.802821", "lng": "126.889575"}, {"statNm": "\ube14\ub8e8\ud578\uc988 \ub3d9\uc804\uc8fc\ud604\ub300\uc11c\ube44\uc2a4", "addr": "\uc804\ub77c\ubd81\ub3c4 \uc644\uc8fc\uad70 \ubd09\ub3d9\uc74d \ubd09\ub3d9\ub85c 461", "lat": "35.955157", "lng": "127.14215"}, {"statNm": "\ub0a8\uc6d0\ud604\ub300\uc11c\ube44\uc2a4", "addr": "\uc804\ub77c\ubd81\ub3c4 \ub0a8\uc6d0\uc2dc \ucd98\ud5a5\ub85c 162-8", "lat": "35.426644", "lng": "127.388382"}, {"statNm": "\ud574\ub3d9\ud5ec\uc2a4", "addr": "\uc804\ub77c\ubd81\ub3c4 \uc815\uc74d\uc2dc \uc218\uc1311\ub85c 56-4", "lat": "35.57779", "lng": "126.8531649"}, {"statNm": "\uc815\uc8fc\uace0\ub4f1\ud559\uad50", "addr": "\uc804\ub77c\ubd81\ub3c4 \uc815\uc74d\uc2dc \uc815\uc8fc1\uae38 42", "lat": "35.543711", "lng": "126.890643"}, {"statNm": "\ub18d\uc18c\uc810 \ud604\ub300\uc790\ub3d9\ucc28", "addr": "\uc804\ub77c\ubd81\ub3c4 \uc815\uc74d\uc2dc \uba85\ub3551\uae38 83", "lat": "35.582555", "lng": "126.852039"}, {"statNm": "\ud604\ub300\ube14\ub8e8\ud578\uc988 \uc2e0\ud0dc\uc778\uc810", "addr": "\uc804\ub77c\ubd81\ub3c4 \uc815\uc74d\uc2dc \uc2e0\ud0dc\uc778\uc74d \uc2e0\ud0dc\uc778\uc911\uc559\ub85c 61", "lat": "35.689716", "lng": "126.891774"}, {"statNm": "\ub300\uc57c\uc810 \ud604\ub300\uc790\ub3d9\ucc28", "addr": "\uc804\ub77c\ubd81\ub3c4 \uad70\uc0b0\uc2dc \uac1c\uc815\uba74 \ubc88\uc601\ub85c 830", "lat": "35.948723", "lng": "126.8036229"}, {"statNm": "(\uc8fc)\uc720\uc77c\ubc29\uc7ac\uc0b0\uc5c5", "addr": "\uc804\ub77c\ubd81\ub3c4 \uad70\uc0b0\uc2dc \uc6d0\ub2f9\uae38 73-5", "lat": "35.951518", "lng": "126.679226"}, {"statNm": "\ud604\ub300\uc790\ub3d9\ucc28 \uc870\ucd0c\uc810", "addr": "\uc804\ub77c\ubd81\ub3c4 \uad70\uc0b0\uc2dc \uc870\ucd0c\ub85c 139", "lat": "35.976554", "lng": "126.7372869"}, {"statNm": "\ucc3d\uce74\ud398", "addr": "\uc804\ub77c\ubd81\ub3c4 \uae40\uc81c\uc2dc \uae08\uad6c\uba74 \uc6d4\uc804\ub85c 10-3", "lat": "35.785298", "lng": "127.026517"}, {"statNm": "(\uc8fc)\ub354\ubd04\ub18d\uc5c5\ud68c\uc0ac\ubc95\uc778", "addr": "\uc804\ub77c\ubd81\ub3c4 \uc804\uc8fc\uc2dc \uc644\uc0b0\uad6c \uc911\uc0b0\ub85c 52", "lat": "35.818607", "lng": "127.12037"}, {"statNm": "\ud604\ub300\uc790\ub3d9\ucc28\uc778\ud6c4\ub0a8\ubd80\uc810", "addr": "\uc804\ub77c\ubd81\ub3c4 \uc804\uc8fc\uc2dc \ub355\uc9c4\uad6c \uac74\uc0b0\ub85c 213", "lat": "35.833989", "lng": "127.160344"}, {"statNm": "\uc775\uc0b0\ubb38\ud654\uc6d0", "addr": "\uc804\ub77c\ubd81\ub3c4 \uc775\uc0b0\uc2dc \uc120\ud654\ub85c 529", "lat": "35.948496", "lng": "126.988251"}, {"statNm": "\uc815\uc74d\uc0dd\uba85\uacf5\ud559\uc5f0\uad6c\uc6d0", "addr": "\uc804\ub77c\ubd81\ub3c4 \uc815\uc74d\uc2dc \uc785\uc2e0\uae38 181", "lat": "35.508845062911", "lng": "126.8367651321"}, {"statNm": "\uc601\uc7a5\ub958\uc790\uc6d0\uc9c0\uc6d0\uc13c\ud130", "addr": "\uc804\ub77c\ubd81\ub3c4 \uc815\uc74d\uc2dc \uc785\uc554\uba74 \ub11d\uba54\uae38 351-33", "lat": "35.516641218500", "lng": "126.8205300896"}, {"statNm": "\uc0ac\ud68c\ubcf5\uc9c0\ubc95\uc778\uad6d\uc81c\uc6d0", "addr": "\uc804\ub77c\ubd81\ub3c4 \uc644\uc8fc\uad70 \uace0\uc0b0\uba74 \ub300\uc544\uc800\uc218\ub85c 157-5", "lat": "35.990899", "lng": "127.238852"}, {"statNm": "\uc120\ud61c\uccad\uc815\ud1b5\ud55c\uacfc", "addr": "\uc804\ub77c\ubd81\ub3c4 \uc815\uc74d\uc2dc \uc601\uc6d0\uba74 \uc131\uc9c02\uae38 6", "lat": "35.635604", "lng": "126.7663449"}, {"statNm": "\uc624\ub298\ub3c4 \uc0ac\ub791\ud574", "addr": "\uc804\ub77c\ubd81\ub3c4 \uc815\uc74d\uc2dc \uad11\uad502\uae38 3-1", "lat": "35.564329", "lng": "126.8581529"}, {"statNm": "(\uc8fc)\ucc3d\ub300\uc804\ub825", "addr": "\uc804\ub77c\ubd81\ub3c4 \uc815\uc74d\uc2dc \ud559\uc0b0\ub85c 106", "lat": "35.559266", "lng": "126.8728479"}, {"statNm": "\uc804\ubd81 \uc815\ub2e4\uc6b4\uc694\uc591\ubcd1\uc6d0", "addr": "\uc804\ub77c\ubd81\ub3c4 \uc815\uc74d\uc2dc \uad00\ud1b5\ub85c 27", "lat": "35.564074", "lng": "126.860774"}, {"statNm": "\uc778\ud6c42\ucc28\ud604\ub300\uc544\ud30c\ud2b8\uc785\uc8fc\uc790\ub300\ud45c\ud68c\uc758", "addr": "\uc804\ub77c\ubd81\ub3c4 \uc804\uc8fc\uc2dc \ub355\uc9c4\uad6c \uc548\uace84\uae38 15", "lat": "35.842037", "lng": "127.156829"}, {"statNm": "\ucd5c\ud64d\uadfc", "addr": "\uc804\ub77c\ubd81\ub3c4 \uc804\uc8fc\uc2dc \uc644\uc0b0\uad6c \ubc31\ub9c8\uc0b0\uae38 57-7", "lat": "35.816105", "lng": "127.0869609"}, {"statNm": "(\uc0ac)\ud55c\uad6d\ubc29\uc0ac\uc120\uc9c4\ud765\ud611\ud68c", "addr": "\uc804\ub77c\ubd81\ub3c4 \uc815\uc74d\uc2dc \ucca8\ub2e8\ub85c 17", "lat": "35.505946", "lng": "126.837476"}, {"statNm": "\uc544\uc6b0\ub514_\uc804\uc8fc \uc804\uc2dc\uc7a5", "addr": "\uc804\ub77c\ubd81\ub3c4 \uc804\uc8fc\uc2dc \uc644\uc0b0\uad6c \uc465\uace0\uac1c\ub85c 372", "lat": "35.803399000000", "lng": "127.1056100000"}, {"statNm": "\uc544\uc6b0\ub514_\uc804\uc8fc \uc11c\ube44\uc2a4\uc13c\ud130", "addr": "\uc804\ub77c\ubd81\ub3c4 \uc644\uc8fc\uad70 \uc774\uc11c\uba74 \ucf69\uc950\ud325\uc950\ub85c 964", "lat": "35.819718999999", "lng": "127.0051909999"}, {"statNm": "\uad6d\ub9bd\uc2e0\uc2dc\ub3c4\uc790\uc5f0\ud734\uc591\ub9bc", "addr": "\uc804\ub77c\ubd81\ub3c4 \uad70\uc0b0\uc2dc \uc625\ub3c4\uba74 \uc2e0\uc2dc\ub3c4\uae38 271", "lat": "35.824742999", "lng": "126.44787899"}, {"statNm": "\uac10\ucd08\ub2f9\ud55c\uc57d\ubc29 \uc606", "addr": "\uc804\ub77c\ubd81\ub3c4 \uad70\uc0b0\uc2dc \ubc31\ub989\ub85c 20", "lat": "35.973567101", "lng": "126.72890379"}, {"statNm": "\ub18d\uc5c5\uae30\uc220\uc13c\ud130(\ub18d\uc5c5\uc778\ud68c\uad00)", "addr": "\uc804\ub77c\ubd81\ub3c4 \uad70\uc0b0\uc2dc \uac1c\uc815\uba74 \uc6b4\ud68c\uae38 32", "lat": "35.9619635", "lng": "126.7800692"}, {"statNm": "\uad70\uc0b0\uc2dc\ud3c9\uc0dd\ud559\uc2b5\uad00 \uc8fc\ucc28\uc7a5", "addr": "\uc804\ub77c\ubd81\ub3c4 \uad70\uc0b0\uc2dc \ud669\ub8e1\ub85c 43", "lat": "35.944814", "lng": "126.689912"}, {"statNm": "\uae08\uc815\uc8fc\ud0dd \uc606", "addr": "\uc804\ub77c\ubd81\ub3c4 \uad70\uc0b0\uc2dc \ud558\uc2e02\uae38 30-3", "lat": "35.967816253", "lng": "126.70043372"}, {"statNm": "\uc870\ucd0c\ub3d9 e\ud3b8\ud55c\uc138\uc0c1 \uc606", "addr": "\uc804\ub77c\ubd81\ub3c4 \uad70\uc0b0\uc2dc \uad81\ud3ec\uc5481\uae38 33", "lat": "35.975915006", "lng": "126.74384463"}, {"statNm": "\ub9d0\ub7ad\uc774\ub9c8\uc744", "addr": "\uc804\ub77c\ubd81\ub3c4 \uad70\uc0b0\uc2dc \uc808\uace8\uae38 8", "lat": "35.986630505", "lng": "126.70469927"}, {"statNm": "KT\uad70\uc0b0\uc911\uc559 \uc606", "addr": "\uc804\ub77c\ubd81\ub3c4 \uad70\uc0b0\uc2dc \uc911\uc559\ub85c 149", "lat": "35.985476", "lng": "126.713549"}, {"statNm": "\uace0\ucc3d\uc74d \uacf5\uc601\uc8fc\ucc28\ud0c0\uc6cc", "addr": "\uc804\ub77c\ubd81\ub3c4 \uace0\ucc3d\uad70 \uace0\ucc3d\uc74d \uc131\uc0b02\uae38 46", "lat": "35.4355739", "lng": "126.7003245"}, {"statNm": "\uc784\ud53c\uba74 \uacf5\uc601\uc8fc\ucc28\uc7a5", "addr": "\uc804\ub77c\ubd81\ub3c4 \uad70\uc0b0\uc2dc \uc784\ud53c\uba74 \ub0a8\uc0c12\uae38 13-4", "lat": "35.981761441", "lng": "126.85100687"}, {"statNm": "\uc11c\uace1\ud604\ub300\uc544\ud30c\ud2b8", "addr": "\uc804\ub77c\ubd81\ub3c4 \uc804\uc8fc\uc2dc \uc644\uc0b0\uad6c \uc138\ub0b4\ub85c 545", "lat": "35.833979607", "lng": "127.09923747"}, {"statNm": "\uae08\uac15\uace8\ub4dc\ube4c\uc544\ud30c\ud2b8", "addr": "\uc804\ub77c\ubd81\ub3c4 \uad70\uc0b0\uc2dc \uc124\ub9bc2\uae38 33-1", "lat": "35.975937523", "lng": "126.68396034"}, {"statNm": "\uc1a1\ucc9c\uc2dc\uc601\uc544\ud30c\ud2b8", "addr": "\uc804\ub77c\ubd81\ub3c4 \uc804\uc8fc\uc2dc \ub355\uc9c4\uad6c \uc640\ub8e1\ub85c 100", "lat": "35.868163152", "lng": "127.11285526"}, {"statNm": "\ubbf8\uc1a1\ud3c9\ud654\ud558\uc774\uc874", "addr": "\uc804\ub77c\ubd81\ub3c4 \uc804\uc8fc\uc2dc \uc644\uc0b0\uad6c \ubaa8\uc545\ub85c 4681", "lat": "35.787315352", "lng": "127.12924840"}, {"statNm": "(\uc720)\uc6d4\ub4dc\uc8fc\ub958(enh)", "addr": "\uc804\ub77c\ubd81\ub3c4 \uad70\uc0b0\uc2dc \uc625\uc0b0\ub85c 56", "lat": "35.9582427", "lng": "126.7478748"}, {"statNm": "\uc81c\uc77c\uc8fc\ub958\ud310\ub9e4\u321c(enh)", "addr": "\uc804\ub77c\ubd81\ub3c4 \uad70\uc0b0\uc2dc \uc625\uc0b0\ub85c 60", "lat": "35.9579057", "lng": "126.7483466"}, {"statNm": "\uc218\uc0ac\ub791\ubcd1\uc6d0(enh)", "addr": "\uc804\ub77c\ubd81\ub3c4 \uc775\uc0b0\uc2dc \ubc30\uc0b0\ub85c 69", "lat": "35.9441281", "lng": "126.9380163"}, {"statNm": "(\uc720)\uc810\ubcf4\uc0c1\uc0ac(enh)", "addr": "\uc804\ub77c\ubd81\ub3c4 \uc804\uc8fc\uc2dc \ub355\uc9c4\uad6c \uac00\ub9ac\ub0b4\ub85c 422", "lat": "35.8510772", "lng": "127.1140082"}, {"statNm": "\ub77c\uc778\uc560\ub4dc(enh)", "addr": "\uc804\ub77c\ubd81\ub3c4 \uad70\uc0b0\uc2dc \ud314\ub9c8\ub85c 108", "lat": "35.9735314", "lng": "126.7130419"}, {"statNm": "(\uc8fc)\uc2e0\ud1a0\uc131\uac74\uc124(enh)", "addr": "\uc804\ub77c\ubd81\ub3c4 \uc775\uc0b0\uc2dc \ub9cc\uc11d\uae38 306", "lat": "35.9732556", "lng": "126.9308112"}, {"statNm": "\ud669\ub4f1\uc810\ud604\ub300\uc790\ub3d9\ucc28(enh)", "addr": "\uc804\ub77c\ubd81\ub3c4 \uc775\uc0b0\uc2dc \ud669\ub4f1\uba74 \ud669\ub4f1\ub85c 14", "lat": "35.9946245", "lng": "126.9492063"}, {"statNm": "\ub3d9\ud638\ub808\uc838(INO)", "addr": "\uc804\ub77c\ubd81\ub3c4 \uace0\ucc3d\uad70 \uc2ec\uc6d0\uba74 \uc560\ud5a5\uac2f\ubc8c\ub85c 70", "lat": "35.51599105", "lng": "126.50230885"}, {"statNm": "(\uc8fc)\uc720\ub2c8\ucea0\ud504(ino)", "addr": "\uc804\ub77c\ubd81\ub3c4 \uae40\uc81c\uc2dc \ubc31\uad6c\uba74 \ubc31\uad6c\uacf5\ub2e8\uae38 49", "lat": "35.8925957", "lng": "126.9605506"}, {"statNm": "\uace0\ucc3d \uc0c1\ud558\ub18d\uc6d0 \ud30c\uba38\uc2a4\ube4c\ub9ac\uc9c0", "addr": "\uc804\ub77c\ubd81\ub3c4 \uace0\ucc3d\uad70 \uc0c1\ud558\uba74 \uc0c1\ud558\ub18d\uc6d0\uae38 6-36", "lat": "35.4451912", "lng": "126.4528889"}, {"statNm": "\uad70\uc0b0 \ucee4\ud53c\ub9c8\uc744", "addr": "\uc804\ub77c\ubd81\ub3c4 \uad70\uc0b0\uc2dc \uac1c\uc815\uba74 \uac1c\uc815\ub4e44\uae38 63", "lat": "35.956089", "lng": "126.768919"}, {"statNm": "\uad70\uc0b0 \uc6b0\ud615\uc2a4\ud06c\ub9b0", "addr": "\uc804\ub77c\ubd81\ub3c4 \uad70\uc0b0\uc2dc \uc870\ucd0c4\uae38 47", "lat": "35.970553", "lng": "126.735228"}, {"statNm": "\uad70\uc0b0 \ub300\ud615\uc2a4\ud06c\ub9b0\uace8\ud504", "addr": "\uc804\ub77c\ubd81\ub3c4 \uad70\uc0b0\uc2dc \uc870\ucd0c4\uae38 51", "lat": "35.971083", "lng": "126.735689"}, {"statNm": "\uc7a5\uc218 \uae30\uc544\uc624\ud1a0\ud050 \uc7a5\uacc4\uc810", "addr": "\uc804\ub77c\ubd81\ub3c4 \uc7a5\uc218\uad70 \uc7a5\uacc4\uba74 \ud55c\ub4e41\uae38 2", "lat": "35.732625", "lng": "127.580289"}, {"statNm": "\uc775\uc0b0 \uc138\uacc4\ubaa8\ud130\uc2a4 \ub8e8\ub9c8\uc36c\ud305", "addr": "\uc804\ub77c\ubd81\ub3c4 \uc775\uc0b0\uc2dc \uc5b4\uacf32\uae38 48", "lat": "35.969206", "lng": "126.97755"}, {"statNm": "\uc775\uc0b0 \ud604\ub300\uc790\ub3d9\ucc28 \uae08\uac15\uc810", "addr": "\uc804\ub77c\ubd81\ub3c4 \uc775\uc0b0\uc2dc \uc57d\ucd0c\ub85c 41-1", "lat": "35.937711", "lng": "126.978192"}, {"statNm": "\ub0a8\uc6d0 \ub0a8\uc6d0\ud55c\uc99d\uc6d0", "addr": "\uc804\ub77c\ubd81\ub3c4 \ub0a8\uc6d0\uc2dc \uc8fc\ucc9c\uba74 \uc6d0\ucc9c\ub85c 345-25", "lat": "35.402956", "lng": "127.426783"}, {"statNm": "\ub0a8\uc6d0 \uc601\ud5ec\uc2a4\ud074\ub7fd", "addr": "\uc804\ub77c\ubd81\ub3c4 \ub0a8\uc6d0\uc2dc \ub3d9\ub3c43\uae38 26", "lat": "35.421039", "lng": "127.398875"}, {"statNm": "\ub0a8\uc6d0 \uc9c4\uc624\ud1a0\ubbf8\uc158", "addr": "\uc804\ub77c\ubd81\ub3c4 \ub0a8\uc6d0\uc2dc \uac00\ubc29\ub730\uae38 70", "lat": "35.400939", "lng": "127.3693"}, {"statNm": "\uc644\uc8fc \ud654\uc2ec\uc21c\ub450\ubd80 \uc0bc\ub840\uc810", "addr": "\uc804\ub77c\ubd81\ub3c4 \uc644\uc8fc\uad70 \uc0bc\ub840\uc74d \uc0bc\ubd09\ub85c 348", "lat": "35.921656", "lng": "127.107311"}, {"statNm": "\uc21c\ucc3d \uc7a5\ubbf8\uac00\ub4e0\uc608\uc2dd\uc7a5", "addr": "\uc804\ub77c\ubd81\ub3c4 \uc21c\ucc3d\uad70 \uc21c\ucc3d\uc74d \uc21c\ucc3d\ub85c 102-2", "lat": "35.364806", "lng": "127.142414"}, {"statNm": "\uad70\uc0b0 \uc138\uc9c4\uc790\ub3d9\ucc28\uc815\ube44\uacf5\uc5c5\uc0ac", "addr": "\uc804\ub77c\ubd81\ub3c4 \uad70\uc0b0\uc2dc \uc131\uc0b0\uba74 \uae08\uac15\ub85c 584", "lat": "35.991742", "lng": "126.766075"}, {"statNm": "\uace0\ucc3d \ucc28\ub9c8\uace0\ub3c4", "addr": "\uc804\ub77c\ubd81\ub3c4 \uace0\ucc3d\uad70 \ud765\ub355\uba74 \ubb38\ud6541\uae38 24-3", "lat": "35.517367", "lng": "126.70085"}, {"statNm": "\uace0\ucc3d \uc7a5\ud638\uc601\uc5b4\uc870\ud569\ubc95\uc778", "addr": "\uc804\ub77c\ubd81\ub3c4 \uace0\ucc3d\uad70 \uc0c1\ud558\uba74 \uba85\uc0ac\uc2ed\ub9ac\ub85c 282-42", "lat": "35.467789", "lng": "126.458539"}, {"statNm": "\uace0\ucc3d \ud638\ud154\ubaa8\uc591\uc131", "addr": "\uc804\ub77c\ubd81\ub3c4 \uace0\ucc3d\uad70 \uace0\ucc3d\uc74d \uc911\uc559\ub85c 331", "lat": "35.435131", "lng": "126.712314"}, {"statNm": "\uc815\uc74d \ud478\ub987\ud478\ub987", "addr": "\uc804\ub77c\ubd81\ub3c4 \uc815\uc74d\uc2dc \ub0b4\uc7a5\uc0b0\ub85c 52-15", "lat": "35.551453", "lng": "126.876092"}, {"statNm": "\uad70\uc0b0 \uba85\uc2e0 \uad70\uc0b0\uae30\uc220\uad50\uc721\uc6d0", "addr": "\uc804\ub77c\ubd81\ub3c4 \uad70\uc0b0\uc2dc \uc0dd\uba40\ub85c 72", "lat": "35.9662785", "lng": "126.5731417"}, {"statNm": "\uad70\uc0b0 \uba85\uc2e0", "addr": "\uc804\ub77c\ubd81\ub3c4 \uad70\uc0b0\uc2dc \uc790\uc720\ub85c 34", "lat": "35.9646998", "lng": "126.6015213"}, {"statNm": "\uc804\uc8fc \uc8fc\uc2dd\ud68c\uc0ac\uc804\uc8fc\ubc29\uc1a1", "addr": "\uc804\ub77c\ubd81\ub3c4 \uc804\uc8fc\uc2dc \ub355\uc9c4\uad6c \uc815\uc5ec\ub9bd\ub85c 1083", "lat": "35.8459611", "lng": "127.0823257"}, {"statNm": "\uace0\ucc3d \ub125\uc2a4\ud154\uc5ec\uad00", "addr": "\uc804\ub77c\ubd81\ub3c4 \uace0\ucc3d\uad70 \uace0\ucc3d\uc74d \uc6d4\uc554\uc218\uc6d4\uae38 112", "lat": "35.4312741", "lng": "126.7215845"}, {"statNm": "\uc804\uc8fc \ub3c8\uae4c\uc2a4\ud074\ub7fd", "addr": "\uc804\ub77c\ubd81\ub3c4 \uc804\uc8fc\uc2dc \uc644\uc0b0\uad6c \ucf69\uc950\ud325\uc950\ub85c 1638", "lat": "35.8238954", "lng": "127.0786617"}, {"statNm": "\uc804\uc8fc \ub0a8\uc120\uc815\ubcf4\ud1b5\uc2e0", "addr": "\uc804\ub77c\ubd81\ub3c4 \uc804\uc8fc\uc2dc \ub355\uc9c4\uad6c \ub3d9\ubd80\ub300\ub85c 612", "lat": "35.8444231", "lng": "127.1650213"}, {"statNm": "\uc804\uc8fc \ud640\uc778\uc6d0\uace8\ud504\ud074\ub7fd", "addr": "\uc804\ub77c\ubd81\ub3c4 \uc804\uc8fc\uc2dc \uc644\uc0b0\uad6c \ucf69\uc950\ud325\uc950\ub85c 1700-10", "lat": "35.8210563", "lng": "127.0834104"}, {"statNm": "\uc804\uc8fc \uc544\uc911\ub9ac\ub099\uc9c0\ub9c8\ub2f9", "addr": "\uc804\ub77c\ubd81\ub3c4 \uc804\uc8fc\uc2dc \ub355\uc9c4\uad6c \uc544\uc911\uc911\uc559\ub85c 8", "lat": "35.8292659", "lng": "127.172888"}, {"statNm": "\ub974\ub178\uc0bc\uc131\uc790\ub3d9\ucc28 \uc815\uc74d\ub300\ub9ac\uc810", "addr": "\uc804\ub77c\ubd81\ub3c4 \uc815\uc74d\uc2dc \uc815\uc74d\ub0a8\ub85c 1458-4", "lat": "35.5576237", "lng": "126.8611177"}, {"statNm": "\uae40\uc81c \uac08\ube44\uc2a4\ud0c0", "addr": "\uc804\ub77c\ubd81\ub3c4 \uae40\uc81c\uc2dc \ud558\uacf5\ub85c 237-85", "lat": "35.8302962", "lng": "126.9045117"}, {"statNm": "\uc815\uc74d \uba85\ud488\uc2a4\ud398\uc774\uc2a4", "addr": "\uc804\ub77c\ubd81\ub3c4 \uc815\uc74d\uc2dc \ub0b4\uc7a5\uc0b0\ub85c 92", "lat": "35.5482848", "lng": "126.8793973"}, {"statNm": "\uc804\uc8fc \ud55c\ubcc4\uc5ec\uc131\uc758\uc6d0\uc0b0\ud6c4\uc870\ub9ac\uc6d0", "addr": "\uc804\ub77c\ubd81\ub3c4 \uc804\uc8fc\uc2dc \ub355\uc9c4\uad6c \uacac\ud6e4\ub85c 215", "lat": "35.8308104", "lng": "127.1586752"}, {"statNm": "\ub974\ub178\uc0bc\uc131\uc790\ub3d9\ucc28 \uae40\uc81c\ub300\ub9ac\uc810", "addr": "\uc804\ub77c\ubd81\ub3c4 \uae40\uc81c\uc2dc \ub3d9\uc11c\ub85c 322", "lat": "35.8039472", "lng": "126.9020548"}, {"statNm": "\uc804\uc8fc \ud604\ub300\uc9c1\uc5c5\uc804\ubb38\ud559\uad50", "addr": "\uc804\ub77c\ubd81\ub3c4 \uc804\uc8fc\uc2dc \ub355\uc9c4\uad6c \ub3d9\ubd80\ub300\ub85c 930", "lat": "35.8687873", "lng": "127.1460979"}, {"statNm": "\uc644\uc8fc GT \uc778\ub354\uc2a4\ud2b8\ub9ac", "addr": "\uc804\ub77c\ubd81\ub3c4 \uc644\uc8fc\uad70 \uc6a9\uc9c4\uc74d \uc644\uc8fc\ub85c 248-7", "lat": "35.8872359", "lng": "127.1573681"}, {"statNm": "\uc804\uc8fc \uc12c\uc9c4\uac15", "addr": "\uc804\ub77c\ubd81\ub3c4 \uc804\uc8fc\uc2dc \uc644\uc0b0\uad6c \uc0b0\uc6d41\uae38 5", "lat": "35.8125934", "lng": "127.1223908"}, {"statNm": "\uc644\uc8fc \uc790\ub9e4\uc2dd\ub2f9", "addr": "\uc804\ub77c\ubd81\ub3c4 \uc644\uc8fc\uad70 \uc18c\uc591\uba74 \uc18c\uc591\ub85c 322", "lat": "35.8605027", "lng": "127.2410992"}, {"statNm": "\uc804\uc8fc \uc0b0\uc815\ube4c\ub529", "addr": "\uc804\ub77c\ubd81\ub3c4 \uc804\uc8fc\uc2dc \ub355\uc9c4\uad6c \uae08\uc0c1\uae38 2", "lat": "35.8415674", "lng": "127.1731207"}, {"statNm": "\uace0\ucc3d \ucf54\ub9ac\uc544\uc138\ube10\uace0\ucc3d\ud765\ub355\uc810", "addr": "\uc804\ub77c\ubd81\ub3c4 \uace0\ucc3d\uad70 \ud765\ub355\uba74 \uace0\uc778\ub3cc\ub300\ub85c 2684", "lat": "35.5157965", "lng": "126.7055948"}, {"statNm": "\uc804\uc8fc (\uc8fc)\ucf00\uc774\uc644\uad00\uad11\uac1c\ubc1c", "addr": "\uc804\ub77c\ubd81\ub3c4 \uc804\uc8fc\uc2dc \uc644\uc0b0\uad6c \uc11c\uace15\uae38 22-8", "lat": "35.8380254", "lng": "127.1010174"}, {"statNm": "\uc644\uc8fc \ub85c\ub380\ud558\uc6b0\uc2a4", "addr": "\uc804\ub77c\ubd81\ub3c4 \uc644\uc8fc\uad70 \uc6b4\uc8fc\uba74 \uae08\uace0\ub2f9\ub85c 1070-6", "lat": "36.0258865", "lng": "127.3508199"}, {"statNm": "\uc804\uc8fc \uc608\uc1a1\uc694\uc591\ubcd1\uc6d0", "addr": "\uc804\ub77c\ubd81\ub3c4 \uc804\uc8fc\uc2dc \ub355\uc9c4\uad6c \uc804\uc8fc\ucc9c\uc11c\ub85c 337", "lat": "35.8223428", "lng": "127.1319586"}, {"statNm": "\uc804\uc8fc \uc0bc\ud654\ud1b5\uc0c1", "addr": "\uc804\ub77c\ubd81\ub3c4 \uc804\uc8fc\uc2dc \ub355\uc9c4\uad6c \uc1a1\ucc9c\uc911\uc559\ub85c 110", "lat": "35.8566986", "lng": "127.1207599"}, {"statNm": "\uc804\uc8fc \uc6d0\uc140\ud504\uc138\ucc28\uc7a5", "addr": "\uc804\ub77c\ubd81\ub3c4 \uc804\uc8fc\uc2dc \uc644\uc0b0\uad6c \uc720\uc5f0\ub85c 62", "lat": "35.8232801", "lng": "127.0921037"}, {"statNm": "\uc775\uc0b0 \uac24\ub7ec\ub9ac\uc544\ubdd4\ud398\ub354\ud30c\ud2f0", "addr": "\uc804\ub77c\ubd81\ub3c4 \uc775\uc0b0\uc2dc \ub3d9\uc11c\ub85c 134", "lat": "35.9554081", "lng": "126.9495092"}, {"statNm": "\ud55c\uad6d\ud1a0\uc9c0\uc8fc\ud0dd\uacf5\uc0ac \uc804\ubd81\uc9c0\uc5ed\ubcf8\ubd80", "addr": "\uc804\ub77c\ubd81\ub3c4 \uc804\uc8fc\uc2dc \uc644\uc0b0\uad6c \ud64d\uc0b0\ub85c 158", "lat": "35.807459", "lng": "127.1049186"}, {"statNm": "\uc8fc\uc2dd\ud68c\uc0ac\uc804\uc8fc\uc720\ud1b5", "addr": "\uc804\ub77c\ubd81\ub3c4 \uc804\uc8fc\uc2dc \ub355\uc9c4\uad6c \ucd08\ud3ec\ub2e4\ub9ac\ub85c 61", "lat": "35.8616943", "lng": "127.1588415"}, {"statNm": "\uc720\ud55c\ud68c\uc0ac\ub3d9\ubcf4\uc885\ud569\uc8fc\ub958\uc0c1\uc0ac", "addr": "\uc804\ub77c\ubd81\ub3c4 \uc804\uc8fc\uc2dc \ub355\uc9c4\uad6c \ud638\uc131\ub3d9\uc0b0\uae38 13", "lat": "35.8731363", "lng": "127.1522001"}, {"statNm": "\uc720\ud55c\ud68c\uc0ac\uc601\uad11\ubb3c\uc0b0", "addr": "\uc804\ub77c\ubd81\ub3c4 \uad70\uc0b0\uc2dc \uacf5\ub2e8\ub300\ub85c 107-11", "lat": "35.959029", "lng": "126.7305537"}, {"statNm": "\uc8fc\uc2dd\ud68c\uc0ac\uc11c\uad11\uc2dc\uc2a4\ud15c", "addr": "\uc804\ub77c\ubd81\ub3c4 \uad70\uc0b0\uc2dc \uac1c\uc815\uba74 \uc728\ubd812\uae38 13", "lat": "35.9649401", "lng": "126.7691291"}, {"statNm": "\ud790\ub9c1\ud6fc\ubbf8\ub9ac\uc0fe", "addr": "\uc804\ub77c\ubd81\ub3c4 \uc784\uc2e4\uad70 \uc6b4\uc554\uba74 \uad6d\uc0ac\ubd09\ub85c 108-16", "lat": "35.62183940", "lng": "127.11459242"}, {"statNm": "\uc0b0\uc774\uace0\uc6b4\uc544\ud30c\ud2b8", "addr": "\uc804\ub77c\ubd81\ub3c4 \ub0a8\uc6d0\uc2dc \uc6d4\ubbf8\uae38 58", "lat": "35.4251376", "lng": "127.4022386"}, {"statNm": "\u321c\ud654\uc9c4\ub9c8\ud2b8\ubb3c\ub958", "addr": "\uc804\ub77c\ubd81\ub3c4 \uad70\uc0b0\uc2dc \ud48d\ubb38\uc5482\uae38 47", "lat": "35.9776873", "lng": "126.7179189"}, {"statNm": "\uc0ec\ub8081\ucc28\uc544\ud30c\ud2b8 1\ucda9\uc804\uc18c", "addr": "\uc804\ub77c\ubd81\ub3c4 \uae40\uc81c\uc2dc \uac80\uc0b0\ud0dd\uc9c04\uae38 30", "lat": "35.8029715", "lng": "126.9060932"}, {"statNm": "\ud604\ub300 \ud55c\uc194\uc544\ud30c\ud2b8", "addr": "\uc804\ub77c\ubd81\ub3c4 \uad70\uc0b0\uc2dc \ubc88\uc601\ub85c 159", "lat": "35.965466927", "lng": "126.73660666"}, {"statNm": "\uc694\ucd0c\ub3d9\uc8fc\ubbfc\uc13c\ud130", "addr": "\uc804\ub77c\ubd81\ub3c4 \uae40\uc81c\uc2dc \uc694\ucd0c\uc911\uae38 50", "lat": "35.804767", "lng": "126.8912744"}, {"statNm": "\uc2e0\ud48d\ub3d9\uc8fc\ubbfc\uc13c\ud130", "addr": "\uc804\ub77c\ubd81\ub3c4 \uae40\uc81c\uc2dc \uc911\uc55910\uae38 11", "lat": "35.7960917", "lng": "126.8977645"}, {"statNm": "\uac80\uc0b0\ub3d9 \uc8fc\ubbfc\uc13c\ud130", "addr": "\uc804\ub77c\ubd81\ub3c4 \uae40\uc81c\uc2dc \uac80\uc0b0\ud0dd\uc9c0\uae38 34", "lat": "35.8032382", "lng": "126.9036986"}, {"statNm": "\uad50\uc6d4\ub3d9 \ud589\uc815\ubcf5\uc9c0\uc13c\ud130", "addr": "\uc804\ub77c\ubd81\ub3c4 \uae40\uc81c\uc2dc \ubcbd\uc9c0\uc0b0\ub85c 215", "lat": "35.7948157", "lng": "126.8785353"}, {"statNm": "\u321c\uace8\ud504\uc874\uce74\uc6b4\ud2f0\uc120\uc6b4", "addr": "\uc804\ub77c\ubd81\ub3c4 \uace0\ucc3d\uad70 \uc544\uc0b0\uba74 \uc6b4\uace1\ub85c 418", "lat": "35.4921071", "lng": "126.6440318"}, {"statNm": "\uace0\ub791\ub3d9\uba85\uc131\uc544\ud30c\ud2b8", "addr": "\uc804\ub77c\ubd81\ub3c4 \uc804\uc8fc\uc2dc \ub355\uc9c4\uad6c \ucabd\uad6c\ub9845\uae38 5 (\uace0\ub791\ub3d9, \uba85\uc131\uc544\ud30c\ud2b8)", "lat": "35.8764734185", "lng": "127.0777727723"}, {"statNm": "\ub178\ube14\ub808\uc2a4\ub354\uc13c\ud140", "addr": "\uc804\ub77c\ubd81\ub3c4 \uc804\uc8fc\uc2dc \ub355\uc9c4\uad6c \uc5ec\uc0b0\ub85c 253 (\uace0\ub791\ub3d9, \ub178\ube14\ub808\uc2a4\ub354\uc13c\ud140)", "lat": "35.87468739731", "lng": "127.0840751382"}, {"statNm": "\uc0bc\ub840\uc6b0\uc131\uc544\ud30c\ud2b8", "addr": "\uc804\ub77c\ubd81\ub3c4 \uc644\uc8fc\uad70 \uc0bc\ub840\uc74d \uc0bc\ub840\ub85c 333 (\uc0bc\ub840\uc6b0\uc131\uc544\ud30c\ud2b8)", "lat": "35.9074823501", "lng": "127.0740808923"}, {"statNm": "\uc1a1\ucc9c\ud55c\uc591\uc544\ud30c\ud2b8", "addr": "\uc804\ub77c\ubd81\ub3c4 \uc804\uc8fc\uc2dc \ub355\uc9c4\uad6c \uac00\ub9ac\ub0b4\ub85c 550 (\uc1a1\ucc9c\ub3d91\uac00, \ud55c\uc591\uc544\ud30c\ud2b8)", "lat": "35.86142460455", "lng": "127.1126369218"}, {"statNm": "\uad11\uc9c4\ud587\ube5b\ucc2c2\ucc28\uc544\ud30c\ud2b8", "addr": "\uc804\ub77c\ubd81\ub3c4 \uc804\uc8fc\uc2dc \uc644\uc0b0\uad6c \uac15\ubcc0\ub85c 304 (\uc911\ud654\uc0b0\ub3d92\uac00, \uad11\uc9c4\ud587\ube5b\ucc2c2\ucc28\uc544\ud30c\ud2b8)", "lat": "35.81704276083", "lng": "127.1144110611"}, {"statNm": "\uc1a1\ucc9c\uc544\uc774\ud30c\ud06c5\ucc281", "addr": "\uc804\ub77c\ubd81\ub3c4 \uc804\uc8fc\uc2dc \ub355\uc9c4\uad6c \uc624\uc1a1\ub85c 45 (\uc1a1\ucc9c\ub3d91\uac00, \uc1a1\ucc9c\uc544\uc774\ud30c\ud06c)", "lat": "35.86111361023", "lng": "127.1305115009"}, {"statNm": "\ub355\uc9c4\ud734\uba3c\ube4c2\ucc28\uc544\ud30c\ud2b8", "addr": "\uc804\ub77c\ubd81\ub3c4 \uc804\uc8fc\uc2dc \ub355\uc9c4\uad6c \ud558\uac00\ub85c 10 (\ub355\uc9c4\ub3d92\uac00, \ud734\uba3c\ube4c)", "lat": "35.84353960261", "lng": "127.1121965379"}, {"statNm": "\uc1a1\ucc9c\uc8fc\uacf5\uc544\ud30c\ud2b81", "addr": "\uc804\ub77c\ubd81\ub3c4 \uc804\uc8fc\uc2dc \ub355\uc9c4\uad6c \ubd93\ub0b43\uae38 29 (\uc1a1\ucc9c\ub3d92\uac00, \uc8fc\uacf5\uc544\ud30c\ud2b8)", "lat": "35.86814788352", "lng": "127.1263044007"}, {"statNm": "\ubbf8\uc1a1\ud3c9\ud654\ud558\uc774\uc874\uc544\ud30c\ud2b81", "addr": "\uc804\ub77c\ubd81\ub3c4 \uc804\uc8fc\uc2dc \uc644\uc0b0\uad6c \ubaa8\uc545\ub85c 4681 (\ud3c9\ud654\ub3d92\uac00, \ubbf8\uc1a1\ud3c9\ud654\ud558\uc774\uc874)", "lat": "35.78750983952", "lng": "127.1285714734"}, {"statNm": "\uc6b0\uc131\uc0bc\ucc9c2\ucc28\uc544\ud30c\ud2b81", "addr": "\uc804\ub77c\ubd81\ub3c4 \uc804\uc8fc\uc2dc \uc644\uc0b0\uad6c \uc0bc\ucc9c\ucc9c\ubcc02\uae38 51 (\uc0bc\ucc9c\ub3d91\uac00, \uc6b0\uc1312\ucc28\uc544\ud30c\ud2b8)", "lat": "35.79696170630", "lng": "127.1153861997"}, {"statNm": "\uc804\uc8fc \uc544\uc911\ub9c8\uc744\uc544\ub0a8\uc544\ud30c\ud2b8", "addr": "\uc804\ub77c\ubd81\ub3c4 \uc804\uc8fc\uc2dc \ub355\uc9c4\uad6c \ud55c\ubc30\ubbf8\ub85c 5 (\uc778\ud6c4\ub3d91\uac00, \uc544\uc911\uc544\ub0a8\uc544\ud30c\ud2b8)", "lat": "35.82566018212", "lng": "127.1671088492"}, {"statNm": "\uc11c\uc2e0\ud604\ub300\uc544\ud30c\ud2b81", "addr": "\uc804\ub77c\ubd81\ub3c4 \uc804\uc8fc\uc2dc \uc644\uc0b0\uad6c \uc11c\uc2e0\ub85c 90 (\uc11c\uc2e0\ub3d9, \ud604\ub300\uc544\ud30c\ud2b8)", "lat": "35.83269286025", "lng": "127.1170344099"}, {"statNm": "\uc911\ud654\uc0b0\ub3d9\uc2e0\uc77c\uc544\ud30c\ud2b81", "addr": "\uc804\ub77c\ubd81\ub3c4 \uc804\uc8fc\uc2dc \uc644\uc0b0\uad6c \uc11c\uc6d0\ub85c 386 (\uc911\ud654\uc0b0\ub3d91\uac00, \uc2e0\uc77c\uc544\ud30c\ud2b8)", "lat": "35.81379999418", "lng": "127.1364644438"}, {"statNm": "\uc6b0\uc544\ub3d9 \uc120\ubcc0\uc624\uc9c0\uc624\uc544\ud30c\ud2b8", "addr": "\uc804\ub77c\ubd81\ub3c4 \uc804\uc8fc\uc2dc \ub355\uc9c4\uad6c \uc11d\uc18c2\uae38 30 (\uc6b0\uc544\ub3d92\uac00, \uc624\uc9c0\uc624\uc544\ud30c\ud2b8)", "lat": "35.83489274183", "lng": "127.1693113503"}, {"statNm": "\ud478\ub978\ub9e8\uc158\uc544\ud30c\ud2b8", "addr": "\uc804\ub77c\ubd81\ub3c4 \uc804\uc8fc\uc2dc \uc644\uc0b0\uad6c \ud751\uc11d\ub85c 53 (\uc11c\uc11c\ud559\ub3d9, \ud478\ub978\ub9e8\uc158\uc544\ud30c\ud2b8)", "lat": "35.79952457006", "lng": "127.1510653070"}, {"statNm": "\uc804\uc8fc5\ucc28\ubd80\uc601\uc544\ud30c\ud2b81", "addr": "\uc804\ub77c\ubd81\ub3c4 \uc804\uc8fc\uc2dc \ub355\uc9c4\uad6c \ud55c\ubc30\ubbf8\ub85c 33 (\uc778\ud6c4\ub3d91\uac00, \ubd80\uc6015\ucc28\uc544\ud30c\ud2b8)", "lat": "35.82522645793", "lng": "127.1695176829"}, {"statNm": "\uc138\ube10\ud330\ub9ac\uc2a41", "addr": "\uc804\ub77c\ubd81\ub3c4 \uc804\uc8fc\uc2dc \uc644\uc0b0\uad6c \uc6b0\uc804\ub85c 180 (\ud6a8\uc790\ub3d92\uac00, \uc5d8\uc5d0\uc774\uce58\uc138\ube10\ud330\ub9ac\uc2a4)", "lat": "35.81082308261", "lng": "127.1030332957"}, {"statNm": "\uc804\uc8fc\ud638\uc131LG\ub3d9\uc544\uc544\ud30c\ud2b8105\ub3d9B1", "addr": "\uc804\ub77c\ubd81\ub3c4 \uc804\uc8fc\uc2dc \ub355\uc9c4\uad6c \ud638\uc131\ub85c 40 (\ud638\uc131\ub3d91\uac00, LG\ub3d9\uc544\uc544\ud30c\ud2b8)", "lat": "35.85609598985", "lng": "127.1515323574"}, {"statNm": "\uc1a1\ucc9c\uc30d\uc6a92\ucc28\uc544\ud30c\ud2b8", "addr": "\uc804\ub77c\ubd81\ub3c4 \uc804\uc8fc\uc2dc \ub355\uc9c4\uad6c \uc640\ub8e1\ub85c 50 (\uc1a1\ucc9c\ub3d92\uac00, \uc30d\uc6a92\ucc28\uc544\ud30c\ud2b8)", "lat": "35.86443947361", "lng": "127.1124501952"}, {"statNm": "\uc6b0\uc131\ud574\uc624\ub984\uc544\ud30c\ud2b8", "addr": "\uc804\ub77c\ubd81\ub3c4 \uc804\uc8fc\uc2dc \uc644\uc0b0\uad6c \uc778\ubd09\ub0a8\ub85c 56 (\uc911\ub178\uc1a1\ub3d9, \uc6b0\uc131\ud574\uc624\ub984\uc544\ud30c\ud2b8)", "lat": "35.82541150692", "lng": "127.1594253518"}, {"statNm": "\ub0a8\uc6d0\uba54\uce74\uc13c\ud2b8\ub7f4\uc544\ud30c\ud2b8", "addr": "\uc804\ub77c\ubd81\ub3c4 \ub0a8\uc6d0\uc2dc \uc694\ucc9c\ub85c 1300 (\uc870\uc0b0\ub3d9, \uba54\uce74\uc13c\ud2b8\ub7f4)", "lat": "35.3955331499", "lng": "127.3656876967"}, {"statNm": "\uacbd\ubcf4\uc774\uadf8\ub9b0\uc544\ud30c\ud2b8", "addr": "\uc804\ub77c\ubd81\ub3c4 \ub0a8\uc6d0\uc2dc \ud669\uc8fd\ub85c 11 (\uace0\uc8fd\ub3d9, \uacbd\ubcf4e\uadf8\ub9b0\uc544\ud30c\ud2b8)", "lat": "35.4258899386", "lng": "127.4082943887"}, {"statNm": "\ud314\ubcf5\ucf54\uc2a4\ud0c0\ube4c\uc544\ud30c\ud2b8", "addr": "\uc804\ub77c\ubd81\ub3c4 \uc804\uc8fc\uc2dc \ub355\uc9c4\uad6c \ucd94\ucc9c1\uae38 6 (\ud314\ubcf5\ub3d92\uac00, \ucf54\uc2a4\ud0c0\ube4c\uc544\ud30c\ud2b8)", "lat": "35.8486392465", "lng": "127.1058673568"}, {"statNm": "\ubaa8\ud604\ub3d9\uc911\uc559\ud558\uc774\uce20\uc544\ud30c\ud2b8", "addr": "\uc804\ub77c\ubd81\ub3c4 \uc775\uc0b0\uc2dc \uc120\ud654\ub85c5\uae38 45 (\ubaa8\ud604\ub3d91\uac00, \uc911\uc559\ud558\uc774\uce20)", "lat": "35.9522366426", "lng": "126.9429958737"}, {"statNm": "\uc0bc\ucc9c\ub3d9\ud638\ubc18\ub9ac\uc820\uc2dc\ube4c\uc544\ud30c\ud2b81", "addr": "\uc804\ub77c\ubd81\ub3c4 \uc804\uc8fc\uc2dc \uc644\uc0b0\uad6c \uc0bc\ucc9c\ucc9c\ubcc03\uae38 20 (\uc0bc\ucc9c\ub3d91\uac00, \ud638\ubc18\ub9ac\uc820\uc2dc\ube4c\uc544\ud30c\ud2b8)", "lat": "35.79693617376", "lng": "127.1114008463"}, {"statNm": "\ubd80\uc548 \uc8fc\uc0b0\uba74\uc0ac\ubb34\uc18c", "addr": "\uc804\ub77c\ubd81\ub3c4 \ubd80\uc548\uad70 \uc8fc\uc0b0\uba74 \uc8fc\uc0b0\ub85c 8", "lat": "35.6717449", "lng": "126.7112485"}, {"statNm": "\ubd80\uc548 \uc9c4\uc11c\uba74\uc0ac\ubb34\uc18c", "addr": "\uc804\ub77c\ubd81\ub3c4 \ubd80\uc548\uad70 \uc9c4\uc11c\uba74 \uccad\uc790\ub85c 926", "lat": "35.5875397", "lng": "126.6057025"}, {"statNm": "\ubd80\uc548 \ud589\uc548\uba74\uc0ac\ubb34\uc18c", "addr": "\uc804\ub77c\ubd81\ub3c4 \ubd80\uc548\uad70 \ud589\uc548\uba74 \ubc88\uc601\ub85c 33", "lat": "35.7263669", "lng": "126.7240363"}, {"statNm": "\uad11\uc9c4\ud587\ube5b\ucc2c\uc544\ud30c\ud2b8", "addr": "\uc804\ub77c\ubd81\ub3c4 \uc804\uc8fc\uc2dc \uc644\uc0b0\uad6c \uac15\ubcc0\ub85c 306 (\uc911\ud654\uc0b0\ub3d92\uac00, \uad11\uc9c4\ud587\ube5b\ucc2c\uc544\ud30c\ud2b8)", "lat": "35.81744061948", "lng": "127.1144614266"}, {"statNm": "\uad70\uc0b0 \ub098\uc6b4\ud55c\uc6b8\uc544\ud30c\ud2b8", "addr": "\uc804\ub77c\ubd81\ub3c4 \uad70\uc0b0\uc2dc \ud558\ub098\uc6b4\ub85c 20 (\ub098\uc6b4\ub3d9, \ud55c\uc6b8\uc544\ud30c\ud2b8)", "lat": "35.960039", "lng": "126.70102300"}, {"statNm": "\uc804\uc8fc \ud6a8\uc790\uc131\uc6d0\ub9e8\uc158", "addr": "\uc804\ub77c\ubd81\ub3c4 \uc804\uc8fc\uc2dc \uc644\uc0b0\uad6c \uac70\ub9c8\ud3c9\ub85c 189-47 (\ud6a8\uc790\ub3d91\uac00, \ud6a8\uc790\uc131\uc6d0\ub9e8\uc158)", "lat": "35.808343", "lng": "127.11384260"}, {"statNm": "\uc804\ubd81\uc804\uc8fc \uc6b0\uc131\uc2e0\uc131\uc544\ud30c\ud2b8", "addr": "\uc804\ub77c\ubd81\ub3c4 \uc804\uc8fc\uc2dc \uc644\uc0b0\uad6c \ub9cf\ub0b41\uae38 5", "lat": "35.790498", "lng": "127.1302941"}, {"statNm": "\uc804\uc8fc \uc1a1\ucc9c\uc13c\ud2b8\ub7f4\ud30c\ud06c1\ub2e8\uc9c0101\ub3d9", "addr": "\uc804\ub77c\ubd81\ub3c4 \uc804\uc8fc\uc2dc \ub355\uc9c4\uad6c \uc1a1\ucc9c\ub85c 1", "lat": "35.852981", "lng": "127.11890522"}, {"statNm": "\uc804\ubd81\uad70\uc0b0 \uc13c\ud2b8\ub7f4\ud30c\ud06c\uc544\ud30c\ud2b8", "addr": "\uc804\ub77c\ubd81\ub3c4 \uad70\uc0b0\uc2dc \ubc88\uc601\ub85c 190", "lat": "35.962555", "lng": "126.73839159"}, {"statNm": "\uc804\ubd81\uc815\uc74d \uc218\uc131\uc8fc\uacf53\ub2e8\uc9c0", "addr": "\uc804\ub77c\ubd81\ub3c4 \uc815\uc74d\uc2dc \uc218\uc1313\ub85c 9", "lat": "35.584983068989", "lng": "126.8554346630"}, {"statNm": "\uc804\ubd81\uc804\uc8fc \uc804\uc8fc1\ucc28\ubd80\uc601\uc544\ud30c\ud2b8", "addr": "\uc804\ub77c\ubd81\ub3c4 \uc804\uc8fc\uc2dc \ub355\uc9c4\uad6c \uc9c4\ubc84\ub4e43\uae38 10", "lat": "35.835921236125", "lng": "127.1620030930"}, {"statNm": "\uc804\ubd81\uc804\uc8fc \uc804\uc8fc\uc624\ud398\ub77c\ud558\uc6b0\uc2a4", "addr": "\uc804\ub77c\ubd81\ub3c4 \uc804\uc8fc\uc2dc \uc644\uc0b0\uad6c \uc548\ud589\ub85c 150", "lat": "35.809807612154", "lng": "127.1330652610"}, {"statNm": "\uc804\ubd81\uc804\uc8fc \ud3c9\ud654\uc8fc\uacf5\uadf8\ub9b0\ud0c0\uc6b45\uc8fc\ucc28\uc7a5", "addr": "\uc804\ub77c\ubd81\ub3c4 \uc804\uc8fc\uc2dc \uc644\uc0b0\uad6c \ud3c9\ud654\ub85c 100", "lat": "35.785889702556", "lng": "127.1348460431"}, {"statNm": "\uc804\ubd81\uc815\uc74d \uc0c1\ub3d9\ud604\ub3001\ucc28\uc544\ud30c\ud2b8", "addr": "\uc804\ub77c\ubd81\ub3c4 \uc815\uc74d\uc2dc \ud558\uc2e0\uacbd9\uae38 14-21", "lat": "35.562753927338", "lng": "126.8726102632"},