[{"statNm": "\uc774\ub9c8\ud2b8 \uc804\uc8fc\uc810", "addr": "\uc804\ub77c\ubd81\ub3c4 \uc804\uc8fc\uc2dc \uc644\uc0b0\uad6c \ub2f9\uc0b0\ub85c 111", "lat": "35.83286374", "lng": "127.12089862"}, {"statNm": "\uc804\uc8fc\ub355\uc9c4\uacf5\uc6d0 \uc8fc\ucc28\uc7a5", "addr": "\uc804\ub77c\ubd81\ub3c4 \uc804\uc8fc\uc2dc \ub355\uc9c4\uad6c \ub355\uc9c4\ub3d9 2\uac00 179-6", "lat": "35.8481760", "lng": "127.1204980"}, {"statNm": "\uc608\uc220\uc758 \uc804\ub2f9", "addr": "\uc804\ub77c\ubd81\ub3c4 \uad70\uc0b0\uc2dc \uc9c0\uace1\ub3d9 286-8", "lat": "35.9607154", "lng": "126.7090665"}, {"statNm": "\uae08\uac15\ucca0\uc0c8\uc870\ub9dd\ub300", "addr": "\uc804\ub77c\ubd81\ub3c4 \uad70\uc0b0\uc2dc \uc131\uc0b0\uba74 \uc131\ub355\ub9ac", "lat": "36.0197065", "lng": "126.7635205"}, {"statNm": "\uc5ec\uc0b0\ud734\uac8c\uc18c(\uc21c\ucc9c\ubc29\ud5a5)", "addr": "\uc804\ub77c\ubd81\ub3c4 \uc775\uc0b0\uc2dc \uc5ec\uc0b0\uba74 \ud638\uc0b0\ub9ac \uc0b032-6", "lat": "36.0479377", "lng": "127.1026013"}, {"statNm": "\ud568\uc5f4\uc62c\ub9bc\ud53d \uc2a4\ud3ec\uce20\uc13c\ud130", "addr": "\uc804\ub77c\ubd81\ub3c4 \uc775\uc0b0\uc2dc \ud568\uc5f4\uc74d \uc640\ub9ac164", "lat": "36.0741298", "lng": "126.963993"}, {"statNm": "\uc815\uc74d\ub179\ub450\uc7a5\uad70\ud734\uac8c\uc18c(\ub17c\uc0b0\ubc29\ud5a5)", "addr": "\uc804\ub77c\ubd81\ub3c4 \uc815\uc74d\uc2dc \ubd81\uba74 \ub0a8\uc0b0\ub9ac", "lat": "35.6006769", "lng": "126.8644591"}, {"statNm": "\uc815\uc74d\ub179\ub450\uc7a5\uad70\ud734\uac8c\uc18c(\uc21c\ucc9c\ubc29\ud5a5)", "addr": "\uc804\ub77c\ubd81\ub3c4 \uc815\uc74d\uc2dc \ubd81\uba74 \uc815\uc2e0\ub85c 135-61", "lat": "35.6016871", "lng": "126.8624805"}, {"statNm": "\uc9c0\ub9ac\uc0b0\ud734\uac8c\uc18c(\uc625\ud3ec\ubc29\ud5a5)", "addr": "\uc804\ub77c\ubd81\ub3c4 \ub0a8\uc6d0\uc2dc \uc544\uc601\uba74 \uc544\uace1\ub9ac", "lat": "35.4808967", "lng": "127.566233"}, {"statNm": "\uc9c0\ub9ac\uc0b0\ud734\uac8c\uc18c(\uace0\uc11c\ubc29\ud5a5)", "addr": "\uc804\ub77c\ubd81\ub3c4 \ub0a8\uc6d0\uc2dc \uc544\uc601\uba74 \uc544\uace1\ub9ac", "lat": "35.4837213", "lng": "127.5665699"}, {"statNm": "\uadfc\ub85c\uc790\uc885\ud569\ubcf5\uc9c0\uad00", "addr": "\uc804\ub77c\ubd81\ub3c4 \uc644\uc8fc\uad70 \ubd09\ub3d9\uc74d \ub454\uc0b0\ub9ac 881", "lat": "35.9628434", "lng": "127.1270991"}, {"statNm": "\uc9c4\uc548\uad70\uccad", "addr": "\uc804\ub77c\ubd81\ub3c4 \uc9c4\uc548\uad70 \uc9c4\uc548\uc74d \uc911\uc559\ub85c 67", "lat": "35.7918402", "lng": "127.4245086"}, {"statNm": "\ub355\uc720\uc0b0\ud734\uac8c\uc18c(\ud558\ub0a8\ubc29\ud5a5)", "addr": "\uc804\ub77c\ubd81\ub3c4 \ubb34\uc8fc\uad70 \uc548\uc131\uba74 \ud1b5\uc601\ub300\uc804\uace0\uc18d\ub3c4\ub85c 148", "lat": "35.8171253", "lng": "127.6457339"}, {"statNm": "\ubb34\uc8fc\uc74d\uc8fc\ubbfc\uc790\uce58\uc13c\ud130", "addr": "\uc804\ub77c\ubd81\ub3c4 \ubb34\uc8fc\uad70 \ubb34\uc8fc\uc74d \ud5a5\ud559\ub85c 49", "lat": "36.0088603", "lng": "127.6619473"}, {"statNm": "\uc548\uc131\uba74\uc8fc\ubbfc\uc790\uce58\uc13c\ud130", "addr": "\uc804\ub77c\ubd81\ub3c4 \ubb34\uc8fc\uad70 \uc548\uc131\uba74 \uc548\uc131\ub85c 246-17", "lat": "35.8629478", "lng": "127.6528909"}, {"statNm": "\ub355\uc720\uc0b0\ud734\uac8c\uc18c(\ud1b5\uc601\ubc29\ud5a5)", "addr": "\uc804\ub77c\ubd81\ub3c4 \uc7a5\uc218\uad70 \uacc4\ubd81\uba74 \ub2f9\uc800\uae38 59", "lat": "35.8142655", "lng": "127.6433798"}, {"statNm": "\uc7a5\uc218\uad70\uccad", "addr": "\uc804\ub77c\ubd81\ub3c4 \uc7a5\uc218\uad70 \uc7a5\uc218\uc74d \ud638\ube44\ub85c 10", "lat": "35.6467192", "lng": "127.5215713"}, {"statNm": "\uc624\uc218\ud734\uac8c\uc18c(\uc804\uc8fc\ubc29\ud5a5)", "addr": "\uc804\ub77c\ubd81\ub3c4 \uc784\uc2e4\uad70 \uc624\uc218\uba74 \ub300\uba85\ub9ac", "lat": "35.5391924", "lng": "127.3111266"}, {"statNm": "\uc624\uc218\ud734\uac8c\uc18c(\uad11\uc591\ubc29\ud5a5)", "addr": "\uc804\ub77c\ubd81\ub3c4 \uc784\uc2e4\uad70 \uc624\uc218\uba74 \uc624\uc0b0\ub9ac", "lat": "35.5398971", "lng": "127.3091337"}, {"statNm": "\uace0\ucc3d\uad70 \uc74d\uc131\uc8fc\ucc28\uc7a5", "addr": "\uc804\ub77c\ubd81\ub3c4 \uace0\ucc3d\uad70 \uace0\ucc3d\uc74d \ub3d9\ub9ac\ub85c 117", "lat": "35.4329963", "lng": "126.7061833"}, {"statNm": "\uace0\ucc3d\uace0\uc778\ub3cc\ud734\uac8c\uc18c(\ubaa9\ud3ec\ubc29\ud5a5)", "addr": "\uc804\ub77c\ubd81\ub3c4 \uace0\ucc3d\uad70 \uace0\ucc3d\uc74d \uc11c\ud574\uc548\uace0\uc18d\ub3c4\ub85c 81 (\ubcbd\uc1a1\ub9ac)", "lat": "35.4690375", "lng": "126.6742688"}, {"statNm": "\uace0\ucc3d\uace0\uc778\ub3cc\ud734\uac8c\uc18c(\ubaa9\ud3ec\ubc29\ud5a5)", "addr": "\uc804\ub77c\ubd81\ub3c4 \uace0\ucc3d\uad70 \uace0\ucc3d\uc74d \uc11c\ud574\uc548\uace0\uc18d\ub3c4\ub85c 81 (\ubcbd\uc1a1\ub9ac)", "lat": "35.4690375", "lng": "126.6742688"}, {"statNm": "\uace0\ucc3d\uace0\uc778\ub3cc\ud734\uac8c\uc18c(\uc2dc\ud765\ubc29\ud5a5)", "addr": "\uc804\ub77c\ubd81\ub3c4 \uace0\ucc3d\uad70 \uace0\ucc3d\uc74d \uc11c\ud574\uc548\uace0\uc18d\ub3c4\ub85c 80 (\uc2e0\uc6d4\ub9ac)", "lat": "35.461348", "lng": "126.6729203"}, {"statNm": "\uace0\ucc3d\uace0\uc778\ub3cc\ud734\uac8c\uc18c(\uc2dc\ud765\ubc29\ud5a5)", "addr": "\uc804\ub77c\ubd81\ub3c4 \uace0\ucc3d\uad70 \uace0\ucc3d\uc74d \uc11c\ud574\uc548\uace0\uc18d\ub3c4\ub85c 80 (\uc2e0\uc6d4\ub9ac)", "lat": "35.461348", "lng": "126.6729203"}, {"statNm": "\uc774\uc11c\ud734\uac8c\uc18c(\uc21c\ucc9c\ubc29\ud5a5)", "addr": "\uc804\ub77c\ubd81\ub3c4 \uc644\uc8fc\uad70 \uc774\uc11c\uba74 \ud638\ub0a8\uace0\uc18d\ub3c4\ub85c 161 (\uc740\uad50\ub9ac)", "lat": "35.8034454", "lng": "127.0240566"}, {"statNm": "\uc774\uc11c\ud734\uac8c\uc18c(\uc21c\ucc9c\ubc29\ud5a5)", "addr": "\uc804\ub77c\ubd81\ub3c4 \uc644\uc8fc\uad70 \uc774\uc11c\uba74 \ud638\ub0a8\uace0\uc18d\ub3c4\ub85c 161 (\uc740\uad50\ub9ac)", "lat": "35.8034454", "lng": "127.0240566"}, {"statNm": "\uc774\uc11c\ud734\uac8c\uc18c(\ucc9c\uc548\ubc29\ud5a5)", "addr": "\uc804\ub77c\ubd81\ub3c4 \uc644\uc8fc\uad70 \uc774\uc11c\uba74 \ud638\ub0a8\uace0\uc18d\ub3c4\ub85c 162 (\uc740\uad50\ub9ac)", "lat": "35.802184", "lng": "127.0258792"}, {"statNm": "\uc774\uc11c\ud734\uac8c\uc18c(\ucc9c\uc548\ubc29\ud5a5)", "addr": "\uc804\ub77c\ubd81\ub3c4 \uc644\uc8fc\uad70 \uc774\uc11c\uba74 \ud638\ub0a8\uace0\uc18d\ub3c4\ub85c 162 (\uc740\uad50\ub9ac)", "lat": "35.802184", "lng": "127.0258792"}, {"statNm": "\uc815\uc74d\ud734\uac8c\uc18c(\ub17c\uc0b0\ubc29\ud5a5)", "addr": "\uc804\ub77c\ubd81\ub3c4 \uc815\uc74d\uc2dc \ubd81\uba74 \ud558\ubd811\uae38 227-17 (\ub0a8\uc0b0\ub9ac)", "lat": "35.6005769", "lng": "126.8646591"}, {"statNm": "\uc815\uc74d\ud734\uac8c\uc18c(\uc21c\ucc9c\ubc29\ud5a5)", "addr": "\uc804\ub77c\ubd81\ub3c4 \uc815\uc74d\uc2dc \ubd81\uba74 \uc815\uc2e0\ub85c 135-61 (\ub0a8\uc0b0\ub9ac)", "lat": "35.6015871", "lng": "126.8626805"}, {"statNm": "\ub355\uc720\uc0b0\ud734\uac8c\uc18c(\ud1b5\uc601\ubc29\ud5a5)", "addr": "\uc804\ub77c\ubd81\ub3c4 \uc7a5\uc218\uad70 \uacc4\ubd81\uba74 \ub2f9\uc800\uae38 59 (\uc591\uc545\ub9ac)", "lat": "35.8141655", "lng": "127.6435798"}, {"statNm": "\ub355\uc720\uc0b0\ud734\uac8c\uc18c(\ud558\ub0a8\ubc29\ud5a5)", "addr": "\uc804\ub77c\ubd81\ub3c4 \ubb34\uc8fc\uad70 \uc548\uc131\uba74 \ud1b5\uc601\ub300\uc804\uace0\uc18d\ub3c4\ub85c 148 (\uacf5\uc9c4\ub9ac)", "lat": "35.8170253", "lng": "127.6459339"}, {"statNm": "\uc9c0\ub9ac\uc0b0\ud734\uac8c\uc18c(\uace0\uc11c\ubc29\ud5a5)", "addr": "\uc804\ub77c\ubd81\ub3c4 \ub0a8\uc6d0\uc2dc \uc544\uc601\uba74 88\uc62c\ub9bc\ud53d\uace0\uc18d\ub3c4\ub85c 75 (\uc544\uace1\ub9ac)", "lat": "35.4836213", "lng": "127.5667699"}, {"statNm": "\uc9c0\ub9ac\uc0b0\ud734\uac8c\uc18c(\uace0\uc11c\ubc29\ud5a5)", "addr": "\uc804\ub77c\ubd81\ub3c4 \ub0a8\uc6d0\uc2dc \uc544\uc601\uba74 88\uc62c\ub9bc\ud53d\uace0\uc18d\ub3c4\ub85c 75 (\uc544\uace1\ub9ac)", "lat": "35.4836213", "lng": "127.5667699"}, {"statNm": "\uc9c0\ub9ac\uc0b0\ud734\uac8c\uc18c(\uc625\ud3ec\ubc29\ud5a5)", "addr": "\uc804\ub77c\ubd81\ub3c4 \ub0a8\uc6d0\uc2dc \uc544\uc601\uba74 88\uc62c\ub9bc\ud53d\uace0\uc18d\ub3c4\ub85c 76 (\uc544\uace1\ub9ac)", "lat": "35.4808967", "lng": "127.566233"}, {"statNm": "\uc9c0\ub9ac\uc0b0\ud734\uac8c\uc18c(\uc625\ud3ec\ubc29\ud5a5)", "addr": "\uc804\ub77c\ubd81\ub3c4 \ub0a8\uc6d0\uc2dc \uc544\uc601\uba74 88\uc62c\ub9bc\ud53d\uace0\uc18d\ub3c4\ub85c 76 (\uc544\uace1\ub9ac)", "lat": "35.4808967", "lng": "127.566233"}, {"statNm": "\uac15\ucc9c\uc0b0\ud734\uac8c\uc18c(\ub300\uad6c\ubc29\ud5a5)", "addr": "\uc804\ub77c\ubd81\ub3c4 \uc21c\ucc3d\uad70 \uc21c\ucc3d\uc74d 88\uc62c\ub9bc\ud53d\uace0\uc18d\ub3c4\ub85c 22 (\ubc31\uc0b0\ub9ac)", "lat": "35.364473", "lng": "127.1048023"}, {"statNm": "\uac15\ucc9c\uc0b0\ud734\uac8c\uc18c(\ub300\uad6c\ubc29\ud5a5)", "addr": "\uc804\ub77c\ubd81\ub3c4 \uc21c\ucc3d\uad70 \uc21c\ucc3d\uc74d 88\uc62c\ub9bc\ud53d\uace0\uc18d\ub3c4\ub85c 22 (\ubc31\uc0b0\ub9ac)", "lat": "35.364473", "lng": "127.1048023"}, {"statNm": "\uc9c4\uc548\ud734\uac8c\uc18c(\uc775\uc0b0\ubc29\ud5a5)", "addr": "\uc804\ub77c\ubd81\ub3c4 \uc9c4\uc548\uad70 \uc9c4\uc548\uc74d \uc775\uc0b0\uc7a5\uc218\uace0\uc18d\ub3c4\ub85c 41 (\ub2e8\uc591\ub9ac)", "lat": "35.7782697", "lng": "127.425744"}, {"statNm": "\uc9c4\uc548\ud734\uac8c\uc18c(\uc775\uc0b0\ubc29\ud5a5)", "addr": "\uc804\ub77c\ubd81\ub3c4 \uc9c4\uc548\uad70 \uc9c4\uc548\uc74d \uc775\uc0b0\uc7a5\uc218\uace0\uc18d\ub3c4\ub85c 41 (\ub2e8\uc591\ub9ac)", "lat": "35.7782697", "lng": "127.425744"}, {"statNm": "\uc9c4\uc548\ud734\uac8c\uc18c(\uc7a5\uc218\ubc29\ud5a5)", "addr": "\uc804\ub77c\ubd81\ub3c4 \uc9c4\uc548\uad70 \uc9c4\uc548\uc74d \uc775\uc0b0\uc7a5\uc218\uace0\uc18d\ub3c4\ub85c 42 (\ub2e8\uc591\ub9ac)", "lat": "35.774925", "lng": "127.4262837"}, {"statNm": "\uc9c4\uc548\ud734\uac8c\uc18c(\uc7a5\uc218\ubc29\ud5a5)", "addr": "\uc804\ub77c\ubd81\ub3c4 \uc9c4\uc548\uad70 \uc9c4\uc548\uc74d \uc775\uc0b0\uc7a5\uc218\uace0\uc18d\ub3c4\ub85c 42 (\ub2e8\uc591\ub9ac)", "lat": "35.774925", "lng": "127.4262837"}, {"statNm": "\ub86f\ub370\ub9c8\ud2b8 \uad70\uc0b0\uc810", "addr": "\uc804\ub77c\ubd81\ub3c4 \uad70\uc0b0\uc2dc \uc218\uc1a1\ub85c 185 (\uc218\uc1a1\ub3d9)", "lat": "35.9647788", "lng": "126.7163555"}, {"statNm": "\ub86f\ub370\ub9c8\ud2b8 \uad70\uc0b0\uc810", "addr": "\uc804\ub77c\ubd81\ub3c4 \uad70\uc0b0\uc2dc \uc218\uc1a1\ub85c 185 (\uc218\uc1a1\ub3d9)", "lat": "35.9647788", "lng": "126.7163555"}, {"statNm": "\ub86f\ub370\ub9c8\ud2b8 \uc775\uc0b0\uc810", "addr": "\uc804\ub77c\ubd81\ub3c4 \uc775\uc0b0\uc2dc \ubb34\uc655\ub85c 1053 (\uc601\ub4f1\ub3d9)", "lat": "35.9597398", "lng": "126.9741078"}, {"statNm": "\ub86f\ub370\ub9c8\ud2b8 \uc775\uc0b0\uc810", "addr": "\uc804\ub77c\ubd81\ub3c4 \uc775\uc0b0\uc2dc \ubb34\uc655\ub85c 1053 (\uc601\ub4f1\ub3d9)", "lat": "35.9597398", "lng": "126.9741078"}, {"statNm": "\ub86f\ub370\ub9c8\ud2b8 \uc775\uc0b0\uc810", "addr": "\uc804\ub77c\ubd81\ub3c4 \uc775\uc0b0\uc2dc \ubb34\uc655\ub85c 1053 (\uc601\ub4f1\ub3d9)", "lat": "35.9597398", "lng": "126.9741078"}, {"statNm": "\ubcc0\uc0b0\ubc18\ub3c4\uad6d\ub9bd\uacf5\uc6d0 \uaca9\ud3ec\uc8fc\ucc28\uc7a5", "addr": "\uc804\ub77c\ubd81\ub3c4 \ubd80\uc548\uad70 \ubcc0\uc0b0\uba74 \uaca9\ud3ec\ub9ac 283-1", "lat": "35.627881", "lng": "126.471165"}, {"statNm": "\ubcc0\uc0b0\ubc18\ub3c4\uad6d\ub9bd\uacf5\uc6d0 \uaca9\ud3ec\uc8fc\ucc28\uc7a5", "addr": "\uc804\ub77c\ubd81\ub3c4 \ubd80\uc548\uad70 \ubcc0\uc0b0\uba74 \uaca9\ud3ec\ub9ac 283-1", "lat": "35.627881", "lng": "126.471165"}, {"statNm": "\ubcc0\uc0b0\ubc18\ub3c4\uad6d\ub9bd\uacf5\uc6d0 \ub0b4\uc18c\uc8fc\ucc28\uc7a5", "addr": "\uc804\ub77c\ubd81\ub3c4 \ubd80\uc548\uad70 \uc9c4\uc11c\uba74 \uc11d\ud3ec\ub9ac 240", "lat": "35.610062", "lng": "126.588533"}, {"statNm": "\ubcc0\uc0b0\ubc18\ub3c4\uad6d\ub9bd\uacf5\uc6d0 \ub0b4\uc18c\uc8fc\ucc28\uc7a5", "addr": "\uc804\ub77c\ubd81\ub3c4 \ubd80\uc548\uad70 \uc9c4\uc11c\uba74 \uc11d\ud3ec\ub9ac 240", "lat": "35.610062", "lng": "126.588533"}, {"statNm": "\uc9c0\ub9ac\uc0b0\uad6d\ub9bd\uacf5\uc6d0 \ubd81\ubd80 \ubc18\uc120\uc8fc\ucc28\uc7a5", "addr": "\uc804\ub77c\ubd81\ub3c4 \ub0a8\uc6d0\uc2dc \uc0b0\ub0b4\uba74 \ubd80\uc6b4\ub9ac 216-10", "lat": "35.377231", "lng": "127.581692"}, {"statNm": "\uc9c0\ub9ac\uc0b0\uad6d\ub9bd\uacf5\uc6d0 \ubd81\ubd80 \ubc18\uc120\uc8fc\ucc28\uc7a5", "addr": "\uc804\ub77c\ubd81\ub3c4 \ub0a8\uc6d0\uc2dc \uc0b0\ub0b4\uba74 \ubd80\uc6b4\ub9ac 216-10", "lat": "35.377231", "lng": "127.581692"}, {"statNm": "\uc9c0\ub9ac\uc0b0\uad6d\ub9bd\uacf5\uc6d0 \ubc40\uc0ac\uace8\uc57c\uc601\uc7a5", "addr": "\uc804\ub77c\ubd81\ub3c4 \ub0a8\uc6d0\uc2dc \uc0b0\ub0b4\uba74 \ub355\ub3d9\ub9ac 406", "lat": "35.354821", "lng": "127.558283"}, {"statNm": "\uc9c0\ub9ac\uc0b0\uad6d\ub9bd\uacf5\uc6d0 \ubc40\uc0ac\uace8\uc57c\uc601\uc7a5", "addr": "\uc804\ub77c\ubd81\ub3c4 \ub0a8\uc6d0\uc2dc \uc0b0\ub0b4\uba74 \ub355\ub3d9\ub9ac 406", "lat": "35.354821", "lng": "127.558283"}, {"statNm": "\ub0b4\uc7a5\uc0b0\uad6d\ub9bd\uacf5\uc6d0 \ud0d0\ubc29\uc548\ub0b4\uc18c", "addr": "\uc804\ub77c\ubd81\ub3c4 \uc815\uc74d\uc2dc \ub0b4\uc7a5\ub3d9 673-1", "lat": "35.487895", "lng": "126.907447"}, {"statNm": "\ub0b4\uc7a5\uc0b0\uad6d\ub9bd\uacf5\uc6d0 1(\ub0b4\uc7a5)\uc8fc\ucc28\uc7a5", "addr": "\uc804\ub77c\ubd81\ub3c4 \uc815\uc74d\uc2dc \ub0b4\uc7a5\ub3d9 52", "lat": "35.49408", "lng": "126.925858"}, {"statNm": "\ub0b4\uc7a5\uc0b0\uad6d\ub9bd\uacf5\uc6d0 1(\ub0b4\uc7a5)\uc8fc\ucc28\uc7a5", "addr": "\uc804\ub77c\ubd81\ub3c4 \uc815\uc74d\uc2dc \ub0b4\uc7a5\ub3d9 52", "lat": "35.49408", "lng": "126.925858"}, {"statNm": "\ub0b4\uc7a5\uc0b0\uad6d\ub9bd\uacf5\uc6d0 \ub124\uc774\ucc98\uc13c\ud130", "addr": "\uc804\ub77c\ubd81\ub3c4 \uc815\uc74d\uc2dc \ub0b4\uc7a5\ub3d9 169-1", "lat": "35.508267", "lng": "126.906523"}, {"statNm": "\ub0b4\uc7a5\uc0b0\uad6d\ub9bd\uacf5\uc6d0 \ub124\uc774\ucc98\uc13c\ud130", "addr": "\uc804\ub77c\ubd81\ub3c4 \uc815\uc74d\uc2dc \ub0b4\uc7a5\ub3d9 169-1", "lat": "35.508267", "lng": "126.906523"}, {"statNm": "\ub355\uc720\uc0b0\uad6d\ub9bd\uacf5\uc6d0 \ub355\uc720\ub300\uc57c\uc601\uc7a5", "addr": "\uc804\ub77c\ubd81\ub3c4 \ubb34\uc8fc\uad70 \uc124\ucc9c\uba74 \uc0bc\uacf5\ub9ac 456-1\ubc88\uc9c0", "lat": "35.893725", "lng": "127.772644"}, {"statNm": "\ub355\uc720\uc0b0\uad6d\ub9bd\uacf5\uc6d0 \ub355\uc720\ub300\uc57c\uc601\uc7a5", "addr": "\uc804\ub77c\ubd81\ub3c4 \ubb34\uc8fc\uad70 \uc124\ucc9c\uba74 \uc0bc\uacf5\ub9ac 456-1\ubc88\uc9c0", "lat": "35.893725", "lng": "127.772644"}, {"statNm": "\ub355\uc720\uc0b0\uad6d\ub9bd\uacf5\uc6d0 \uad00\ub9ac\uc0ac\ubb34\uc18c \uc55e \uc8fc\ucc28\uc7a5", "addr": "\uc804\ub77c\ubd81\ub3c4 \ubb34\uc8fc\uad70 \uc124\ucc9c\uba74 \uc0bc\uacf5\ub9ac 411", "lat": "35.901189", "lng": "127.775679"}, {"statNm": "\ub355\uc720\uc0b0\uad6d\ub9bd\uacf5\uc6d0 \uad00\ub9ac\uc0ac\ubb34\uc18c \uc55e \uc8fc\ucc28\uc7a5", "addr": "\uc804\ub77c\ubd81\ub3c4 \ubb34\uc8fc\uad70 \uc124\ucc9c\uba74 \uc0bc\uacf5\ub9ac 411", "lat": "35.901189", "lng": "127.775679"}, {"statNm": "SK \uc81c\uc77c\uc8fc\uc720\uc18c", "addr": "\uc804\ub77c\ubd81\ub3c4 \ub0a8\uc6d0\uc2dc \uc8fc\uc0dd\uba74 \uc81c\ucc9c\ub9ac 245", "lat": "35.372288", "lng": "127.312663"}, {"statNm": "\ub0a8\uc6d0\uc0c8\ub9c8\uc744\uae08\uace0\uc8fc\uc720\uc18c", "addr": "\uc804\ub77c\ubd81\ub3c4 \ub0a8\uc6d0\uc2dc \uae08\ub3d9 437-6", "lat": "35.406314", "lng": "127.372393"}, {"statNm": "\ub0a8\uc6d0\uc0c8\ub9c8\uc744\uae08\uace0\uc8fc\uc720\uc18c", "addr": "\uc804\ub77c\ubd81\ub3c4 \ub0a8\uc6d0\uc2dc \uae08\ub3d9 437-6", "lat": "35.406314", "lng": "127.372393"}, {"statNm": "SK \uc6b4\ubd09\uc8fc\uc720\uc18c", "addr": "\uc804\ub77c\ubd81\ub3c4 \ub0a8\uc6d0\uc2dc \uc6b4\ubd09\uc74d \ud669\uc0b0\ub85c1026", "lat": "35.437148", "lng": "127.524895"}, {"statNm": "SK \uc11c\uc6b8\uc8fc\uc720\uc18c", "addr": "\uc804\ub77c\ubd81\ub3c4 \uad70\uc0b0\uc2dc \uc11c\uc218\uba74 \ub3d9\uad70\uc0b0\ub85c 984", "lat": "36.003038", "lng": "126.869701"}, {"statNm": "\uc2a4\ud30c\ub77c\ucfe0\uc544", "addr": "\uc804\ub77c\ubd81\ub3c4 \uc804\uc8fc\uc2dc \uc644\uc0b0\uad6c \uc2e0\ucd0c3\uae3824\ubc88\uc9c0", "lat": "35.817418", "lng": "127.115631"}, {"statNm": "\ub86f\ub370\ub9c8\ud2b8 \ub0a8\uc6d0\uc810", "addr": "\uc804\ub77c\ubd81\ub3c4 \ub0a8\uc6d0\uc2dc \ud5a5\uad50\ub3d9 \ucd98\ud5a5\ub85c 96 (\ud5a5\uad50\ub3d9)", "lat": "35.423317", "lng": "127.39247"}, {"statNm": "\uc774\ub9c8\ud2b8 \uc804\uc8fc\uc810", "addr": "\uc804\ub77c\ubd81\ub3c4 \uc804\uc8fc\uc2dc \uc644\uc0b0\uad6c \ub2f9\uc0b0\ub85c 111", "lat": "35.83286374", "lng": "127.12089862"}, {"statNm": "\uc804\uc8fc\ub355\uc9c4\uacf5\uc6d0 \uc8fc\ucc28\uc7a5", "addr": "\uc804\ub77c\ubd81\ub3c4 \uc804\uc8fc\uc2dc \ub355\uc9c4\uad6c \ub355\uc9c4\ub3d9 2\uac00 179-6", "lat": "35.8481760", "lng": "127.1204980"}, {"statNm": "\uc608\uc220\uc758 \uc804\ub2f9", "addr": "\uc804\ub77c\ubd81\ub3c4 \uad70\uc0b0\uc2dc \uc9c0\uace1\ub3d9 286-8", "lat": "35.9607154", "lng": "126.7090665"}, {"statNm": "\uae08\uac15\ucca0\uc0c8\uc870\ub9dd\ub300", "addr": "\uc804\ub77c\ubd81\ub3c4 \uad70\uc0b0\uc2dc \uc131\uc0b0\uba74 \uc131\ub355\ub9ac", "lat": "36.0197065", "lng": "126.7635205"}, {"statNm": "\uc5ec\uc0b0\ud734\uac8c\uc18c(\uc21c\ucc9c\ubc29\ud5a5)", "addr": "\uc804\ub77c\ubd81\ub3c4 \uc775\uc0b0\uc2dc \uc5ec\uc0b0\uba74 \ud638\uc0b0\ub9ac \uc0b032-6", "lat": "36.0479377", "lng": "127.1026013"}, {"statNm": "\ud568\uc5f4\uc62c\ub9bc\ud53d \uc2a4\ud3ec\uce20\uc13c\ud130", "addr": "\uc804\ub77c\ubd81\ub3c4 \uc775\uc0b0\uc2dc \ud568\uc5f4\uc74d \uc640\ub9ac164", "lat": "36.0741298", "lng": "126.963993"}, {"statNm": "\uc815\uc74d\ub179\ub450\uc7a5\uad70\ud734\uac8c\uc18c(\ub17c\uc0b0\ubc29\ud5a5)", "addr": "\uc804\ub77c\ubd81\ub3c4 \uc815\uc74d\uc2dc \ubd81\uba74 \ub0a8\uc0b0\ub9ac", "lat": "35.6006769", "lng": "126.8644591"}, {"statNm": "\uc815\uc74d\ub179\ub450\uc7a5\uad70\ud734\uac8c\uc18c(\uc21c\ucc9c\ubc29\ud5a5)", "addr": "\uc804\ub77c\ubd81\ub3c4 \uc815\uc74d\uc2dc \ubd81\uba74 \uc815\uc2e0\ub85c 135-61", "lat": "35.6016871", "lng": "126.8624805"}, {"statNm": "\uc9c0\ub9ac\uc0b0\ud734\uac8c\uc18c(\uc625\ud3ec\ubc29\ud5a5)", "addr": "\uc804\ub77c\ubd81\ub3c4 \ub0a8\uc6d0\uc2dc \uc544\uc601\uba74 \uc544\uace1\ub9ac", "lat": "35.4808967", "lng": "127.566233"}, {"statNm": "\uc9c0\ub9ac\uc0b0\ud734\uac8c\uc18c(\uace0\uc11c\ubc29\ud5a5)", "addr": "\uc804\ub77c\ubd81\ub3c4 \ub0a8\uc6d0\uc2dc \uc544\uc601\uba74 \uc544\uace1\ub9ac", "lat": "35.4837213", "lng": "127.5665699"}, {"statNm": "\uadfc\ub85c\uc790\uc885\ud569\ubcf5\uc9c0\uad00", "addr": "\uc804\ub77c\ubd81\ub3c4 \uc644\uc8fc\uad70 \ubd09\ub3d9\uc74d \ub454\uc0b0\ub9ac 881", "lat": "35.9628434", "lng": "127.1270991"}, {"statNm": "\uc9c4\uc548\uad70\uccad", "addr": "\uc804\ub77c\ubd81\ub3c4 \uc9c4\uc548\uad70 \uc9c4\uc548\uc74d \uc911\uc559\ub85c 67", "lat": "35.7918402", "lng": "127.4245086"}, {"statNm": "\ub355\uc720\uc0b0\ud734\uac8c\uc18c(\ud558\ub0a8\ubc29\ud5a5)", "addr": "\uc804\ub77c\ubd81\ub3c4 \ubb34\uc8fc\uad70 \uc548\uc131\uba74 \ud1b5\uc601\ub300\uc804\uace0\uc18d\ub3c4\ub85c 148", "lat": "35.8171253", "lng": "127.6457339"}, {"statNm": "\ubb34\uc8fc\uc74d\uc8fc\ubbfc\uc790\uce58\uc13c\ud130", "addr": "\uc804\ub77c\ubd81\ub3c4 \ubb34\uc8fc\uad70 \ubb34\uc8fc\uc74d \ud5a5\ud559\ub85c 49", "lat": "36.0088603", "lng": "127.6619473"}, {"statNm": "\uc548\uc131\uba74\uc8fc\ubbfc\uc790\uce58\uc13c\ud130", "addr": "\uc804\ub77c\ubd81\ub3c4 \ubb34\uc8fc\uad70 \uc548\uc131\uba74 \uc548\uc131\ub85c 246-17", "lat": "35.8629478", "lng": "127.6528909"}, {"statNm": "\ub355\uc720\uc0b0\ud734\uac8c\uc18c(\ud1b5\uc601\ubc29\ud5a5)", "addr": "\uc804\ub77c\ubd81\ub3c4 \uc7a5\uc218\uad70 \uacc4\ubd81\uba74 \ub2f9\uc800\uae38 59", "lat": "35.8142655", "lng": "127.6433798"}, {"statNm": "\uc7a5\uc218\uad70\uccad", "addr": "\uc804\ub77c\ubd81\ub3c4 \uc7a5\uc218\uad70 \uc7a5\uc218\uc74d \ud638\ube44\ub85c 10", "lat": "35.6467192", "lng": "127.5215713"}, {"statNm": "\uc624\uc218\ud734\uac8c\uc18c(\uc804\uc8fc\ubc29\ud5a5)", "addr": "\uc804\ub77c\ubd81\ub3c4 \uc784\uc2e4\uad70 \uc624\uc218\uba74 \ub300\uba85\ub9ac", "lat": "35.5391924", "lng": "127.3111266"}, {"statNm": "\uc624\uc218\ud734\uac8c\uc18c(\uad11\uc591\ubc29\ud5a5)", "addr": "\uc804\ub77c\ubd81\ub3c4 \uc784\uc2e4\uad70 \uc624\uc218\uba74 \uc624\uc0b0\ub9ac", "lat": "35.5398971", "lng": "127.3091337"}, {"statNm": "\uace0\ucc3d\uad70 \uc74d\uc131\uc8fc\ucc28\uc7a5", "addr": "\uc804\ub77c\ubd81\ub3c4 \uace0\ucc3d\uad70 \uace0\ucc3d\uc74d \ub3d9\ub9ac\ub85c 117", "lat": "35.4329963", "lng": "126.7061833"}, {"statNm": "\uace0\ucc3d\uace0\uc778\ub3cc\ud734\uac8c\uc18c(\ubaa9\ud3ec\ubc29\ud5a5)", "addr": "\uc804\ub77c\ubd81\ub3c4 \uace0\ucc3d\uad70 \uace0\ucc3d\uc74d \uc11c\ud574\uc548\uace0\uc18d\ub3c4\ub85c 81 (\ubcbd\uc1a1\ub9ac)", "lat": "35.4690375", "lng": "126.6742688"}, {"statNm": "\uace0\ucc3d\uace0\uc778\ub3cc\ud734\uac8c\uc18c(\ubaa9\ud3ec\ubc29\ud5a5)", "addr": "\uc804\ub77c\ubd81\ub3c4 \uace0\ucc3d\uad70 \uace0\ucc3d\uc74d \uc11c\ud574\uc548\uace0\uc18d\ub3c4\ub85c 81 (\ubcbd\uc1a1\ub9ac)", "lat": "35.4690375", "lng": "126.6742688"}, {"statNm": "\uace0\ucc3d\uace0\uc778\ub3cc\ud734\uac8c\uc18c(\uc2dc\ud765\ubc29\ud5a5)", "addr": "\uc804\ub77c\ubd81\ub3c4 \uace0\ucc3d\uad70 \uace0\ucc3d\uc74d \uc11c\ud574\uc548\uace0\uc18d\ub3c4\ub85c 80 (\uc2e0\uc6d4\ub9ac)", "lat": "35.461348", "lng": "126.6729203"}, {"statNm": "\uace0\ucc3d\uace0\uc778\ub3cc\ud734\uac8c\uc18c(\uc2dc\ud765\ubc29\ud5a5)", "addr": "\uc804\ub77c\ubd81\ub3c4 \uace0\ucc3d\uad70 \uace0\ucc3d\uc74d \uc11c\ud574\uc548\uace0\uc18d\ub3c4\ub85c 80 (\uc2e0\uc6d4\ub9ac)", "lat": "35.461348", "lng": "126.6729203"}, {"statNm": "\uc774\uc11c\ud734\uac8c\uc18c(\uc21c\ucc9c\ubc29\ud5a5)", "addr": "\uc804\ub77c\ubd81\ub3c4 \uc644\uc8fc\uad70 \uc774\uc11c\uba74 \ud638\ub0a8\uace0\uc18d\ub3c4\ub85c 161 (\uc740\uad50\ub9ac)", "lat": "35.8034454", "lng": "127.0240566"}, {"statNm": "\uc774\uc11c\ud734\uac8c\uc18c(\uc21c\ucc9c\ubc29\ud5a5)", "addr": "\uc804\ub77c\ubd81\ub3c4 \uc644\uc8fc\uad70 \uc774\uc11c\uba74 \ud638\ub0a8\uace0\uc18d\ub3c4\ub85c 161 (\uc740\uad50\ub9ac)", "lat": "35.8034454", "lng": "127.0240566"}, {"statNm": "\uc774\uc11c\ud734\uac8c\uc18c(\ucc9c\uc548\ubc29\ud5a5)", "addr": "\uc804\ub77c\ubd81\ub3c4 \uc644\uc8fc\uad70 \uc774\uc11c\uba74 \ud638\ub0a8\uace0\uc18d\ub3c4\ub85c 162 (\uc740\uad50\ub9ac)", "lat": "35.802184", "lng": "127.0258792"}, {"statNm": "\uc774\uc11c\ud734\uac8c\uc18c(\ucc9c\uc548\ubc29\ud5a5)", "addr": "\uc804\ub77c\ubd81\ub3c4 \uc644\uc8fc\uad70 \uc774\uc11c\uba74 \ud638\ub0a8\uace0\uc18d\ub3c4\ub85c 162 (\uc740\uad50\ub9ac)", "lat": "35.802184", "lng": "127.0258792"}, {"statNm": "\uc815\uc74d\ud734\uac8c\uc18c(\ub17c\uc0b0\ubc29\ud5a5)", "addr": "\uc804\ub77c\ubd81\ub3c4 \uc815\uc74d\uc2dc \ubd81\uba74 \ud558\ubd811\uae38 227-17 (\ub0a8\uc0b0\ub9ac)", "lat": "35.6005769", "lng": "126.8646591"}, {"statNm": "\uc815\uc74d\ud734\uac8c\uc18c(\uc21c\ucc9c\ubc29\ud5a5)", "addr": "\uc804\ub77c\ubd81\ub3c4 \uc815\uc74d\uc2dc \ubd81\uba74 \uc815\uc2e0\ub85c 135-61 (\ub0a8\uc0b0\ub9ac)", "lat": "35.6015871", "lng": "126.8626805"}, {"statNm": "\ub355\uc720\uc0b0\ud734\uac8c\uc18c(\ud1b5\uc601\ubc29\ud5a5)", "addr": "\uc804\ub77c\ubd81\ub3c4 \uc7a5\uc218\uad70 \uacc4\ubd81\uba74 \ub2f9\uc800\uae38 59 (\uc591\uc545\ub9ac)", "lat": "35.8141655", "lng": "127.6435798"}, {"statNm": "\ub355\uc720\uc0b0\ud734\uac8c\uc18c(\ud558\ub0a8\ubc29\ud5a5)", "addr": "\uc804\ub77c\ubd81\ub3c4 \ubb34\uc8fc\uad70 \uc548\uc131\uba74 \ud1b5\uc601\ub300\uc804\uace0\uc18d\ub3c4\ub85c 148 (\uacf5\uc9c4\ub9ac)", "lat": "35.8170253", "lng": "127.6459339"}, {"statNm": "\uc9c0\ub9ac\uc0b0\ud734\uac8c\uc18c(\uace0\uc11c\ubc29\ud5a5)", "addr": "\uc804\ub77c\ubd81\ub3c4 \ub0a8\uc6d0\uc2dc \uc544\uc601\uba74 88\uc62c\ub9bc\ud53d\uace0\uc18d\ub3c4\ub85c 75 (\uc544\uace1\ub9ac)", "lat": "35.4836213", "lng": "127.5667699"}, {"statNm": "\uc9c0\ub9ac\uc0b0\ud734\uac8c\uc18c(\uace0\uc11c\ubc29\ud5a5)", "addr": "\uc804\ub77c\ubd81\ub3c4 \ub0a8\uc6d0\uc2dc \uc544\uc601\uba74 88\uc62c\ub9bc\ud53d\uace0\uc18d\ub3c4\ub85c 75 (\uc544\uace1\ub9ac)", "lat": "35.4836213", "lng": "127.5667699"}, {"statNm": "\uc9c0\ub9ac\uc0b0\ud734\uac8c\uc18c(\uc625\ud3ec\ubc29\ud5a5)", "addr": "\uc804\ub77c\ubd81\ub3c4 \ub0a8\uc6d0\uc2dc \uc544\uc601\uba74 88\uc62c\ub9bc\ud53d\uace0\uc18d\ub3c4\ub85c 76 (\uc544\uace1\ub9ac)", "lat": "35.4808967", "lng": "127.566233"}, {"statNm": "\uc9c0\ub9ac\uc0b0\ud734\uac8c\uc18c(\uc625\ud3ec\ubc29\ud5a5)", "addr": "\uc804\ub77c\ubd81\ub3c4 \ub0a8\uc6d0\uc2dc \uc544\uc601\uba74 88\uc62c\ub9bc\ud53d\uace0\uc18d\ub3c4\ub85c 76 (\uc544\uace1\ub9ac)", "lat": "35.4808967", "lng": "127.566233"}, {"statNm": "\uac15\ucc9c\uc0b0\ud734\uac8c\uc18c(\ub300\uad6c\ubc29\ud5a5)", "addr": "\uc804\ub77c\ubd81\ub3c4 \uc21c\ucc3d\uad70 \uc21c\ucc3d\uc74d 88\uc62c\ub9bc\ud53d\uace0\uc18d\ub3c4\ub85c 22 (\ubc31\uc0b0\ub9ac)", "lat": "35.364473", "lng": "127.1048023"}, {"statNm": "\uac15\ucc9c\uc0b0\ud734\uac8c\uc18c(\ub300\uad6c\ubc29\ud5a5)", "addr": "\uc804\ub77c\ubd81\ub3c4 \uc21c\ucc3d\uad70 \uc21c\ucc3d\uc74d 88\uc62c\ub9bc\ud53d\uace0\uc18d\ub3c4\ub85c 22 (\ubc31\uc0b0\ub9ac)", "lat": "35.364473", "lng": "127.1048023"}, {"statNm": "\uc9c4\uc548\ud734\uac8c\uc18c(\uc775\uc0b0\ubc29\ud5a5)", "addr": "\uc804\ub77c\ubd81\ub3c4 \uc9c4\uc548\uad70 \uc9c4\uc548\uc74d \uc775\uc0b0\uc7a5\uc218\uace0\uc18d\ub3c4\ub85c 41 (\ub2e8\uc591\ub9ac)", "lat": "35.7782697", "lng": "127.425744"}, {"statNm": "\uc9c4\uc548\ud734\uac8c\uc18c(\uc775\uc0b0\ubc29\ud5a5)", "addr": "\uc804\ub77c\ubd81\ub3c4 \uc9c4\uc548\uad70 \uc9c4\uc548\uc74d \uc775\uc0b0\uc7a5\uc218\uace0\uc18d\ub3c4\ub85c 41 (\ub2e8\uc591\ub9ac)", "lat": "35.7782697", "lng": "127.425744"}, {"statNm": "\uc9c4\uc548\ud734\uac8c\uc18c(\uc7a5\uc218\ubc29\ud5a5)", "addr": "\uc804\ub77c\ubd81\ub3c4 \uc9c4\uc548\uad70 \uc9c4\uc548\uc74d \uc775\uc0b0\uc7a5\uc218\uace0\uc18d\ub3c4\ub85c 42 (\ub2e8\uc591\ub9ac)", "lat": "35.774925", "lng": "127.4262837"}, {"statNm": "\uc9c4\uc548\ud734\uac8c\uc18c(\uc7a5\uc218\ubc29\ud5a5)", "addr": "\uc804\ub77c\ubd81\ub3c4 \uc9c4\uc548\uad70 \uc9c4\uc548\uc74d \uc775\uc0b0\uc7a5\uc218\uace0\uc18d\ub3c4\ub85c 42 (\ub2e8\uc591\ub9ac)", "lat": "35.774925", "lng": "127.4262837"}, {"statNm": "\ub86f\ub370\ub9c8\ud2b8 \uad70\uc0b0\uc810", "addr": "\uc804\ub77c\ubd81\ub3c4 \uad70\uc0b0\uc2dc \uc218\uc1a1\ub85c 185 (\uc218\uc1a1\ub3d9)", "lat": "35.9647788", "lng": "126.7163555"}, {"statNm": "\ub86f\ub370\ub9c8\ud2b8 \uad70\uc0b0\uc810", "addr": "\uc804\ub77c\ubd81\ub3c4 \uad70\uc0b0\uc2dc \uc218\uc1a1\ub85c 185 (\uc218\uc1a1\ub3d9)", "lat": "35.9647788", "lng": "126.7163555"}, {"statNm": "\ub86f\ub370\ub9c8\ud2b8 \uc775\uc0b0\uc810", "addr": "\uc804\ub77c\ubd81\ub3c4 \uc775\uc0b0\uc2dc \ubb34\uc655\ub85c 1053 (\uc601\ub4f1\ub3d9)", "lat": "35.9597398", "lng": "126.9741078"}, {"statNm": "\ub86f\ub370\ub9c8\ud2b8 \uc775\uc0b0\uc810", "addr": "\uc804\ub77c\ubd81\ub3c4 \uc775\uc0b0\uc2dc \ubb34\uc655\ub85c 1053 (\uc601\ub4f1\ub3d9)", "lat": "35.9597398", "lng": "126.9741078"}, {"statNm": "\ub86f\ub370\ub9c8\ud2b8 \uc775\uc0b0\uc810", "addr": "\uc804\ub77c\ubd81\ub3c4 \uc775\uc0b0\uc2dc \ubb34\uc655\ub85c 1053 (\uc601\ub4f1\ub3d9)", "lat": "35.9597398", "lng": "126.9741078"}, {"statNm": "\ubcc0\uc0b0\ubc18\ub3c4\uad6d\ub9bd\uacf5\uc6d0 \uaca9\ud3ec\uc8fc\ucc28\uc7a5", "addr": "\uc804\ub77c\ubd81\ub3c4 \ubd80\uc548\uad70 \ubcc0\uc0b0\uba74 \uaca9\ud3ec\ub9ac 283-1", "lat": "35.627881", "lng": "126.471165"}, {"statNm": "\ubcc0\uc0b0\ubc18\ub3c4\uad6d\ub9bd\uacf5\uc6d0 \uaca9\ud3ec\uc8fc\ucc28\uc7a5", "addr": "\uc804\ub77c\ubd81\ub3c4 \ubd80\uc548\uad70 \ubcc0\uc0b0\uba74 \uaca9\ud3ec\ub9ac 283-1", "lat": "35.627881", "lng": "126.471165"}, {"statNm": "\ubcc0\uc0b0\ubc18\ub3c4\uad6d\ub9bd\uacf5\uc6d0 \ub0b4\uc18c\uc8fc\ucc28\uc7a5", "addr": "\uc804\ub77c\ubd81\ub3c4 \ubd80\uc548\uad70 \uc9c4\uc11c\uba74 \uc11d\ud3ec\ub9ac 240", "lat": "35.610062", "lng": "126.588533"}, {"statNm": "\ubcc0\uc0b0\ubc18\ub3c4\uad6d\ub9bd\uacf5\uc6d0 \ub0b4\uc18c\uc8fc\ucc28\uc7a5", "addr": "\uc804\ub77c\ubd81\ub3c4 \ubd80\uc548\uad70 \uc9c4\uc11c\uba74 \uc11d\ud3ec\ub9ac 240", "lat": "35.610062", "lng": "126.588533"}, {"statNm": "\uc9c0\ub9ac\uc0b0\uad6d\ub9bd\uacf5\uc6d0 \ubd81\ubd80 \ubc18\uc120\uc8fc\ucc28\uc7a5", "addr": "\uc804\ub77c\ubd81\ub3c4 \ub0a8\uc6d0\uc2dc \uc0b0\ub0b4\uba74 \ubd80\uc6b4\ub9ac 216-10", "lat": "35.377231", "lng": "127.581692"}, {"statNm": "\uc9c0\ub9ac\uc0b0\uad6d\ub9bd\uacf5\uc6d0 \ubd81\ubd80 \ubc18\uc120\uc8fc\ucc28\uc7a5", "addr": "\uc804\ub77c\ubd81\ub3c4 \ub0a8\uc6d0\uc2dc \uc0b0\ub0b4\uba74 \ubd80\uc6b4\ub9ac 216-10", "lat": "35.377231", "lng": "127.581692"}, {"statNm": "\uc9c0\ub9ac\uc0b0\uad6d\ub9bd\uacf5\uc6d0 \ubc40\uc0ac\uace8\uc57c\uc601\uc7a5", "addr": "\uc804\ub77c\ubd81\ub3c4 \ub0a8\uc6d0\uc2dc \uc0b0\ub0b4\uba74 \ub355\ub3d9\ub9ac 406", "lat": "35.354821", "lng": "127.558283"}, {"statNm": "\uc9c0\ub9ac\uc0b0\uad6d\ub9bd\uacf5\uc6d0 \ubc40\uc0ac\uace8\uc57c\uc601\uc7a5", "addr": "\uc804\ub77c\ubd81\ub3c4 \ub0a8\uc6d0\uc2dc \uc0b0\ub0b4\uba74 \ub355\ub3d9\ub9ac 406", "lat": "35.354821", "lng": "127.558283"}, {"statNm": "\ub0b4\uc7a5\uc0b0\uad6d\ub9bd\uacf5\uc6d0 \ud0d0\ubc29\uc548\ub0b4\uc18c", "addr": "\uc804\ub77c\ubd81\ub3c4 \uc815\uc74d\uc2dc \ub0b4\uc7a5\ub3d9 673-1", "lat": "35.487895", "lng": "126.907447"}, {"statNm": "\ub0b4\uc7a5\uc0b0\uad6d\ub9bd\uacf5\uc6d0 1(\ub0b4\uc7a5)\uc8fc\ucc28\uc7a5", "addr": "\uc804\ub77c\ubd81\ub3c4 \uc815\uc74d\uc2dc \ub0b4\uc7a5\ub3d9 52", "lat": "35.49408", "lng": "126.925858"}, {"statNm": "\ub0b4\uc7a5\uc0b0\uad6d\ub9bd\uacf5\uc6d0 1(\ub0b4\uc7a5)\uc8fc\ucc28\uc7a5", "addr": "\uc804\ub77c\ubd81\ub3c4 \uc815\uc74d\uc2dc \ub0b4\uc7a5\ub3d9 52", "lat": "35.49408", "lng": "126.925858"}, {"statNm": "\ub0b4\uc7a5\uc0b0\uad6d\ub9bd\uacf5\uc6d0 \ub124\uc774\ucc98\uc13c\ud130", "addr": "\uc804\ub77c\ubd81\ub3c4 \uc815\uc74d\uc2dc \ub0b4\uc7a5\ub3d9 169-1", "lat": "35.508267", "lng": "126.906523"}, {"statNm": "\ub0b4\uc7a5\uc0b0\uad6d\ub9bd\uacf5\uc6d0 \ub124\uc774\ucc98\uc13c\ud130", "addr": "\uc804\ub77c\ubd81\ub3c4 \uc815\uc74d\uc2dc \ub0b4\uc7a5\ub3d9 169-1", "lat": "35.508267", "lng": "126.906523"}, {"statNm": "\ub355\uc720\uc0b0\uad6d\ub9bd\uacf5\uc6d0 \ub355\uc720\ub300\uc57c\uc601\uc7a5", "addr": "\uc804\ub77c\ubd81\ub3c4 \ubb34\uc8fc\uad70 \uc124\ucc9c\uba74 \uc0bc\uacf5\ub9ac 456-1\ubc88\uc9c0", "lat": "35.893725", "lng": "127.772644"}, {"statNm": "\ub355\uc720\uc0b0\uad6d\ub9bd\uacf5\uc6d0 \ub355\uc720\ub300\uc57c\uc601\uc7a5", "addr": "\uc804\ub77c\ubd81\ub3c4 \ubb34\uc8fc\uad70 \uc124\ucc9c\uba74 \uc0bc\uacf5\ub9ac 456-1\ubc88\uc9c0", "lat": "35.893725", "lng": "127.772644"}, {"statNm": "\ub355\uc720\uc0b0\uad6d\ub9bd\uacf5\uc6d0 \uad00\ub9ac\uc0ac\ubb34\uc18c \uc55e \uc8fc\ucc28\uc7a5", "addr": "\uc804\ub77c\ubd81\ub3c4 \ubb34\uc8fc\uad70 \uc124\ucc9c\uba74 \uc0bc\uacf5\ub9ac 411", "lat": "35.901189", "lng": "127.775679"}, {"statNm": "\ub355\uc720\uc0b0\uad6d\ub9bd\uacf5\uc6d0 \uad00\ub9ac\uc0ac\ubb34\uc18c \uc55e \uc8fc\ucc28\uc7a5", "addr": "\uc804\ub77c\ubd81\ub3c4 \ubb34\uc8fc\uad70 \uc124\ucc9c\uba74 \uc0bc\uacf5\ub9ac 411", "lat": "35.901189", "lng": "127.775679"}, {"statNm": "SK \uc81c\uc77c\uc8fc\uc720\uc18c", "addr": "\uc804\ub77c\ubd81\ub3c4 \ub0a8\uc6d0\uc2dc \uc8fc\uc0dd\uba74 \uc81c\ucc9c\ub9ac 245", "lat": "35.372288", "lng": "127.312663"}, {"statNm": "\ub0a8\uc6d0\uc0c8\ub9c8\uc744\uae08\uace0\uc8fc\uc720\uc18c", "addr": "\uc804\ub77c\ubd81\ub3c4 \ub0a8\uc6d0\uc2dc \uae08\ub3d9 437-6", "lat": "35.406314", "lng": "127.372393"}, {"statNm": "\ub0a8\uc6d0\uc0c8\ub9c8\uc744\uae08\uace0\uc8fc\uc720\uc18c", "addr": "\uc804\ub77c\ubd81\ub3c4 \ub0a8\uc6d0\uc2dc \uae08\ub3d9 437-6", "lat": "35.406314", "lng": "127.372393"}, {"statNm": "SK \uc6b4\ubd09\uc8fc\uc720\uc18c", "addr": "\uc804\ub77c\ubd81\ub3c4 \ub0a8\uc6d0\uc2dc \uc6b4\ubd09\uc74d \ud669\uc0b0\ub85c1026", "lat": "35.437148", "lng": "127.524895"}, {"statNm": "SK \uc11c\uc6b8\uc8fc\uc720\uc18c", "addr": "\uc804\ub77c\ubd81\ub3c4 \uad70\uc0b0\uc2dc \uc11c\uc218\uba74 \ub3d9\uad70\uc0b0\ub85c 984", "lat": "36.003038", "lng": "126.869701"}, {"statNm": "\uc2a4\ud30c\ub77c\ucfe0\uc544", "addr": "\uc804\ub77c\ubd81\ub3c4 \uc804\uc8fc\uc2dc \uc644\uc0b0\uad6c \uc2e0\ucd0c3\uae3824\ubc88\uc9c0", "lat": "35.817418", "lng": "127.115631"}, {"statNm": "\ub86f\ub370\ub9c8\ud2b8 \ub0a8\uc6d0\uc810", "addr": "\uc804\ub77c\ubd81\ub3c4 \ub0a8\uc6d0\uc2dc \ud5a5\uad50\ub3d9 \ucd98\ud5a5\ub85c 96 (\ud5a5\uad50\ub3d9)", "lat": "35.423317", "lng": "127.39247"}, {"statNm": "\uc774\ub9c8\ud2b8 \uc804\uc8fc\uc810", "addr": "\uc804\ub77c\ubd81\ub3c4 \uc804\uc8fc\uc2dc \uc644\uc0b0\uad6c \ub2f9\uc0b0\ub85c 111", "lat": "35.83286374", "lng": "127.12089862"}, {"statNm": "\uc804\uc8fc\ub355\uc9c4\uacf5\uc6d0 \uc8fc\ucc28\uc7a5", "addr": "\uc804\ub77c\ubd81\ub3c4 \uc804\uc8fc\uc2dc \ub355\uc9c4\uad6c \ub355\uc9c4\ub3d9 2\uac00 179-6", "lat": "35.8481760", "lng": "127.1204980"}, {"statNm": "\uc608\uc220\uc758 \uc804\ub2f9", "addr": "\uc804\ub77c\ubd81\ub3c4 \uad70\uc0b0\uc2dc \uc9c0\uace1\ub3d9 286-8", "lat": "35.9607154", "lng": "126.7090665"}, {"statNm": "\uae08\uac15\ucca0\uc0c8\uc870\ub9dd\ub300", "addr": "\uc804\ub77c\ubd81\ub3c4 \uad70\uc0b0\uc2dc \uc131\uc0b0\uba74 \uc131\ub355\ub9ac", "lat": "36.0197065", "lng": "126.7635205"}, {"statNm": "\uc5ec\uc0b0\ud734\uac8c\uc18c(\uc21c\ucc9c\ubc29\ud5a5)", "addr": "\uc804\ub77c\ubd81\ub3c4 \uc775\uc0b0\uc2dc \uc5ec\uc0b0\uba74 \ud638\uc0b0\ub9ac \uc0b032-6", "lat": "36.0479377", "lng": "127.1026013"}, {"statNm": "\ud568\uc5f4\uc62c\ub9bc\ud53d \uc2a4\ud3ec\uce20\uc13c\ud130", "addr": "\uc804\ub77c\ubd81\ub3c4 \uc775\uc0b0\uc2dc \ud568\uc5f4\uc74d \uc640\ub9ac164", "lat": "36.0741298", "lng": "126.963993"}, {"statNm": "\uc815\uc74d\ub179\ub450\uc7a5\uad70\ud734\uac8c\uc18c(\ub17c\uc0b0\ubc29\ud5a5)", "addr": "\uc804\ub77c\ubd81\ub3c4 \uc815\uc74d\uc2dc \ubd81\uba74 \ub0a8\uc0b0\ub9ac", "lat": "35.6006769", "lng": "126.8644591"}, {"statNm": "\uc815\uc74d\ub179\ub450\uc7a5\uad70\ud734\uac8c\uc18c(\uc21c\ucc9c\ubc29\ud5a5)", "addr": "\uc804\ub77c\ubd81\ub3c4 \uc815\uc74d\uc2dc \ubd81\uba74 \uc815\uc2e0\ub85c 135-61", "lat": "35.6016871", "lng": "126.8624805"}, {"statNm": "\uc9c0\ub9ac\uc0b0\ud734\uac8c\uc18c(\uc625\ud3ec\ubc29\ud5a5)", "addr": "\uc804\ub77c\ubd81\ub3c4 \ub0a8\uc6d0\uc2dc \uc544\uc601\uba74 \uc544\uace1\ub9ac", "lat": "35.4808967", "lng": "127.566233"}, {"statNm": "\uc9c0\ub9ac\uc0b0\ud734\uac8c\uc18c(\uace0\uc11c\ubc29\ud5a5)", "addr": "\uc804\ub77c\ubd81\ub3c4 \ub0a8\uc6d0\uc2dc \uc544\uc601\uba74 \uc544\uace1\ub9ac", "lat": "35.4837213", "lng": "127.5665699"}, {"statNm": "\uadfc\ub85c\uc790\uc885\ud569\ubcf5\uc9c0\uad00", "addr": "\uc804\ub77c\ubd81\ub3c4 \uc644\uc8fc\uad70 \ubd09\ub3d9\uc74d \ub454\uc0b0\ub9ac 881", "lat": "35.9628434", "lng": "127.1270991"}, {"statNm": "\uc9c4\uc548\uad70\uccad", "addr": "\uc804\ub77c\ubd81\ub3c4 \uc9c4\uc548\uad70 \uc9c4\uc548\uc74d \uc911\uc559\ub85c 67", "lat": "35.7918402", "lng": "127.4245086"}, {"statNm": "\ub355\uc720\uc0b0\ud734\uac8c\uc18c(\ud558\ub0a8\ubc29\ud5a5)", "addr": "\uc804\ub77c\ubd81\ub3c4 \ubb34\uc8fc\uad70 \uc548\uc131\uba74 \ud1b5\uc601\ub300\uc804\uace0\uc18d\ub3c4\ub85c 148", "lat": "35.8171253", "lng": "127.6457339"}, {"statNm": "\ubb34\uc8fc\uc74d\uc8fc\ubbfc\uc790\uce58\uc13c\ud130", "addr": "\uc804\ub77c\ubd81\ub3c4 \ubb34\uc8fc\uad70 \ubb34\uc8fc\uc74d \ud5a5\ud559\ub85c 49", "lat": "36.0088603", "lng": "127.6619473"}, {"statNm": "\uc548\uc131\uba74\uc8fc\ubbfc\uc790\uce58\uc13c\ud130", "addr": "\uc804\ub77c\ubd81\ub3c4 \ubb34\uc8fc\uad70 \uc548\uc131\uba74 \uc548\uc131\ub85c 246-17", "lat": "35.8629478", "lng": "127.6528909"}, {"statNm": "\ub355\uc720\uc0b0\ud734\uac8c\uc18c(\ud1b5\uc601\ubc29\ud5a5)", "addr": "\uc804\ub77c\ubd81\ub3c4 \uc7a5\uc218\uad70 \uacc4\ubd81\uba74 \ub2f9\uc800\uae38 59", "lat": "35.8142655", "lng": "127.6433798"}, {"statNm": "\uc7a5\uc218\uad70\uccad", "addr": "\uc804\ub77c\ubd81\ub3c4 \uc7a5\uc218\uad70 \uc7a5\uc218\uc74d \ud638\ube44\ub85c 10", "lat": "35.6467192", "lng": "127.5215713"}, {"statNm": "\uc624\uc218\ud734\uac8c\uc18c(\uc804\uc8fc\ubc29\ud5a5)", "addr": "\uc804\ub77c\ubd81\ub3c4 \uc784\uc2e4\uad70 \uc624\uc218\uba74 \ub300\uba85\ub9ac", "lat": "35.5391924", "lng": "127.3111266"}, {"statNm": "\uc624\uc218\ud734\uac8c\uc18c(\uad11\uc591\ubc29\ud5a5)", "addr": "\uc804\ub77c\ubd81\ub3c4 \uc784\uc2e4\uad70 \uc624\uc218\uba74 \uc624\uc0b0\ub9ac", "lat": "35.5398971", "lng": "127.3091337"}, {"statNm": "\uace0\ucc3d\uad70 \uc74d\uc131\uc8fc\ucc28\uc7a5", "addr": "\uc804\ub77c\ubd81\ub3c4 \uace0\ucc3d\uad70 \uace0\ucc3d\uc74d \ub3d9\ub9ac\ub85c 117", "lat": "35.4329963", "lng": "126.7061833"}, {"statNm": "\uace0\ucc3d\uace0\uc778\ub3cc\ud734\uac8c\uc18c(\ubaa9\ud3ec\ubc29\ud5a5)", "addr": "\uc804\ub77c\ubd81\ub3c4 \uace0\ucc3d\uad70 \uace0\ucc3d\uc74d \uc11c\ud574\uc548\uace0\uc18d\ub3c4\ub85c 81 (\ubcbd\uc1a1\ub9ac)", "lat": "35.4690375", "lng": "126.6742688"}, {"statNm": "\uace0\ucc3d\uace0\uc778\ub3cc\ud734\uac8c\uc18c(\ubaa9\ud3ec\ubc29\ud5a5)", "addr": "\uc804\ub77c\ubd81\ub3c4 \uace0\ucc3d\uad70 \uace0\ucc3d\uc74d \uc11c\ud574\uc548\uace0\uc18d\ub3c4\ub85c 81 (\ubcbd\uc1a1\ub9ac)", "lat": "35.4690375", "lng": "126.6742688"}, {"statNm": "\uace0\ucc3d\uace0\uc778\ub3cc\ud734\uac8c\uc18c(\uc2dc\ud765\ubc29\ud5a5)", "addr": "\uc804\ub77c\ubd81\ub3c4 \uace0\ucc3d\uad70 \uace0\ucc3d\uc74d \uc11c\ud574\uc548\uace0\uc18d\ub3c4\ub85c 80 (\uc2e0\uc6d4\ub9ac)", "lat": "35.461348", "lng": "126.6729203"}, {"statNm": "\uace0\ucc3d\uace0\uc778\ub3cc\ud734\uac8c\uc18c(\uc2dc\ud765\ubc29\ud5a5)", "addr": "\uc804\ub77c\ubd81\ub3c4 \uace0\ucc3d\uad70 \uace0\ucc3d\uc74d \uc11c\ud574\uc548\uace0\uc18d\ub3c4\ub85c 80 (\uc2e0\uc6d4\ub9ac)", "lat": "35.461348", "lng": "126.6729203"}, {"statNm": "\uc774\uc11c\ud734\uac8c\uc18c(\uc21c\ucc9c\ubc29\ud5a5)", "addr": "\uc804\ub77c\ubd81\ub3c4 \uc644\uc8fc\uad70 \uc774\uc11c\uba74 \ud638\ub0a8\uace0\uc18d\ub3c4\ub85c 161 (\uc740\uad50\ub9ac)", "lat": "35.8034454", "lng": "127.0240566"}, {"statNm": "\uc774\uc11c\ud734\uac8c\uc18c(\uc21c\ucc9c\ubc29\ud5a5)", "addr": "\uc804\ub77c\ubd81\ub3c4 \uc644\uc8fc\uad70 \uc774\uc11c\uba74 \ud638\ub0a8\uace0\uc18d\ub3c4\ub85c 161 (\uc740\uad50\ub9ac)", "lat": "35.8034454", "lng": "127.0240566"}, {"statNm": "\uc774\uc11c\ud734\uac8c\uc18c(\ucc9c\uc548\ubc29\ud5a5)", "addr": "\uc804\ub77c\ubd81\ub3c4 \uc644\uc8fc\uad70 \uc774\uc11c\uba74 \ud638\ub0a8\uace0\uc18d\ub3c4\ub85c 162 (\uc740\uad50\ub9ac)", "lat": "35.802184", "lng": "127.0258792"}, {"statNm": "\uc774\uc11c\ud734\uac8c\uc18c(\ucc9c\uc548\ubc29\ud5a5)", "addr": "\uc804\ub77c\ubd81\ub3c4 \uc644\uc8fc\uad70 \uc774\uc11c\uba74 \ud638\ub0a8\uace0\uc18d\ub3c4\ub85c 162 (\uc740\uad50\ub9ac)", "lat": "35.802184", "lng": "127.0258792"}, {"statNm": "\uc815\uc74d\ud734\uac8c\uc18c(\ub17c\uc0b0\ubc29\ud5a5)", "addr": "\uc804\ub77c\ubd81\ub3c4 \uc815\uc74d\uc2dc \ubd81\uba74 \ud558\ubd811\uae38 227-17 (\ub0a8\uc0b0\ub9ac)", "lat": "35.6005769", "lng": "126.8646591"}, {"statNm": "\uc815\uc74d\ud734\uac8c\uc18c(\uc21c\ucc9c\ubc29\ud5a5)", "addr": "\uc804\ub77c\ubd81\ub3c4 \uc815\uc74d\uc2dc \ubd81\uba74 \uc815\uc2e0\ub85c 135-61 (\ub0a8\uc0b0\ub9ac)", "lat": "35.6015871", "lng": "126.8626805"}, {"statNm": "\ub355\uc720\uc0b0\ud734\uac8c\uc18c(\ud1b5\uc601\ubc29\ud5a5)", "addr": "\uc804\ub77c\ubd81\ub3c4 \uc7a5\uc218\uad70 \uacc4\ubd81\uba74 \ub2f9\uc800\uae38 59 (\uc591\uc545\ub9ac)", "lat": "35.8141655", "lng": "127.6435798"}, {"statNm": "\ub355\uc720\uc0b0\ud734\uac8c\uc18c(\ud558\ub0a8\ubc29\ud5a5)", "addr": "\uc804\ub77c\ubd81\ub3c4 \ubb34\uc8fc\uad70 \uc548\uc131\uba74 \ud1b5\uc601\ub300\uc804\uace0\uc18d\ub3c4\ub85c 148 (\uacf5\uc9c4\ub9ac)", "lat": "35.8170253", "lng": "127.6459339"}, {"statNm": "\uc9c0\ub9ac\uc0b0\ud734\uac8c\uc18c(\uace0\uc11c\ubc29\ud5a5)", "addr": "\uc804\ub77c\ubd81\ub3c4 \ub0a8\uc6d0\uc2dc \uc544\uc601\uba74 88\uc62c\ub9bc\ud53d\uace0\uc18d\ub3c4\ub85c 75 (\uc544\uace1\ub9ac)", "lat": "35.4836213", "lng": "127.5667699"}, {"statNm": "\uc9c0\ub9ac\uc0b0\ud734\uac8c\uc18c(\uace0\uc11c\ubc29\ud5a5)", "addr": "\uc804\ub77c\ubd81\ub3c4 \ub0a8\uc6d0\uc2dc \uc544\uc601\uba74 88\uc62c\ub9bc\ud53d\uace0\uc18d\ub3c4\ub85c 75 (\uc544\uace1\ub9ac)", "lat": "35.4836213", "lng": "127.5667699"}, {"statNm": "\uc9c0\ub9ac\uc0b0\ud734\uac8c\uc18c(\uc625\ud3ec\ubc29\ud5a5)", "addr": "\uc804\ub77c\ubd81\ub3c4 \ub0a8\uc6d0\uc2dc \uc544\uc601\uba74 88\uc62c\ub9bc\ud53d\uace0\uc18d\ub3c4\ub85c 76 (\uc544\uace1\ub9ac)", "lat": "35.4808967", "lng": "127.566233"}, {"statNm": "\uc9c0\ub9ac\uc0b0\ud734\uac8c\uc18c(\uc625\ud3ec\ubc29\ud5a5)", "addr": "\uc804\ub77c\ubd81\ub3c4 \ub0a8\uc6d0\uc2dc \uc544\uc601\uba74 88\uc62c\ub9bc\ud53d\uace0\uc18d\ub3c4\ub85c 76 (\uc544\uace1\ub9ac)", "lat": "35.4808967", "lng": "127.566233"}, {"statNm": "\uac15\ucc9c\uc0b0\ud734\uac8c\uc18c(\ub300\uad6c\ubc29\ud5a5)", "addr": "\uc804\ub77c\ubd81\ub3c4 \uc21c\ucc3d\uad70 \uc21c\ucc3d\uc74d 88\uc62c\ub9bc\ud53d\uace0\uc18d\ub3c4\ub85c 22 (\ubc31\uc0b0\ub9ac)", "lat": "35.364473", "lng": "127.1048023"}, {"statNm": "\uac15\ucc9c\uc0b0\ud734\uac8c\uc18c(\ub300\uad6c\ubc29\ud5a5)", "addr": "\uc804\ub77c\ubd81\ub3c4 \uc21c\ucc3d\uad70 \uc21c\ucc3d\uc74d 88\uc62c\ub9bc\ud53d\uace0\uc18d\ub3c4\ub85c 22 (\ubc31\uc0b0\ub9ac)", "lat": "35.364473", "lng": "127.1048023"}, {"statNm": "\uc9c4\uc548\ud734\uac8c\uc18c(\uc775\uc0b0\ubc29\ud5a5)", "addr": "\uc804\ub77c\ubd81\ub3c4 \uc9c4\uc548\uad70 \uc9c4\uc548\uc74d \uc775\uc0b0\uc7a5\uc218\uace0\uc18d\ub3c4\ub85c 41 (\ub2e8\uc591\ub9ac)", "lat": "35.7782697", "lng": "127.425744"}, {"statNm": "\uc9c4\uc548\ud734\uac8c\uc18c(\uc775\uc0b0\ubc29\ud5a5)", "addr": "\uc804\ub77c\ubd81\ub3c4 \uc9c4\uc548\uad70 \uc9c4\uc548\uc74d \uc775\uc0b0\uc7a5\uc218\uace0\uc18d\ub3c4\ub85c 41 (\ub2e8\uc591\ub9ac)", "lat": "35.7782697", "lng": "127.425744"}, {"statNm": "\uc9c4\uc548\ud734\uac8c\uc18c(\uc7a5\uc218\ubc29\ud5a5)", "addr": "\uc804\ub77c\ubd81\ub3c4 \uc9c4\uc548\uad70 \uc9c4\uc548\uc74d \uc775\uc0b0\uc7a5\uc218\uace0\uc18d\ub3c4\ub85c 42 (\ub2e8\uc591\ub9ac)", "lat": "35.774925", "lng": "127.4262837"}, {"statNm": "\uc9c4\uc548\ud734\uac8c\uc18c(\uc7a5\uc218\ubc29\ud5a5)", "addr": "\uc804\ub77c\ubd81\ub3c4 \uc9c4\uc548\uad70 \uc9c4\uc548\uc74d \uc775\uc0b0\uc7a5\uc218\uace0\uc18d\ub3c4\ub85c 42 (\ub2e8\uc591\ub9ac)", "lat": "35.774925", "lng": "127.4262837"}, {"statNm": "\ub86f\ub370\ub9c8\ud2b8 \uad70\uc0b0\uc810", "addr": "\uc804\ub77c\ubd81\ub3c4 \uad70\uc0b0\uc2dc \uc218\uc1a1\ub85c 185 (\uc218\uc1a1\ub3d9)", "lat": "35.9647788", "lng": "126.7163555"}, {"statNm": "\ub86f\ub370\ub9c8\ud2b8 \uad70\uc0b0\uc810", "addr": "\uc804\ub77c\ubd81\ub3c4 \uad70\uc0b0\uc2dc \uc218\uc1a1\ub85c 185 (\uc218\uc1a1\ub3d9)", "lat": "35.9647788", "lng": "126.7163555"}, {"statNm": "\ub86f\ub370\ub9c8\ud2b8 \uc775\uc0b0\uc810", "addr": "\uc804\ub77c\ubd81\ub3c4 \uc775\uc0b0\uc2dc \ubb34\uc655\ub85c 1053 (\uc601\ub4f1\ub3d9)", "lat": "35.9597398", "lng": "126.9741078"}, {"statNm": "\ub86f\ub370\ub9c8\ud2b8 \uc775\uc0b0\uc810", "addr": "\uc804\ub77c\ubd81\ub3c4 \uc775\uc0b0\uc2dc \ubb34\uc655\ub85c 1053 (\uc601\ub4f1\ub3d9)", "lat": "35.9597398", "lng": "126.9741078"}, {"statNm": "\ub86f\ub370\ub9c8\ud2b8 \uc775\uc0b0\uc810", "addr": "\uc804\ub77c\ubd81\ub3c4 \uc775\uc0b0\uc2dc \ubb34\uc655\ub85c 1053 (\uc601\ub4f1\ub3d9)", "lat": "35.9597398", "lng": "126.9741078"}, {"statNm": "\ubcc0\uc0b0\ubc18\ub3c4\uad6d\ub9bd\uacf5\uc6d0 \uaca9\ud3ec\uc8fc\ucc28\uc7a5", "addr": "\uc804\ub77c\ubd81\ub3c4 \ubd80\uc548\uad70 \ubcc0\uc0b0\uba74 \uaca9\ud3ec\ub9ac 283-1", "lat": "35.627881", "lng": "126.471165"}, {"statNm": "\ubcc0\uc0b0\ubc18\ub3c4\uad6d\ub9bd\uacf5\uc6d0 \uaca9\ud3ec\uc8fc\ucc28\uc7a5", "addr": "\uc804\ub77c\ubd81\ub3c4 \ubd80\uc548\uad70 \ubcc0\uc0b0\uba74 \uaca9\ud3ec\ub9ac 283-1", "lat": "35.627881", "lng": "126.471165"}, {"statNm": "\ubcc0\uc0b0\ubc18\ub3c4\uad6d\ub9bd\uacf5\uc6d0 \ub0b4\uc18c\uc8fc\ucc28\uc7a5", "addr": "\uc804\ub77c\ubd81\ub3c4 \ubd80\uc548\uad70 \uc9c4\uc11c\uba74 \uc11d\ud3ec\ub9ac 240", "lat": "35.610062", "lng": "126.588533"}, {"statNm": "\ubcc0\uc0b0\ubc18\ub3c4\uad6d\ub9bd\uacf5\uc6d0 \ub0b4\uc18c\uc8fc\ucc28\uc7a5", "addr": "\uc804\ub77c\ubd81\ub3c4 \ubd80\uc548\uad70 \uc9c4\uc11c\uba74 \uc11d\ud3ec\ub9ac 240", "lat": "35.610062", "lng": "126.588533"}, {"statNm": "\uc9c0\ub9ac\uc0b0\uad6d\ub9bd\uacf5\uc6d0 \ubd81\ubd80 \ubc18\uc120\uc8fc\ucc28\uc7a5", "addr": "\uc804\ub77c\ubd81\ub3c4 \ub0a8\uc6d0\uc2dc \uc0b0\ub0b4\uba74 \ubd80\uc6b4\ub9ac 216-10", "lat": "35.377231", "lng": "127.581692"}, {"statNm": "\uc9c0\ub9ac\uc0b0\uad6d\ub9bd\uacf5\uc6d0 \ubd81\ubd80 \ubc18\uc120\uc8fc\ucc28\uc7a5", "addr": "\uc804\ub77c\ubd81\ub3c4 \ub0a8\uc6d0\uc2dc \uc0b0\ub0b4\uba74 \ubd80\uc6b4\ub9ac 216-10", "lat": "35.377231", "lng": "127.581692"}, {"statNm": "\uc9c0\ub9ac\uc0b0\uad6d\ub9bd\uacf5\uc6d0 \ubc40\uc0ac\uace8\uc57c\uc601\uc7a5", "addr": "\uc804\ub77c\ubd81\ub3c4 \ub0a8\uc6d0\uc2dc \uc0b0\ub0b4\uba74 \ub355\ub3d9\ub9ac 406", "lat": "35.354821", "lng": "127.558283"}, {"statNm": "\uc9c0\ub9ac\uc0b0\uad6d\ub9bd\uacf5\uc6d0 \ubc40\uc0ac\uace8\uc57c\uc601\uc7a5", "addr": "\uc804\ub77c\ubd81\ub3c4 \ub0a8\uc6d0\uc2dc \uc0b0\ub0b4\uba74 \ub355\ub3d9\ub9ac 406", "lat": "35.354821", "lng": "127.558283"}, {"statNm": "\ub0b4\uc7a5\uc0b0\uad6d\ub9bd\uacf5\uc6d0 \ud0d0\ubc29\uc548\ub0b4\uc18c", "addr": "\uc804\ub77c\ubd81\ub3c4 \uc815\uc74d\uc2dc \ub0b4\uc7a5\ub3d9 673-1", "lat": "35.487895", "lng": "126.907447"}, {"statNm": "\ub0b4\uc7a5\uc0b0\uad6d\ub9bd\uacf5\uc6d0 1(\ub0b4\uc7a5)\uc8fc\ucc28\uc7a5", "addr": "\uc804\ub77c\ubd81\ub3c4 \uc815\uc74d\uc2dc \ub0b4\uc7a5\ub3d9 52", "lat": "35.49408", "lng": "126.925858"}, {"statNm": "\ub0b4\uc7a5\uc0b0\uad6d\ub9bd\uacf5\uc6d0 1(\ub0b4\uc7a5)\uc8fc\ucc28\uc7a5", "addr": "\uc804\ub77c\ubd81\ub3c4 \uc815\uc74d\uc2dc \ub0b4\uc7a5\ub3d9 52", "lat": "35.49408", "lng": "126.925858"}, {"statNm": "\ub0b4\uc7a5\uc0b0\uad6d\ub9bd\uacf5\uc6d0 \ub124\uc774\ucc98\uc13c\ud130", "addr": "\uc804\ub77c\ubd81\ub3c4 \uc815\uc74d\uc2dc \ub0b4\uc7a5\ub3d9 169-1", "lat": "35.508267", "lng": "126.906523"}, {"statNm": "\ub0b4\uc7a5\uc0b0\uad6d\ub9bd\uacf5\uc6d0 \ub124\uc774\ucc98\uc13c\ud130", "addr": "\uc804\ub77c\ubd81\ub3c4 \uc815\uc74d\uc2dc \ub0b4\uc7a5\ub3d9 169-1", "lat": "35.508267", "lng": "126.906523"}, {"statNm": "\ub355\uc720\uc0b0\uad6d\ub9bd\uacf5\uc6d0 \ub355\uc720\ub300\uc57c\uc601\uc7a5", "addr": "\uc804\ub77c\ubd81\ub3c4 \ubb34\uc8fc\uad70 \uc124\ucc9c\uba74 \uc0bc\uacf5\ub9ac 456-1\ubc88\uc9c0", "lat": "35.893725", "lng": "127.772644"}, {"statNm": "\ub355\uc720\uc0b0\uad6d\ub9bd\uacf5\uc6d0 \ub355\uc720\ub300\uc57c\uc601\uc7a5", "addr": "\uc804\ub77c\ubd81\ub3c4 \ubb34\uc8fc\uad70 \uc124\ucc9c\uba74 \uc0bc\uacf5\ub9ac 456-1\ubc88\uc9c0", "lat": "35.893725", "lng": "127.772644"}, {"statNm": "\ub355\uc720\uc0b0\uad6d\ub9bd\uacf5\uc6d0 \uad00\ub9ac\uc0ac\ubb34\uc18c \uc55e \uc8fc\ucc28\uc7a5", "addr": "\uc804\ub77c\ubd81\ub3c4 \ubb34\uc8fc\uad70 \uc124\ucc9c\uba74 \uc0bc\uacf5\ub9ac 411", "lat": "35.901189", "lng": "127.775679"}, {"statNm": "\ub355\uc720\uc0b0\uad6d\ub9bd\uacf5\uc6d0 \uad00\ub9ac\uc0ac\ubb34\uc18c \uc55e \uc8fc\ucc28\uc7a5", "addr": "\uc804\ub77c\ubd81\ub3c4 \ubb34\uc8fc\uad70 \uc124\ucc9c\uba74 \uc0bc\uacf5\ub9ac 411", "lat": "35.901189", "lng": "127.775679"}, {"statNm": "SK \uc81c\uc77c\uc8fc\uc720\uc18c", "addr": "\uc804\ub77c\ubd81\ub3c4 \ub0a8\uc6d0\uc2dc \uc8fc\uc0dd\uba74 \uc81c\ucc9c\ub9ac 245", "lat": "35.372288", "lng": "127.312663"}, {"statNm": "\ub0a8\uc6d0\uc0c8\ub9c8\uc744\uae08\uace0\uc8fc\uc720\uc18c", "addr": "\uc804\ub77c\ubd81\ub3c4 \ub0a8\uc6d0\uc2dc \uae08\ub3d9 437-6", "lat": "35.406314", "lng": "127.372393"}, {"statNm": "\ub0a8\uc6d0\uc0c8\ub9c8\uc744\uae08\uace0\uc8fc\uc720\uc18c", "addr": "\uc804\ub77c\ubd81\ub3c4 \ub0a8\uc6d0\uc2dc \uae08\ub3d9 437-6", "lat": "35.406314", "lng": "127.372393"}, {"statNm": "SK \uc6b4\ubd09\uc8fc\uc720\uc18c", "addr": "\uc804\ub77c\ubd81\ub3c4 \ub0a8\uc6d0\uc2dc \uc6b4\ubd09\uc74d \ud669\uc0b0\ub85c1026", "lat": "35.437148", "lng": "127.524895"}, {"statNm": "SK \uc11c\uc6b8\uc8fc\uc720\uc18c", "addr": "\uc804\ub77c\ubd81\ub3c4 \uad70\uc0b0\uc2dc \uc11c\uc218\uba74 \ub3d9\uad70\uc0b0\ub85c 984", "lat": "36.003038", "lng": "126.869701"}, {"statNm": "\uc2a4\ud30c\ub77c\ucfe0\uc544", "addr": "\uc804\ub77c\ubd81\ub3c4 \uc804\uc8fc\uc2dc \uc644\uc0b0\uad6c \uc2e0\ucd0c3\uae3824\ubc88\uc9c0", "lat": "35.817418", "lng": "127.115631"}, {"statNm": "\ub86f\ub370\ub9c8\ud2b8 \ub0a8\uc6d0\uc810", "addr": "\uc804\ub77c\ubd81\ub3c4 \ub0a8\uc6d0\uc2dc \ud5a5\uad50\ub3d9 \ucd98\ud5a5\ub85c 96 (\ud5a5\uad50\ub3d9)", "lat": "35.423317", "lng": "127.39247"}, {"statNm": "\uc774\ub9c8\ud2b8 \uc804\uc8fc\uc810", "addr": "\uc804\ub77c\ubd81\ub3c4 \uc804\uc8fc\uc2dc \uc644\uc0b0\uad6c \ub2f9\uc0b0\ub85c 111", "lat": "35.83286374", "lng": "127.12089862"}, {"statNm": "\uc804\uc8fc\ub355\uc9c4\uacf5\uc6d0 \uc8fc\ucc28\uc7a5", "addr": "\uc804\ub77c\ubd81\ub3c4 \uc804\uc8fc\uc2dc \ub355\uc9c4\uad6c \ub355\uc9c4\ub3d9 2\uac00 179-6", "lat": "35.8481760", "lng": "127.1204980"}, {"statNm": "\uc608\uc220\uc758 \uc804\ub2f9", "addr": "\uc804\ub77c\ubd81\ub3c4 \uad70\uc0b0\uc2dc \uc9c0\uace1\ub3d9 286-8", "lat": "35.9607154", "lng": "126.7090665"}, {"statNm": "\uae08\uac15\ucca0\uc0c8\uc870\ub9dd\ub300", "addr": "\uc804\ub77c\ubd81\ub3c4 \uad70\uc0b0\uc2dc \uc131\uc0b0\uba74 \uc131\ub355\ub9ac", "lat": "36.0197065", "lng": "126.7635205"}, {"statNm": "\uc5ec\uc0b0\ud734\uac8c\uc18c(\uc21c\ucc9c\ubc29\ud5a5)", "addr": "\uc804\ub77c\ubd81\ub3c4 \uc775\uc0b0\uc2dc \uc5ec\uc0b0\uba74 \ud638\uc0b0\ub9ac \uc0b032-6", "lat": "36.0479377", "lng": "127.1026013"}, {"statNm": "\ud568\uc5f4\uc62c\ub9bc\ud53d \uc2a4\ud3ec\uce20\uc13c\ud130", "addr": "\uc804\ub77c\ubd81\ub3c4 \uc775\uc0b0\uc2dc \ud568\uc5f4\uc74d \uc640\ub9ac164", "lat": "36.0741298", "lng": "126.963993"}, {"statNm": "\uc815\uc74d\ub179\ub450\uc7a5\uad70\ud734\uac8c\uc18c(\ub17c\uc0b0\ubc29\ud5a5)", "addr": "\uc804\ub77c\ubd81\ub3c4 \uc815\uc74d\uc2dc \ubd81\uba74 \ub0a8\uc0b0\ub9ac", "lat": "35.6006769", "lng": "126.8644591"}, {"statNm": "\uc815\uc74d\ub179\ub450\uc7a5\uad70\ud734\uac8c\uc18c(\uc21c\ucc9c\ubc29\ud5a5)", "addr": "\uc804\ub77c\ubd81\ub3c4 \uc815\uc74d\uc2dc \ubd81\uba74 \uc815\uc2e0\ub85c 135-61", "lat": "35.6016871", "lng": "126.8624805"}, {"statNm": "\uc9c0\ub9ac\uc0b0\ud734\uac8c\uc18c(\uc625\ud3ec\ubc29\ud5a5)", "addr": "\uc804\ub77c\ubd81\ub3c4 \ub0a8\uc6d0\uc2dc \uc544\uc601\uba74 \uc544\uace1\ub9ac", "lat": "35.4808967", "lng": "127.566233"}, {"statNm": "\uc9c0\ub9ac\uc0b0\ud734\uac8c\uc18c(\uace0\uc11c\ubc29\ud5a5)", "addr": "\uc804\ub77c\ubd81\ub3c4 \ub0a8\uc6d0\uc2dc \uc544\uc601\uba74 \uc544\uace1\ub9ac", "lat": "35.4837213", "lng": "127.5665699"}, {"statNm": "\uadfc\ub85c\uc790\uc885\ud569\ubcf5\uc9c0\uad00", "addr": "\uc804\ub77c\ubd81\ub3c4 \uc644\uc8fc\uad70 \ubd09\ub3d9\uc74d \ub454\uc0b0\ub9ac 881", "lat": "35.9628434", "lng": "127.1270991"}, {"statNm": "\uc9c4\uc548\uad70\uccad", "addr": "\uc804\ub77c\ubd81\ub3c4 \uc9c4\uc548\uad70 \uc9c4\uc548\uc74d \uc911\uc559\ub85c 67", "lat": "35.7918402", "lng": "127.4245086"}, {"statNm": "\ub355\uc720\uc0b0\ud734\uac8c\uc18c(\ud558\ub0a8\ubc29\ud5a5)", "addr": "\uc804\ub77c\ubd81\ub3c4 \ubb34\uc8fc\uad70 \uc548\uc131\uba74 \ud1b5\uc601\ub300\uc804\uace0\uc18d\ub3c4\ub85c 148", "lat": "35.8171253", "lng": "127.6457339"}, {"statNm": "\ubb34\uc8fc\uc74d\uc8fc\ubbfc\uc790\uce58\uc13c\ud130", "addr": "\uc804\ub77c\ubd81\ub3c4 \ubb34\uc8fc\uad70 \ubb34\uc8fc\uc74d \ud5a5\ud559\ub85c 49", "lat": "36.0088603", "lng": "127.6619473"}, {"statNm": "\uc548\uc131\uba74\uc8fc\ubbfc\uc790\uce58\uc13c\ud130", "addr": "\uc804\ub77c\ubd81\ub3c4 \ubb34\uc8fc\uad70 \uc548\uc131\uba74 \uc548\uc131\ub85c 246-17", "lat": "35.8629478", "lng": "127.6528909"}, {"statNm": "\ub355\uc720\uc0b0\ud734\uac8c\uc18c(\ud1b5\uc601\ubc29\ud5a5)", "addr": "\uc804\ub77c\ubd81\ub3c4 \uc7a5\uc218\uad70 \uacc4\ubd81\uba74 \ub2f9\uc800\uae38 59", "lat": "35.8142655", "lng": "127.6433798"}, {"statNm": "\uc7a5\uc218\uad70\uccad", "addr": "\uc804\ub77c\ubd81\ub3c4 \uc7a5\uc218\uad70 \uc7a5\uc218\uc74d \ud638\ube44\ub85c 10", "lat": "35.6467192", "lng": "127.5215713"}, {"statNm": "\uc624\uc218\ud734\uac8c\uc18c(\uc804\uc8fc\ubc29\ud5a5)", "addr": "\uc804\ub77c\ubd81\ub3c4 \uc784\uc2e4\uad70 \uc624\uc218\uba74 \ub300\uba85\ub9ac", "lat": "35.5391924", "lng": "127.3111266"}, {"statNm": "\uc624\uc218\ud734\uac8c\uc18c(\uad11\uc591\ubc29\ud5a5)", "addr": "\uc804\ub77c\ubd81\ub3c4 \uc784\uc2e4\uad70 \uc624\uc218\uba74 \uc624\uc0b0\ub9ac", "lat": "35.5398971", "lng": "127.3091337"}, {"statNm": "\uace0\ucc3d\uad70 \uc74d\uc131\uc8fc\ucc28\uc7a5", "addr": "\uc804\ub77c\ubd81\ub3c4 \uace0\ucc3d\uad70 \uace0\ucc3d\uc74d \ub3d9\ub9ac\ub85c 117", "lat": "35.4329963", "lng": "126.7061833"}, {"statNm": "\uace0\ucc3d\uace0\uc778\ub3cc\ud734\uac8c\uc18c(\ubaa9\ud3ec\ubc29\ud5a5)", "addr": "\uc804\ub77c\ubd81\ub3c4 \uace0\ucc3d\uad70 \uace0\ucc3d\uc74d \uc11c\ud574\uc548\uace0\uc18d\ub3c4\ub85c 81 (\ubcbd\uc1a1\ub9ac)", "lat": "35.4690375", "lng": "126.6742688"}, {"statNm": "\uace0\ucc3d\uace0\uc778\ub3cc\ud734\uac8c\uc18c(\ubaa9\ud3ec\ubc29\ud5a5)", "addr": "\uc804\ub77c\ubd81\ub3c4 \uace0\ucc3d\uad70 \uace0\ucc3d\uc74d \uc11c\ud574\uc548\uace0\uc18d\ub3c4\ub85c 81 (\ubcbd\uc1a1\ub9ac)", "lat": "35.4690375", "lng": "126.6742688"}, {"statNm": "\uace0\ucc3d\uace0\uc778\ub3cc\ud734\uac8c\uc18c(\uc2dc\ud765\ubc29\ud5a5)", "addr": "\uc804\ub77c\ubd81\ub3c4 \uace0\ucc3d\uad70 \uace0\ucc3d\uc74d \uc11c\ud574\uc548\uace0\uc18d\ub3c4\ub85c 80 (\uc2e0\uc6d4\ub9ac)", "lat": "35.461348", "lng": "126.6729203"}, {"statNm": "\uace0\ucc3d\uace0\uc778\ub3cc\ud734\uac8c\uc18c(\uc2dc\ud765\ubc29\ud5a5)", "addr": "\uc804\ub77c\ubd81\ub3c4 \uace0\ucc3d\uad70 \uace0\ucc3d\uc74d \uc11c\ud574\uc548\uace0\uc18d\ub3c4\ub85c 80 (\uc2e0\uc6d4\ub9ac)", "lat": "35.461348", "lng": "126.6729203"}, {"statNm": "\uc774\uc11c\ud734\uac8c\uc18c(\uc21c\ucc9c\ubc29\ud5a5)", "addr": "\uc804\ub77c\ubd81\ub3c4 \uc644\uc8fc\uad70 \uc774\uc11c\uba74 \ud638\ub0a8\uace0\uc18d\ub3c4\ub85c 161 (\uc740\uad50\ub9ac)", "lat": "35.8034454", "lng": "127.0240566"}, {"statNm": "\uc774\uc11c\ud734\uac8c\uc18c(\uc21c\ucc9c\ubc29\ud5a5)", "addr": "\uc804\ub77c\ubd81\ub3c4 \uc644\uc8fc\uad70 \uc774\uc11c\uba74 \ud638\ub0a8\uace0\uc18d\ub3c4\ub85c 161 (\uc740\uad50\ub9ac)", "lat": "35.8034454", "lng": "127.0240566"}, {"statNm": "\uc774\uc11c\ud734\uac8c\uc18c(\ucc9c\uc548\ubc29\ud5a5)", "addr": "\uc804\ub77c\ubd81\ub3c4 \uc644\uc8fc\uad70 \uc774\uc11c\uba74 \ud638\ub0a8\uace0\uc18d\ub3c4\ub85c 162 (\uc740\uad50\ub9ac)", "lat": "35.802184", "lng": "127.0258792"}, {"statNm": "\uc774\uc11c\ud734\uac8c\uc18c(\ucc9c\uc548\ubc29\ud5a5)", "addr": "\uc804\ub77c\ubd81\ub3c4 \uc644\uc8fc\uad70 \uc774\uc11c\uba74 \ud638\ub0a8\uace0\uc18d\ub3c4\ub85c 162 (\uc740\uad50\ub9ac)", "lat": "35.802184", "lng": "127.0258792"}, {"statNm": "\uc815\uc74d\ud734\uac8c\uc18c(\ub17c\uc0b0\ubc29\ud5a5)", "addr": "\uc804\ub77c\ubd81\ub3c4 \uc815\uc74d\uc2dc \ubd81\uba74 \ud558\ubd811\uae38 227-17 (\ub0a8\uc0b0\ub9ac)", "lat": "35.6005769", "lng": "126.8646591"}, {"statNm": "\uc815\uc74d\ud734\uac8c\uc18c(\uc21c\ucc9c\ubc29\ud5a5)", "addr": "\uc804\ub77c\ubd81\ub3c4 \uc815\uc74d\uc2dc \ubd81\uba74 \uc815\uc2e0\ub85c 135-61 (\ub0a8\uc0b0\ub9ac)", "lat": "35.6015871", "lng": "126.8626805"}, {"statNm": "\ub355\uc720\uc0b0\ud734\uac8c\uc18c(\ud1b5\uc601\ubc29\ud5a5)", "addr": "\uc804\ub77c\ubd81\ub3c4 \uc7a5\uc218\uad70 \uacc4\ubd81\uba74 \ub2f9\uc800\uae38 59 (\uc591\uc545\ub9ac)", "lat": "35.8141655", "lng": "127.6435798"}, {"statNm": "\ub355\uc720\uc0b0\ud734\uac8c\uc18c(\ud558\ub0a8\ubc29\ud5a5)", "addr": "\uc804\ub77c\ubd81\ub3c4 \ubb34\uc8fc\uad70 \uc548\uc131\uba74 \ud1b5\uc601\ub300\uc804\uace0\uc18d\ub3c4\ub85c 148 (\uacf5\uc9c4\ub9ac)", "lat": "35.8170253", "lng": "127.6459339"}, {"statNm": "\uc9c0\ub9ac\uc0b0\ud734\uac8c\uc18c(\uace0\uc11c\ubc29\ud5a5)", "addr": "\uc804\ub77c\ubd81\ub3c4 \ub0a8\uc6d0\uc2dc \uc544\uc601\uba74 88\uc62c\ub9bc\ud53d\uace0\uc18d\ub3c4\ub85c 75 (\uc544\uace1\ub9ac)", "lat": "35.4836213", "lng": "127.5667699"}, {"statNm": "\uc9c0\ub9ac\uc0b0\ud734\uac8c\uc18c(\uace0\uc11c\ubc29\ud5a5)", "addr": "\uc804\ub77c\ubd81\ub3c4 \ub0a8\uc6d0\uc2dc \uc544\uc601\uba74 88\uc62c\ub9bc\ud53d\uace0\uc18d\ub3c4\ub85c 75 (\uc544\uace1\ub9ac)", "lat": "35.4836213", "lng": "127.5667699"}, {"statNm": "\uc9c0\ub9ac\uc0b0\ud734\uac8c\uc18c(\uc625\ud3ec\ubc29\ud5a5)", "addr": "\uc804\ub77c\ubd81\ub3c4 \ub0a8\uc6d0\uc2dc \uc544\uc601\uba74 88\uc62c\ub9bc\ud53d\uace0\uc18d\ub3c4\ub85c 76 (\uc544\uace1\ub9ac)", "lat": "35.4808967", "lng": "127.566233"}, {"statNm": "\uc9c0\ub9ac\uc0b0\ud734\uac8c\uc18c(\uc625\ud3ec\ubc29\ud5a5)", "addr": "\uc804\ub77c\ubd81\ub3c4 \ub0a8\uc6d0\uc2dc \uc544\uc601\uba74 88\uc62c\ub9bc\ud53d\uace0\uc18d\ub3c4\ub85c 76 (\uc544\uace1\ub9ac)", "lat": "35.4808967", "lng": "127.566233"}, {"statNm": "\uac15\ucc9c\uc0b0\ud734\uac8c\uc18c(\ub300\uad6c\ubc29\ud5a5)", "addr": "\uc804\ub77c\ubd81\ub3c4 \uc21c\ucc3d\uad70 \uc21c\ucc3d\uc74d 88\uc62c\ub9bc\ud53d\uace0\uc18d\ub3c4\ub85c 22 (\ubc31\uc0b0\ub9ac)", "lat": "35.364473", "lng": "127.1048023"}, {"statNm": "\uac15\ucc9c\uc0b0\ud734\uac8c\uc18c(\ub300\uad6c\ubc29\ud5a5)", "addr": "\uc804\ub77c\ubd81\ub3c4 \uc21c\ucc3d\uad70 \uc21c\ucc3d\uc74d 88\uc62c\ub9bc\ud53d\uace0\uc18d\ub3c4\ub85c 22 (\ubc31\uc0b0\ub9ac)", "lat": "35.364473", "lng": "127.1048023"}, {"statNm": "\uc9c4\uc548\ud734\uac8c\uc18c(\uc775\uc0b0\ubc29\ud5a5)", "addr": "\uc804\ub77c\ubd81\ub3c4 \uc9c4\uc548\uad70 \uc9c4\uc548\uc74d \uc775\uc0b0\uc7a5\uc218\uace0\uc18d\ub3c4\ub85c 41 (\ub2e8\uc591\ub9ac)", "lat": "35.7782697", "lng": "127.425744"}, {"statNm": "\uc9c4\uc548\ud734\uac8c\uc18c(\uc775\uc0b0\ubc29\ud5a5)", "addr": "\uc804\ub77c\ubd81\ub3c4 \uc9c4\uc548\uad70 \uc9c4\uc548\uc74d \uc775\uc0b0\uc7a5\uc218\uace0\uc18d\ub3c4\ub85c 41 (\ub2e8\uc591\ub9ac)", "lat": "35.7782697", "lng": "127.425744"}, {"statNm": "\uc9c4\uc548\ud734\uac8c\uc18c(\uc7a5\uc218\ubc29\ud5a5)", "addr": "\uc804\ub77c\ubd81\ub3c4 \uc9c4\uc548\uad70 \uc9c4\uc548\uc74d \uc775\uc0b0\uc7a5\uc218\uace0\uc18d\ub3c4\ub85c 42 (\ub2e8\uc591\ub9ac)", "lat": "35.774925", "lng": "127.4262837"}, {"statNm": "\uc9c4\uc548\ud734\uac8c\uc18c(\uc7a5\uc218\ubc29\ud5a5)", "addr": "\uc804\ub77c\ubd81\ub3c4 \uc9c4\uc548\uad70 \uc9c4\uc548\uc74d \uc775\uc0b0\uc7a5\uc218\uace0\uc18d\ub3c4\ub85c 42 (\ub2e8\uc591\ub9ac)", "lat": "35.774925", "lng": "127.4262837"}, {"statNm": "\ub86f\ub370\ub9c8\ud2b8 \uad70\uc0b0\uc810", "addr": "\uc804\ub77c\ubd81\ub3c4 \uad70\uc0b0\uc2dc \uc218\uc1a1\ub85c 185 (\uc218\uc1a1\ub3d9)", "lat": "35.9647788", "lng": "126.7163555"}, {"statNm": "\ub86f\ub370\ub9c8\ud2b8 \uad70\uc0b0\uc810", "addr": "\uc804\ub77c\ubd81\ub3c4 \uad70\uc0b0\uc2dc \uc218\uc1a1\ub85c 185 (\uc218\uc1a1\ub3d9)", "lat": "35.9647788", "lng": "126.7163555"}, {"statNm": "\ub86f\ub370\ub9c8\ud2b8 \uc775\uc0b0\uc810", "addr": "\uc804\ub77c\ubd81\ub3c4 \uc775\uc0b0\uc2dc \ubb34\uc655\ub85c 1053 (\uc601\ub4f1\ub3d9)", "lat": "35.9597398", "lng": "126.9741078"}, {"statNm": "\ub86f\ub370\ub9c8\ud2b8 \uc775\uc0b0\uc810", "addr": "\uc804\ub77c\ubd81\ub3c4 \uc775\uc0b0\uc2dc \ubb34\uc655\ub85c 1053 (\uc601\ub4f1\ub3d9)", "lat": "35.9597398", "lng": "126.9741078"}, {"statNm": "\ub86f\ub370\ub9c8\ud2b8 \uc775\uc0b0\uc810", "addr": "\uc804\ub77c\ubd81\ub3c4 \uc775\uc0b0\uc2dc \ubb34\uc655\ub85c 1053 (\uc601\ub4f1\ub3d9)", "lat": "35.9597398", "lng": "126.9741078"}, {"statNm": "\ubcc0\uc0b0\ubc18\ub3c4\uad6d\ub9bd\uacf5\uc6d0 \uaca9\ud3ec\uc8fc\ucc28\uc7a5", "addr": "\uc804\ub77c\ubd81\ub3c4 \ubd80\uc548\uad70 \ubcc0\uc0b0\uba74 \uaca9\ud3ec\ub9ac 283-1", "lat": "35.627881", "lng": "126.471165"}, {"statNm": "\ubcc0\uc0b0\ubc18\ub3c4\uad6d\ub9bd\uacf5\uc6d0 \uaca9\ud3ec\uc8fc\ucc28\uc7a5", "addr": "\uc804\ub77c\ubd81\ub3c4 \ubd80\uc548\uad70 \ubcc0\uc0b0\uba74 \uaca9\ud3ec\ub9ac 283-1", "lat": "35.627881", "lng": "126.471165"}, {"statNm": "\ubcc0\uc0b0\ubc18\ub3c4\uad6d\ub9bd\uacf5\uc6d0 \ub0b4\uc18c\uc8fc\ucc28\uc7a5", "addr": "\uc804\ub77c\ubd81\ub3c4 \ubd80\uc548\uad70 \uc9c4\uc11c\uba74 \uc11d\ud3ec\ub9ac 240", "lat": "35.610062", "lng": "126.588533"}, {"statNm": "\ubcc0\uc0b0\ubc18\ub3c4\uad6d\ub9bd\uacf5\uc6d0 \ub0b4\uc18c\uc8fc\ucc28\uc7a5", "addr": "\uc804\ub77c\ubd81\ub3c4 \ubd80\uc548\uad70 \uc9c4\uc11c\uba74 \uc11d\ud3ec\ub9ac 240", "lat": "35.610062", "lng": "126.588533"}, {"statNm": "\uc9c0\ub9ac\uc0b0\uad6d\ub9bd\uacf5\uc6d0 \ubd81\ubd80 \ubc18\uc120\uc8fc\ucc28\uc7a5", "addr": "\uc804\ub77c\ubd81\ub3c4 \ub0a8\uc6d0\uc2dc \uc0b0\ub0b4\uba74 \ubd80\uc6b4\ub9ac 216-10", "lat": "35.377231", "lng": "127.581692"}, {"statNm": "\uc9c0\ub9ac\uc0b0\uad6d\ub9bd\uacf5\uc6d0 \ubd81\ubd80 \ubc18\uc120\uc8fc\ucc28\uc7a5", "addr": "\uc804\ub77c\ubd81\ub3c4 \ub0a8\uc6d0\uc2dc \uc0b0\ub0b4\uba74 \ubd80\uc6b4\ub9ac 216-10", "lat": "35.377231", "lng": "127.581692"}, {"statNm": "\uc9c0\ub9ac\uc0b0\uad6d\ub9bd\uacf5\uc6d0 \ubc40\uc0ac\uace8\uc57c\uc601\uc7a5", "addr": "\uc804\ub77c\ubd81\ub3c4 \ub0a8\uc6d0\uc2dc \uc0b0\ub0b4\uba74 \ub355\ub3d9\ub9ac 406", "lat": "35.354821", "lng": "127.558283"}, {"statNm": "\uc9c0\ub9ac\uc0b0\uad6d\ub9bd\uacf5\uc6d0 \ubc40\uc0ac\uace8\uc57c\uc601\uc7a5", "addr": "\uc804\ub77c\ubd81\ub3c4 \ub0a8\uc6d0\uc2dc \uc0b0\ub0b4\uba74 \ub355\ub3d9\ub9ac 406", "lat": "35.354821", "lng": "127.558283"}, {"statNm": "\ub0b4\uc7a5\uc0b0\uad6d\ub9bd\uacf5\uc6d0 \ud0d0\ubc29\uc548\ub0b4\uc18c", "addr": "\uc804\ub77c\ubd81\ub3c4 \uc815\uc74d\uc2dc \ub0b4\uc7a5\ub3d9 673-1", "lat": "35.487895", "lng": "126.907447"}, {"statNm": "\ub0b4\uc7a5\uc0b0\uad6d\ub9bd\uacf5\uc6d0 1(\ub0b4\uc7a5)\uc8fc\ucc28\uc7a5", "addr": "\uc804\ub77c\ubd81\ub3c4 \uc815\uc74d\uc2dc \ub0b4\uc7a5\ub3d9 52", "lat": "35.49408", "lng": "126.925858"}, {"statNm": "\ub0b4\uc7a5\uc0b0\uad6d\ub9bd\uacf5\uc6d0 1(\ub0b4\uc7a5)\uc8fc\ucc28\uc7a5", "addr": "\uc804\ub77c\ubd81\ub3c4 \uc815\uc74d\uc2dc \ub0b4\uc7a5\ub3d9 52", "lat": "35.49408", "lng": "126.925858"}, {"statNm": "\ub0b4\uc7a5\uc0b0\uad6d\ub9bd\uacf5\uc6d0 \ub124\uc774\ucc98\uc13c\ud130", "addr": "\uc804\ub77c\ubd81\ub3c4 \uc815\uc74d\uc2dc \ub0b4\uc7a5\ub3d9 169-1", "lat": "35.508267", "lng": "126.906523"}, {"statNm": "\ub0b4\uc7a5\uc0b0\uad6d\ub9bd\uacf5\uc6d0 \ub124\uc774\ucc98\uc13c\ud130", "addr": "\uc804\ub77c\ubd81\ub3c4 \uc815\uc74d\uc2dc \ub0b4\uc7a5\ub3d9 169-1", "lat": "35.508267", "lng": "126.906523"}, {"statNm": "\ub355\uc720\uc0b0\uad6d\ub9bd\uacf5\uc6d0 \ub355\uc720\ub300\uc57c\uc601\uc7a5", "addr": "\uc804\ub77c\ubd81\ub3c4 \ubb34\uc8fc\uad70 \uc124\ucc9c\uba74 \uc0bc\uacf5\ub9ac 456-1\ubc88\uc9c0", "lat": "35.893725", "lng": "127.772644"}, {"statNm": "\ub355\uc720\uc0b0\uad6d\ub9bd\uacf5\uc6d0 \ub355\uc720\ub300\uc57c\uc601\uc7a5", "addr": "\uc804\ub77c\ubd81\ub3c4 \ubb34\uc8fc\uad70 \uc124\ucc9c\uba74 \uc0bc\uacf5\ub9ac 456-1\ubc88\uc9c0", "lat": "35.893725", "lng": "127.772644"}, {"statNm": "\ub355\uc720\uc0b0\uad6d\ub9bd\uacf5\uc6d0 \uad00\ub9ac\uc0ac\ubb34\uc18c \uc55e \uc8fc\ucc28\uc7a5", "addr": "\uc804\ub77c\ubd81\ub3c4 \ubb34\uc8fc\uad70 \uc124\ucc9c\uba74 \uc0bc\uacf5\ub9ac 411", "lat": "35.901189", "lng": "127.775679"}, {"statNm": "\ub355\uc720\uc0b0\uad6d\ub9bd\uacf5\uc6d0 \uad00\ub9ac\uc0ac\ubb34\uc18c \uc55e \uc8fc\ucc28\uc7a5", "addr": "\uc804\ub77c\ubd81\ub3c4 \ubb34\uc8fc\uad70 \uc124\ucc9c\uba74 \uc0bc\uacf5\ub9ac 411", "lat": "35.901189", "lng": "127.775679"}, {"statNm": "SK \uc81c\uc77c\uc8fc\uc720\uc18c", "addr": "\uc804\ub77c\ubd81\ub3c4 \ub0a8\uc6d0\uc2dc \uc8fc\uc0dd\uba74 \uc81c\ucc9c\ub9ac 245", "lat": "35.372288", "lng": "127.312663"}, {"statNm": "\ub0a8\uc6d0\uc0c8\ub9c8\uc744\uae08\uace0\uc8fc\uc720\uc18c", "addr": "\uc804\ub77c\ubd81\ub3c4 \ub0a8\uc6d0\uc2dc \uae08\ub3d9 437-6", "lat": "35.406314", "lng": "127.372393"}, {"statNm": "\ub0a8\uc6d0\uc0c8\ub9c8\uc744\uae08\uace0\uc8fc\uc720\uc18c", "addr": "\uc804\ub77c\ubd81\ub3c4 \ub0a8\uc6d0\uc2dc \uae08\ub3d9 437-6", "lat": "35.406314", "lng": "127.372393"}, {"statNm": "SK \uc6b4\ubd09\uc8fc\uc720\uc18c", "addr": "\uc804\ub77c\ubd81\ub3c4 \ub0a8\uc6d0\uc2dc \uc6b4\ubd09\uc74d \ud669\uc0b0\ub85c1026", "lat": "35.437148", "lng": "127.524895"}, {"statNm": "SK \uc11c\uc6b8\uc8fc\uc720\uc18c", "addr": "\uc804\ub77c\ubd81\ub3c4 \uad70\uc0b0\uc2dc \uc11c\uc218\uba74 \ub3d9\uad70\uc0b0\ub85c 984", "lat": "36.003038", "lng": "126.869701"}, {"statNm": "\uc2a4\ud30c\ub77c\ucfe0\uc544", "addr": "\uc804\ub77c\ubd81\ub3c4 \uc804\uc8fc\uc2dc \uc644\uc0b0\uad6c \uc2e0\ucd0c3\uae3824\ubc88\uc9c0", "lat": "35.817418", "lng": "127.115631"}, {"statNm": "\ub86f\ub370\ub9c8\ud2b8 \ub0a8\uc6d0\uc810", "addr": "\uc804\ub77c\ubd81\ub3c4 \ub0a8\uc6d0\uc2dc \ud5a5\uad50\ub3d9 \ucd98\ud5a5\ub85c 96 (\ud5a5\uad50\ub3d9)", "lat": "35.423317", "lng": "127.39247"}, {"statNm": "\uc774\ub9c8\ud2b8 \uc804\uc8fc\uc810", "addr": "\uc804\ub77c\ubd81\ub3c4 \uc804\uc8fc\uc2dc \uc644\uc0b0\uad6c \ub2f9\uc0b0\ub85c 111", "lat": "35.83286374", "lng": "127.12089862"}, {"statNm": "\uc804\uc8fc\ub355\uc9c4\uacf5\uc6d0 \uc8fc\ucc28\uc7a5", "addr": "\uc804\ub77c\ubd81\ub3c4 \uc804\uc8fc\uc2dc \ub355\uc9c4\uad6c \ub355\uc9c4\ub3d9 2\uac00 179-6", "lat": "35.8481760", "lng": "127.1204980"}, {"statNm": "\uc608\uc220\uc758 \uc804\ub2f9", "addr": "\uc804\ub77c\ubd81\ub3c4 \uad70\uc0b0\uc2dc \uc9c0\uace1\ub3d9 286-8", "lat": "35.9607154", "lng": "126.7090665"}, {"statNm": "\uae08\uac15\ucca0\uc0c8\uc870\ub9dd\ub300", "addr": "\uc804\ub77c\ubd81\ub3c4 \uad70\uc0b0\uc2dc \uc131\uc0b0\uba74 \uc131\ub355\ub9ac", "lat": "36.0197065", "lng": "126.7635205"}, {"statNm": "\uc5ec\uc0b0\ud734\uac8c\uc18c(\uc21c\ucc9c\ubc29\ud5a5)", "addr": "\uc804\ub77c\ubd81\ub3c4 \uc775\uc0b0\uc2dc \uc5ec\uc0b0\uba74 \ud638\uc0b0\ub9ac \uc0b032-6", "lat": "36.0479377", "lng": "127.1026013"}, {"statNm": "\ud568\uc5f4\uc62c\ub9bc\ud53d \uc2a4\ud3ec\uce20\uc13c\ud130", "addr": "\uc804\ub77c\ubd81\ub3c4 \uc775\uc0b0\uc2dc \ud568\uc5f4\uc74d \uc640\ub9ac164", "lat": "36.0741298", "lng": "126.963993"}, {"statNm": "\uc815\uc74d\ub179\ub450\uc7a5\uad70\ud734\uac8c\uc18c(\ub17c\uc0b0\ubc29\ud5a5)", "addr": "\uc804\ub77c\ubd81\ub3c4 \uc815\uc74d\uc2dc \ubd81\uba74 \ub0a8\uc0b0\ub9ac", "lat": "35.6006769", "lng": "126.8644591"}, {"statNm": "\uc815\uc74d\ub179\ub450\uc7a5\uad70\ud734\uac8c\uc18c(\uc21c\ucc9c\ubc29\ud5a5)", "addr": "\uc804\ub77c\ubd81\ub3c4 \uc815\uc74d\uc2dc \ubd81\uba74 \uc815\uc2e0\ub85c 135-61", "lat": "35.6016871", "lng": "126.8624805"}, {"statNm": "\uc9c0\ub9ac\uc0b0\ud734\uac8c\uc18c(\uc625\ud3ec\ubc29\ud5a5)", "addr": "\uc804\ub77c\ubd81\ub3c4 \ub0a8\uc6d0\uc2dc \uc544\uc601\uba74 \uc544\uace1\ub9ac", "lat": "35.4808967", "lng": "127.566233"}, {"statNm": "\uc9c0\ub9ac\uc0b0\ud734\uac8c\uc18c(\uace0\uc11c\ubc29\ud5a5)", "addr": "\uc804\ub77c\ubd81\ub3c4 \ub0a8\uc6d0\uc2dc \uc544\uc601\uba74 \uc544\uace1\ub9ac", "lat": "35.4837213", "lng": "127.5665699"}, {"statNm": "\uadfc\ub85c\uc790\uc885\ud569\ubcf5\uc9c0\uad00", "addr": "\uc804\ub77c\ubd81\ub3c4 \uc644\uc8fc\uad70 \ubd09\ub3d9\uc74d \ub454\uc0b0\ub9ac 881", "lat": "35.9628434", "lng": "127.1270991"}, {"statNm": "\uc9c4\uc548\uad70\uccad", "addr": "\uc804\ub77c\ubd81\ub3c4 \uc9c4\uc548\uad70 \uc9c4\uc548\uc74d \uc911\uc559\ub85c 67", "lat": "35.7918402", "lng": "127.4245086"}, {"statNm": "\ub355\uc720\uc0b0\ud734\uac8c\uc18c(\ud558\ub0a8\ubc29\ud5a5)", "addr": "\uc804\ub77c\ubd81\ub3c4 \ubb34\uc8fc\uad70 \uc548\uc131\uba74 \ud1b5\uc601\ub300\uc804\uace0\uc18d\ub3c4\ub85c 148", "lat": "35.8171253", "lng": "127.6457339"}, {"statNm": "\ubb34\uc8fc\uc74d\uc8fc\ubbfc\uc790\uce58\uc13c\ud130", "addr": "\uc804\ub77c\ubd81\ub3c4 \ubb34\uc8fc\uad70 \ubb34\uc8fc\uc74d \ud5a5\ud559\ub85c 49", "lat": "36.0088603", "lng": "127.6619473"}, {"statNm": "\uc548\uc131\uba74\uc8fc\ubbfc\uc790\uce58\uc13c\ud130", "addr": "\uc804\ub77c\ubd81\ub3c4 \ubb34\uc8fc\uad70 \uc548\uc131\uba74 \uc548\uc131\ub85c 246-17", "lat": "35.8629478", "lng": "127.6528909"}, {"statNm": "\ub355\uc720\uc0b0\ud734\uac8c\uc18c(\ud1b5\uc601\ubc29\ud5a5)", "addr": "\uc804\ub77c\ubd81\ub3c4 \uc7a5\uc218\uad70 \uacc4\ubd81\uba74 \ub2f9\uc800\uae38 59", "lat": "35.8142655", "lng": "127.6433798"}, {"statNm": "\uc7a5\uc218\uad70\uccad", "addr": "\uc804\ub77c\ubd81\ub3c4 \uc7a5\uc218\uad70 \uc7a5\uc218\uc74d \ud638\ube44\ub85c 10", "lat": "35.6467192", "lng": "127.5215713"}, {"statNm": "\uc624\uc218\ud734\uac8c\uc18c(\uc804\uc8fc\ubc29\ud5a5)", "addr": "\uc804\ub77c\ubd81\ub3c4 \uc784\uc2e4\uad70 \uc624\uc218\uba74 \ub300\uba85\ub9ac", "lat": "35.5391924", "lng": "127.3111266"}, {"statNm": "\uc624\uc218\ud734\uac8c\uc18c(\uad11\uc591\ubc29\ud5a5)", "addr": "\uc804\ub77c\ubd81\ub3c4 \uc784\uc2e4\uad70 \uc624\uc218\uba74 \uc624\uc0b0\ub9ac", "lat": "35.5398971", "lng": "127.3091337"}, {"statNm": "\uace0\ucc3d\uad70 \uc74d\uc131\uc8fc\ucc28\uc7a5", "addr": "\uc804\ub77c\ubd81\ub3c4 \uace0\ucc3d\uad70 \uace0\ucc3d\uc74d \ub3d9\ub9ac\ub85c 117", "lat": "35.4329963", "lng": "126.7061833"}, {"statNm": "\uace0\ucc3d\uace0\uc778\ub3cc\ud734\uac8c\uc18c(\ubaa9\ud3ec\ubc29\ud5a5)", "addr": "\uc804\ub77c\ubd81\ub3c4 \uace0\ucc3d\uad70 \uace0\ucc3d\uc74d \uc11c\ud574\uc548\uace0\uc18d\ub3c4\ub85c 81 (\ubcbd\uc1a1\ub9ac)", "lat": "35.4690375", "lng": "126.6742688"}, {"statNm": "\uace0\ucc3d\uace0\uc778\ub3cc\ud734\uac8c\uc18c(\ubaa9\ud3ec\ubc29\ud5a5)", "addr": "\uc804\ub77c\ubd81\ub3c4 \uace0\ucc3d\uad70 \uace0\ucc3d\uc74d \uc11c\ud574\uc548\uace0\uc18d\ub3c4\ub85c 81 (\ubcbd\uc1a1\ub9ac)", "lat": "35.4690375", "lng": "126.6742688"}, {"statNm": "\uace0\ucc3d\uace0\uc778\ub3cc\ud734\uac8c\uc18c(\uc2dc\ud765\ubc29\ud5a5)", "addr": "\uc804\ub77c\ubd81\ub3c4 \uace0\ucc3d\uad70 \uace0\ucc3d\uc74d \uc11c\ud574\uc548\uace0\uc18d\ub3c4\ub85c 80 (\uc2e0\uc6d4\ub9ac)", "lat": "35.461348", "lng": "126.6729203"}, {"statNm": "\uace0\ucc3d\uace0\uc778\ub3cc\ud734\uac8c\uc18c(\uc2dc\ud765\ubc29\ud5a5)", "addr": "\uc804\ub77c\ubd81\ub3c4 \uace0\ucc3d\uad70 \uace0\ucc3d\uc74d \uc11c\ud574\uc548\uace0\uc18d\ub3c4\ub85c 80 (\uc2e0\uc6d4\ub9ac)", "lat": "35.461348", "lng": "126.6729203"}, {"statNm": "\uc774\uc11c\ud734\uac8c\uc18c(\uc21c\ucc9c\ubc29\ud5a5)", "addr": "\uc804\ub77c\ubd81\ub3c4 \uc644\uc8fc\uad70 \uc774\uc11c\uba74 \ud638\ub0a8\uace0\uc18d\ub3c4\ub85c 161 (\uc740\uad50\ub9ac)", "lat": "35.8034454", "lng": "127.0240566"}, {"statNm": "\uc774\uc11c\ud734\uac8c\uc18c(\uc21c\ucc9c\ubc29\ud5a5)", "addr": "\uc804\ub77c\ubd81\ub3c4 \uc644\uc8fc\uad70 \uc774\uc11c\uba74 \ud638\ub0a8\uace0\uc18d\ub3c4\ub85c 161 (\uc740\uad50\ub9ac)", "lat": "35.8034454", "lng": "127.0240566"}, {"statNm": "\uc774\uc11c\ud734\uac8c\uc18c(\ucc9c\uc548\ubc29\ud5a5)", "addr": "\uc804\ub77c\ubd81\ub3c4 \uc644\uc8fc\uad70 \uc774\uc11c\uba74 \ud638\ub0a8\uace0\uc18d\ub3c4\ub85c 162 (\uc740\uad50\ub9ac)", "lat": "35.802184", "lng": "127.0258792"}, {"statNm": "\uc774\uc11c\ud734\uac8c\uc18c(\ucc9c\uc548\ubc29\ud5a5)", "addr": "\uc804\ub77c\ubd81\ub3c4 \uc644\uc8fc\uad70 \uc774\uc11c\uba74 \ud638\ub0a8\uace0\uc18d\ub3c4\ub85c 162 (\uc740\uad50\ub9ac)", "lat": "35.802184", "lng": "127.0258792"}, {"statNm": "\uc815\uc74d\ud734\uac8c\uc18c(\ub17c\uc0b0\ubc29\ud5a5)", "addr": "\uc804\ub77c\ubd81\ub3c4 \uc815\uc74d\uc2dc \ubd81\uba74 \ud558\ubd811\uae38 227-17 (\ub0a8\uc0b0\ub9ac)", "lat": "35.6005769", "lng": "126.8646591"}, {"statNm": "\uc815\uc74d\ud734\uac8c\uc18c(\uc21c\ucc9c\ubc29\ud5a5)", "addr": "\uc804\ub77c\ubd81\ub3c4 \uc815\uc74d\uc2dc \ubd81\uba74 \uc815\uc2e0\ub85c 135-61 (\ub0a8\uc0b0\ub9ac)", "lat": "35.6015871", "lng": "126.8626805"}, {"statNm": "\ub355\uc720\uc0b0\ud734\uac8c\uc18c(\ud1b5\uc601\ubc29\ud5a5)", "addr": "\uc804\ub77c\ubd81\ub3c4 \uc7a5\uc218\uad70 \uacc4\ubd81\uba74 \ub2f9\uc800\uae38 59 (\uc591\uc545\ub9ac)", "lat": "35.8141655", "lng": "127.6435798"}, {"statNm": "\ub355\uc720\uc0b0\ud734\uac8c\uc18c(\ud558\ub0a8\ubc29\ud5a5)", "addr": "\uc804\ub77c\ubd81\ub3c4 \ubb34\uc8fc\uad70 \uc548\uc131\uba74 \ud1b5\uc601\ub300\uc804\uace0\uc18d\ub3c4\ub85c 148 (\uacf5\uc9c4\ub9ac)", "lat": "35.8170253", "lng": "127.6459339"}, {"statNm": "\uc9c0\ub9ac\uc0b0\ud734\uac8c\uc18c(\uace0\uc11c\ubc29\ud5a5)", "addr": "\uc804\ub77c\ubd81\ub3c4 \ub0a8\uc6d0\uc2dc \uc544\uc601\uba74 88\uc62c\ub9bc\ud53d\uace0\uc18d\ub3c4\ub85c 75 (\uc544\uace1\ub9ac)", "lat": "35.4836213", "lng": "127.5667699"}, {"statNm": "\uc9c0\ub9ac\uc0b0\ud734\uac8c\uc18c(\uace0\uc11c\ubc29\ud5a5)", "addr": "\uc804\ub77c\ubd81\ub3c4 \ub0a8\uc6d0\uc2dc \uc544\uc601\uba74 88\uc62c\ub9bc\ud53d\uace0\uc18d\ub3c4\ub85c 75 (\uc544\uace1\ub9ac)", "lat": "35.4836213", "lng": "127.5667699"}, {"statNm": "\uc9c0\ub9ac\uc0b0\ud734\uac8c\uc18c(\uc625\ud3ec\ubc29\ud5a5)", "addr": "\uc804\ub77c\ubd81\ub3c4 \ub0a8\uc6d0\uc2dc \uc544\uc601\uba74 88\uc62c\ub9bc\ud53d\uace0\uc18d\ub3c4\ub85c 76 (\uc544\uace1\ub9ac)", "lat": "35.4808967", "lng": "127.566233"}, {"statNm": "\uc9c0\ub9ac\uc0b0\ud734\uac8c\uc18c(\uc625\ud3ec\ubc29\ud5a5)", "addr": "\uc804\ub77c\ubd81\ub3c4 \ub0a8\uc6d0\uc2dc \uc544\uc601\uba74 88\uc62c\ub9bc\ud53d\uace0\uc18d\ub3c4\ub85c 76 (\uc544\uace1\ub9ac)", "lat": "35.4808967", "lng": "127.566233"}, {"statNm": "\uac15\ucc9c\uc0b0\ud734\uac8c\uc18c(\ub300\uad6c\ubc29\ud5a5)", "addr": "\uc804\ub77c\ubd81\ub3c4 \uc21c\ucc3d\uad70 \uc21c\ucc3d\uc74d 88\uc62c\ub9bc\ud53d\uace0\uc18d\ub3c4\ub85c 22 (\ubc31\uc0b0\ub9ac)", "lat": "35.364473", "lng": "127.1048023"}, {"statNm": "\uac15\ucc9c\uc0b0\ud734\uac8c\uc18c(\ub300\uad6c\ubc29\ud5a5)", "addr": "\uc804\ub77c\ubd81\ub3c4 \uc21c\ucc3d\uad70 \uc21c\ucc3d\uc74d 88\uc62c\ub9bc\ud53d\uace0\uc18d\ub3c4\ub85c 22 (\ubc31\uc0b0\ub9ac)", "lat": "35.364473", "lng": "127.1048023"}, {"statNm": "\uc9c4\uc548\ud734\uac8c\uc18c(\uc775\uc0b0\ubc29\ud5a5)", "addr": "\uc804\ub77c\ubd81\ub3c4 \uc9c4\uc548\uad70 \uc9c4\uc548\uc74d \uc775\uc0b0\uc7a5\uc218\uace0\uc18d\ub3c4\ub85c 41 (\ub2e8\uc591\ub9ac)", "lat": "35.7782697", "lng": "127.425744"}, {"statNm": "\uc9c4\uc548\ud734\uac8c\uc18c(\uc775\uc0b0\ubc29\ud5a5)", "addr": "\uc804\ub77c\ubd81\ub3c4 \uc9c4\uc548\uad70 \uc9c4\uc548\uc74d \uc775\uc0b0\uc7a5\uc218\uace0\uc18d\ub3c4\ub85c 41 (\ub2e8\uc591\ub9ac)", "lat": "35.7782697", "lng": "127.425744"}, {"statNm": "\uc9c4\uc548\ud734\uac8c\uc18c(\uc7a5\uc218\ubc29\ud5a5)", "addr": "\uc804\ub77c\ubd81\ub3c4 \uc9c4\uc548\uad70 \uc9c4\uc548\uc74d \uc775\uc0b0\uc7a5\uc218\uace0\uc18d\ub3c4\ub85c 42 (\ub2e8\uc591\ub9ac)", "lat": "35.774925", "lng": "127.4262837"}, {"statNm": "\uc9c4\uc548\ud734\uac8c\uc18c(\uc7a5\uc218\ubc29\ud5a5)", "addr": "\uc804\ub77c\ubd81\ub3c4 \uc9c4\uc548\uad70 \uc9c4\uc548\uc74d \uc775\uc0b0\uc7a5\uc218\uace0\uc18d\ub3c4\ub85c 42 (\ub2e8\uc591\ub9ac)", "lat": "35.774925", "lng": "127.4262837"}, {"statNm": "\ub86f\ub370\ub9c8\ud2b8 \uad70\uc0b0\uc810", "addr": "\uc804\ub77c\ubd81\ub3c4 \uad70\uc0b0\uc2dc \uc218\uc1a1\ub85c 185 (\uc218\uc1a1\ub3d9)", "lat": "35.9647788", "lng": "126.7163555"}, {"statNm": "\ub86f\ub370\ub9c8\ud2b8 \uad70\uc0b0\uc810", "addr": "\uc804\ub77c\ubd81\ub3c4 \uad70\uc0b0\uc2dc \uc218\uc1a1\ub85c 185 (\uc218\uc1a1\ub3d9)", "lat": "35.9647788", "lng": "126.7163555"}, {"statNm": "\ub86f\ub370\ub9c8\ud2b8 \uc775\uc0b0\uc810", "addr": "\uc804\ub77c\ubd81\ub3c4 \uc775\uc0b0\uc2dc \ubb34\uc655\ub85c 1053 (\uc601\ub4f1\ub3d9)", "lat": "35.9597398", "lng": "126.9741078"}, {"statNm": "\ub86f\ub370\ub9c8\ud2b8 \uc775\uc0b0\uc810", "addr": "\uc804\ub77c\ubd81\ub3c4 \uc775\uc0b0\uc2dc \ubb34\uc655\ub85c 1053 (\uc601\ub4f1\ub3d9)", "lat": "35.9597398", "lng": "126.9741078"}, {"statNm": "\ub86f\ub370\ub9c8\ud2b8 \uc775\uc0b0\uc810", "addr": "\uc804\ub77c\ubd81\ub3c4 \uc775\uc0b0\uc2dc \ubb34\uc655\ub85c 1053 (\uc601\ub4f1\ub3d9)", "lat": "35.9597398", "lng": "126.9741078"}, {"statNm": "\ubcc0\uc0b0\ubc18\ub3c4\uad6d\ub9bd\uacf5\uc6d0 \uaca9\ud3ec\uc8fc\ucc28\uc7a5", "addr": "\uc804\ub77c\ubd81\ub3c4 \ubd80\uc548\uad70 \ubcc0\uc0b0\uba74 \uaca9\ud3ec\ub9ac 283-1", "lat": "35.627881", "lng": "126.471165"}, {"statNm": "\ubcc0\uc0b0\ubc18\ub3c4\uad6d\ub9bd\uacf5\uc6d0 \uaca9\ud3ec\uc8fc\ucc28\uc7a5", "addr": "\uc804\ub77c\ubd81\ub3c4 \ubd80\uc548\uad70 \ubcc0\uc0b0\uba74 \uaca9\ud3ec\ub9ac 283-1", "lat": "35.627881", "lng": "126.471165"}, {"statNm": "\ubcc0\uc0b0\ubc18\ub3c4\uad6d\ub9bd\uacf5\uc6d0 \ub0b4\uc18c\uc8fc\ucc28\uc7a5", "addr": "\uc804\ub77c\ubd81\ub3c4 \ubd80\uc548\uad70 \uc9c4\uc11c\uba74 \uc11d\ud3ec\ub9ac 240", "lat": "35.610062", "lng": "126.588533"}, {"statNm": "\ubcc0\uc0b0\ubc18\ub3c4\uad6d\ub9bd\uacf5\uc6d0 \ub0b4\uc18c\uc8fc\ucc28\uc7a5", "addr": "\uc804\ub77c\ubd81\ub3c4 \ubd80\uc548\uad70 \uc9c4\uc11c\uba74 \uc11d\ud3ec\ub9ac 240", "lat": "35.610062", "lng": "126.588533"}, {"statNm": "\uc9c0\ub9ac\uc0b0\uad6d\ub9bd\uacf5\uc6d0 \ubd81\ubd80 \ubc18\uc120\uc8fc\ucc28\uc7a5", "addr": "\uc804\ub77c\ubd81\ub3c4 \ub0a8\uc6d0\uc2dc \uc0b0\ub0b4\uba74 \ubd80\uc6b4\ub9ac 216-10", "lat": "35.377231", "lng": "127.581692"}, {"statNm": "\uc9c0\ub9ac\uc0b0\uad6d\ub9bd\uacf5\uc6d0 \ubd81\ubd80 \ubc18\uc120\uc8fc\ucc28\uc7a5", "addr": "\uc804\ub77c\ubd81\ub3c4 \ub0a8\uc6d0\uc2dc \uc0b0\ub0b4\uba74 \ubd80\uc6b4\ub9ac 216-10", "lat": "35.377231", "lng": "127.581692"}, {"statNm": "\uc9c0\ub9ac\uc0b0\uad6d\ub9bd\uacf5\uc6d0 \ubc40\uc0ac\uace8\uc57c\uc601\uc7a5", "addr": "\uc804\ub77c\ubd81\ub3c4 \ub0a8\uc6d0\uc2dc \uc0b0\ub0b4\uba74 \ub355\ub3d9\ub9ac 406", "lat": "35.354821", "lng": "127.558283"}, {"statNm": "\uc9c0\ub9ac\uc0b0\uad6d\ub9bd\uacf5\uc6d0 \ubc40\uc0ac\uace8\uc57c\uc601\uc7a5", "addr": "\uc804\ub77c\ubd81\ub3c4 \ub0a8\uc6d0\uc2dc \uc0b0\ub0b4\uba74 \ub355\ub3d9\ub9ac 406", "lat": "35.354821", "lng": "127.558283"}, {"statNm": "\ub0b4\uc7a5\uc0b0\uad6d\ub9bd\uacf5\uc6d0 \ud0d0\ubc29\uc548\ub0b4\uc18c", "addr": "\uc804\ub77c\ubd81\ub3c4 \uc815\uc74d\uc2dc \ub0b4\uc7a5\ub3d9 673-1", "lat": "35.487895", "lng": "126.907447"}, {"statNm": "\ub0b4\uc7a5\uc0b0\uad6d\ub9bd\uacf5\uc6d0 1(\ub0b4\uc7a5)\uc8fc\ucc28\uc7a5", "addr": "\uc804\ub77c\ubd81\ub3c4 \uc815\uc74d\uc2dc \ub0b4\uc7a5\ub3d9 52", "lat": "35.49408", "lng": "126.925858"}, {"statNm": "\ub0b4\uc7a5\uc0b0\uad6d\ub9bd\uacf5\uc6d0 1(\ub0b4\uc7a5)\uc8fc\ucc28\uc7a5", "addr": "\uc804\ub77c\ubd81\ub3c4 \uc815\uc74d\uc2dc \ub0b4\uc7a5\ub3d9 52", "lat": "35.49408", "lng": "126.925858"}, {"statNm": "\ub0b4\uc7a5\uc0b0\uad6d\ub9bd\uacf5\uc6d0 \ub124\uc774\ucc98\uc13c\ud130", "addr": "\uc804\ub77c\ubd81\ub3c4 \uc815\uc74d\uc2dc \ub0b4\uc7a5\ub3d9 169-1", "lat": "35.508267", "lng": "126.906523"}, {"statNm": "\ub0b4\uc7a5\uc0b0\uad6d\ub9bd\uacf5\uc6d0 \ub124\uc774\ucc98\uc13c\ud130", "addr": "\uc804\ub77c\ubd81\ub3c4 \uc815\uc74d\uc2dc \ub0b4\uc7a5\ub3d9 169-1", "lat": "35.508267", "lng": "126.906523"}, {"statNm": "\ub355\uc720\uc0b0\uad6d\ub9bd\uacf5\uc6d0 \ub355\uc720\ub300\uc57c\uc601\uc7a5", "addr": "\uc804\ub77c\ubd81\ub3c4 \ubb34\uc8fc\uad70 \uc124\ucc9c\uba74 \uc0bc\uacf5\ub9ac 456-1\ubc88\uc9c0", "lat": "35.893725", "lng": "127.772644"}, {"statNm": "\ub355\uc720\uc0b0\uad6d\ub9bd\uacf5\uc6d0 \ub355\uc720\ub300\uc57c\uc601\uc7a5", "addr": "\uc804\ub77c\ubd81\ub3c4 \ubb34\uc8fc\uad70 \uc124\ucc9c\uba74 \uc0bc\uacf5\ub9ac 456-1\ubc88\uc9c0", "lat": "35.893725", "lng": "127.772644"}, {"statNm": "\ub355\uc720\uc0b0\uad6d\ub9bd\uacf5\uc6d0 \uad00\ub9ac\uc0ac\ubb34\uc18c \uc55e \uc8fc\ucc28\uc7a5", "addr": "\uc804\ub77c\ubd81\ub3c4 \ubb34\uc8fc\uad70 \uc124\ucc9c\uba74 \uc0bc\uacf5\ub9ac 411", "lat": "35.901189", "lng": "127.775679"}, {"statNm": "\ub355\uc720\uc0b0\uad6d\ub9bd\uacf5\uc6d0 \uad00\ub9ac\uc0ac\ubb34\uc18c \uc55e \uc8fc\ucc28\uc7a5", "addr": "\uc804\ub77c\ubd81\ub3c4 \ubb34\uc8fc\uad70 \uc124\ucc9c\uba74 \uc0bc\uacf5\ub9ac 411", "lat": "35.901189", "lng": "127.775679"}, {"statNm": "SK \uc81c\uc77c\uc8fc\uc720\uc18c", "addr": "\uc804\ub77c\ubd81\ub3c4 \ub0a8\uc6d0\uc2dc \uc8fc\uc0dd\uba74 \uc81c\ucc9c\ub9ac 245", "lat": "35.372288", "lng": "127.312663"}, {"statNm": "\ub0a8\uc6d0\uc0c8\ub9c8\uc744\uae08\uace0\uc8fc\uc720\uc18c", "addr": "\uc804\ub77c\ubd81\ub3c4 \ub0a8\uc6d0\uc2dc \uae08\ub3d9 437-6", "lat": "35.406314", "lng": "127.372393"}, {"statNm": "\ub0a8\uc6d0\uc0c8\ub9c8\uc744\uae08\uace0\uc8fc\uc720\uc18c", "addr": "\uc804\ub77c\ubd81\ub3c4 \ub0a8\uc6d0\uc2dc \uae08\ub3d9 437-6", "lat": "35.406314", "lng": "127.372393"}, {"statNm": "SK \uc6b4\ubd09\uc8fc\uc720\uc18c", "addr": "\uc804\ub77c\ubd81\ub3c4 \ub0a8\uc6d0\uc2dc \uc6b4\ubd09\uc74d \ud669\uc0b0\ub85c1026", "lat": "35.437148", "lng": "127.524895"}, {"statNm": "SK \uc11c\uc6b8\uc8fc\uc720\uc18c", "addr": "\uc804\ub77c\ubd81\ub3c4 \uad70\uc0b0\uc2dc \uc11c\uc218\uba74 \ub3d9\uad70\uc0b0\ub85c 984", "lat": "36.003038", "lng": "126.869701"}, {"statNm": "\uc2a4\ud30c\ub77c\ucfe0\uc544", "addr": "\uc804\ub77c\ubd81\ub3c4 \uc804\uc8fc\uc2dc \uc644\uc0b0\uad6c \uc2e0\ucd0c3\uae3824\ubc88\uc9c0", "lat": "35.817418", "lng": "127.115631"}, {"statNm": "\ub86f\ub370\ub9c8\ud2b8 \ub0a8\uc6d0\uc810", "addr": "\uc804\ub77c\ubd81\ub3c4 \ub0a8\uc6d0\uc2dc \ud5a5\uad50\ub3d9 \ucd98\ud5a5\ub85c 96 (\ud5a5\uad50\ub3d9)", "lat": "35.423317", "lng": "127.39247"}, {"statNm": "\uc774\ub9c8\ud2b8 \uc804\uc8fc\uc810", "addr": "\uc804\ub77c\ubd81\ub3c4 \uc804\uc8fc\uc2dc \uc644\uc0b0\uad6c \ub2f9\uc0b0\ub85c 111", "lat": "35.83286374", "lng": "127.12089862"}, {"statNm": "\uc804\uc8fc\ub355\uc9c4\uacf5\uc6d0 \uc8fc\ucc28\uc7a5", "addr": "\uc804\ub77c\ubd81\ub3c4 \uc804\uc8fc\uc2dc \ub355\uc9c4\uad6c \ub355\uc9c4\ub3d9 2\uac00 179-6", "lat": "35.8481760", "lng": "127.1204980"}, {"statNm": "\uc608\uc220\uc758 \uc804\ub2f9", "addr": "\uc804\ub77c\ubd81\ub3c4 \uad70\uc0b0\uc2dc \uc9c0\uace1\ub3d9 286-8", "lat": "35.9607154", "lng": "126.7090665"}, {"statNm": "\uae08\uac15\ucca0\uc0c8\uc870\ub9dd\ub300", "addr": "\uc804\ub77c\ubd81\ub3c4 \uad70\uc0b0\uc2dc \uc131\uc0b0\uba74 \uc131\ub355\ub9ac", "lat": "36.0197065", "lng": "126.7635205"}, {"statNm": "\uc5ec\uc0b0\ud734\uac8c\uc18c(\uc21c\ucc9c\ubc29\ud5a5)", "addr": "\uc804\ub77c\ubd81\ub3c4 \uc775\uc0b0\uc2dc \uc5ec\uc0b0\uba74 \ud638\uc0b0\ub9ac \uc0b032-6", "lat": "36.0479377", "lng": "127.1026013"}, {"statNm": "\ud568\uc5f4\uc62c\ub9bc\ud53d \uc2a4\ud3ec\uce20\uc13c\ud130", "addr": "\uc804\ub77c\ubd81\ub3c4 \uc775\uc0b0\uc2dc \ud568\uc5f4\uc74d \uc640\ub9ac164", "lat": "36.0741298", "lng": "126.963993"}, {"statNm": "\uc815\uc74d\ub179\ub450\uc7a5\uad70\ud734\uac8c\uc18c(\ub17c\uc0b0\ubc29\ud5a5)", "addr": "\uc804\ub77c\ubd81\ub3c4 \uc815\uc74d\uc2dc \ubd81\uba74 \ub0a8\uc0b0\ub9ac", "lat": "35.6006769", "lng": "126.8644591"}, {"statNm": "\uc815\uc74d\ub179\ub450\uc7a5\uad70\ud734\uac8c\uc18c(\uc21c\ucc9c\ubc29\ud5a5)", "addr": "\uc804\ub77c\ubd81\ub3c4 \uc815\uc74d\uc2dc \ubd81\uba74 \uc815\uc2e0\ub85c 135-61", "lat": "35.6016871", "lng": "126.8624805"}, {"statNm": "\uc9c0\ub9ac\uc0b0\ud734\uac8c\uc18c(\uc625\ud3ec\ubc29\ud5a5)", "addr": "\uc804\ub77c\ubd81\ub3c4 \ub0a8\uc6d0\uc2dc \uc544\uc601\uba74 \uc544\uace1\ub9ac", "lat": "35.4808967", "lng": "127.566233"}, {"statNm": "\uc9c0\ub9ac\uc0b0\ud734\uac8c\uc18c(\uace0\uc11c\ubc29\ud5a5)", "addr": "\uc804\ub77c\ubd81\ub3c4 \ub0a8\uc6d0\uc2dc \uc544\uc601\uba74 \uc544\uace1\ub9ac", "lat": "35.4837213", "lng": "127.5665699"}, {"statNm": "\uadfc\ub85c\uc790\uc885\ud569\ubcf5\uc9c0\uad00", "addr": "\uc804\ub77c\ubd81\ub3c4 \uc644\uc8fc\uad70 \ubd09\ub3d9\uc74d \ub454\uc0b0\ub9ac 881", "lat": "35.9628434", "lng": "127.1270991"}, {"statNm": "\uc9c4\uc548\uad70\uccad", "addr": "\uc804\ub77c\ubd81\ub3c4 \uc9c4\uc548\uad70 \uc9c4\uc548\uc74d \uc911\uc559\ub85c 67", "lat": "35.7918402", "lng": "127.4245086"}, {"statNm": "\ub355\uc720\uc0b0\ud734\uac8c\uc18c(\ud558\ub0a8\ubc29\ud5a5)", "addr": "\uc804\ub77c\ubd81\ub3c4 \ubb34\uc8fc\uad70 \uc548\uc131\uba74 \ud1b5\uc601\ub300\uc804\uace0\uc18d\ub3c4\ub85c 148", "lat": "35.8171253", "lng": "127.6457339"}, {"statNm": "\ubb34\uc8fc\uc74d\uc8fc\ubbfc\uc790\uce58\uc13c\ud130", "addr": "\uc804\ub77c\ubd81\ub3c4 \ubb34\uc8fc\uad70 \ubb34\uc8fc\uc74d \ud5a5\ud559\ub85c 49", "lat": "36.0088603", "lng": "127.6619473"}, {"statNm": "\uc548\uc131\uba74\uc8fc\ubbfc\uc790\uce58\uc13c\ud130", "addr": "\uc804\ub77c\ubd81\ub3c4 \ubb34\uc8fc\uad70 \uc548\uc131\uba74 \uc548\uc131\ub85c 246-17", "lat": "35.8629478", "lng": "127.6528909"}, {"statNm": "\ub355\uc720\uc0b0\ud734\uac8c\uc18c(\ud1b5\uc601\ubc29\ud5a5)", "addr": "\uc804\ub77c\ubd81\ub3c4 \uc7a5\uc218\uad70 \uacc4\ubd81\uba74 \ub2f9\uc800\uae38 59", "lat": "35.8142655", "lng": "127.6433798"}, {"statNm": "\uc7a5\uc218\uad70\uccad", "addr": "\uc804\ub77c\ubd81\ub3c4 \uc7a5\uc218\uad70 \uc7a5\uc218\uc74d \ud638\ube44\ub85c 10", "lat": "35.6467192", "lng": "127.5215713"}, {"statNm": "\uc624\uc218\ud734\uac8c\uc18c(\uc804\uc8fc\ubc29\ud5a5)", "addr": "\uc804\ub77c\ubd81\ub3c4 \uc784\uc2e4\uad70 \uc624\uc218\uba74 \ub300\uba85\ub9ac", "lat": "35.5391924", "lng": "127.3111266"}, {"statNm": "\uc624\uc218\ud734\uac8c\uc18c(\uad11\uc591\ubc29\ud5a5)", "addr": "\uc804\ub77c\ubd81\ub3c4 \uc784\uc2e4\uad70 \uc624\uc218\uba74 \uc624\uc0b0\ub9ac", "lat": "35.5398971", "lng": "127.3091337"}, {"statNm": "\uace0\ucc3d\uad70 \uc74d\uc131\uc8fc\ucc28\uc7a5", "addr": "\uc804\ub77c\ubd81\ub3c4 \uace0\ucc3d\uad70 \uace0\ucc3d\uc74d \ub3d9\ub9ac\ub85c 117", "lat": "35.4329963", "lng": "126.7061833"}, {"statNm": "\uace0\ucc3d\uace0\uc778\ub3cc\ud734\uac8c\uc18c(\ubaa9\ud3ec\ubc29\ud5a5)", "addr": "\uc804\ub77c\ubd81\ub3c4 \uace0\ucc3d\uad70 \uace0\ucc3d\uc74d \uc11c\ud574\uc548\uace0\uc18d\ub3c4\ub85c 81 (\ubcbd\uc1a1\ub9ac)", "lat": "35.4690375", "lng": "126.6742688"}, {"statNm": "\uace0\ucc3d\uace0\uc778\ub3cc\ud734\uac8c\uc18c(\ubaa9\ud3ec\ubc29\ud5a5)", "addr": "\uc804\ub77c\ubd81\ub3c4 \uace0\ucc3d\uad70 \uace0\ucc3d\uc74d \uc11c\ud574\uc548\uace0\uc18d\ub3c4\ub85c 81 (\ubcbd\uc1a1\ub9ac)", "lat": "35.4690375", "lng": "126.6742688"}, {"statNm": "\uace0\ucc3d\uace0\uc778\ub3cc\ud734\uac8c\uc18c(\uc2dc\ud765\ubc29\ud5a5)", "addr": "\uc804\ub77c\ubd81\ub3c4 \uace0\ucc3d\uad70 \uace0\ucc3d\uc74d \uc11c\ud574\uc548\uace0\uc18d\ub3c4\ub85c 80 (\uc2e0\uc6d4\ub9ac)", "lat": "35.461348", "lng": "126.6729203"}, {"statNm": "\uace0\ucc3d\uace0\uc778\ub3cc\ud734\uac8c\uc18c(\uc2dc\ud765\ubc29\ud5a5)", "addr": "\uc804\ub77c\ubd81\ub3c4 \uace0\ucc3d\uad70 \uace0\ucc3d\uc74d \uc11c\ud574\uc548\uace0\uc18d\ub3c4\ub85c 80 (\uc2e0\uc6d4\ub9ac)", "lat": "35.461348", "lng": "126.6729203"}, {"statNm": "\uc774\uc11c\ud734\uac8c\uc18c(\uc21c\ucc9c\ubc29\ud5a5)", "addr": "\uc804\ub77c\ubd81\ub3c4 \uc644\uc8fc\uad70 \uc774\uc11c\uba74 \ud638\ub0a8\uace0\uc18d\ub3c4\ub85c 161 (\uc740\uad50\ub9ac)", "lat": "35.8034454", "lng": "127.0240566"}, {"statNm": "\uc774\uc11c\ud734\uac8c\uc18c(\uc21c\ucc9c\ubc29\ud5a5)", "addr": "\uc804\ub77c\ubd81\ub3c4 \uc644\uc8fc\uad70 \uc774\uc11c\uba74 \ud638\ub0a8\uace0\uc18d\ub3c4\ub85c 161 (\uc740\uad50\ub9ac)", "lat": "35.8034454", "lng": "127.0240566"}, {"statNm": "\uc774\uc11c\ud734\uac8c\uc18c(\ucc9c\uc548\ubc29\ud5a5)", "addr": "\uc804\ub77c\ubd81\ub3c4 \uc644\uc8fc\uad70 \uc774\uc11c\uba74 \ud638\ub0a8\uace0\uc18d\ub3c4\ub85c 162 (\uc740\uad50\ub9ac)", "lat": "35.802184", "lng": "127.0258792"}, {"statNm": "\uc774\uc11c\ud734\uac8c\uc18c(\ucc9c\uc548\ubc29\ud5a5)", "addr": "\uc804\ub77c\ubd81\ub3c4 \uc644\uc8fc\uad70 \uc774\uc11c\uba74 \ud638\ub0a8\uace0\uc18d\ub3c4\ub85c 162 (\uc740\uad50\ub9ac)", "lat": "35.802184", "lng": "127.0258792"}, {"statNm": "\uc815\uc74d\ud734\uac8c\uc18c(\ub17c\uc0b0\ubc29\ud5a5)", "addr": "\uc804\ub77c\ubd81\ub3c4 \uc815\uc74d\uc2dc \ubd81\uba74 \ud558\ubd811\uae38 227-17 (\ub0a8\uc0b0\ub9ac)", "lat": "35.6005769", "lng": "126.8646591"}, {"statNm": "\uc815\uc74d\ud734\uac8c\uc18c(\uc21c\ucc9c\ubc29\ud5a5)", "addr": "\uc804\ub77c\ubd81\ub3c4 \uc815\uc74d\uc2dc \ubd81\uba74 \uc815\uc2e0\ub85c 135-61 (\ub0a8\uc0b0\ub9ac)", "lat": "35.6015871", "lng": "126.8626805"}, {"statNm": "\ub355\uc720\uc0b0\ud734\uac8c\uc18c(\ud1b5\uc601\ubc29\ud5a5)", "addr": "\uc804\ub77c\ubd81\ub3c4 \uc7a5\uc218\uad70 \uacc4\ubd81\uba74 \ub2f9\uc800\uae38 59 (\uc591\uc545\ub9ac)", "lat": "35.8141655", "lng": "127.6435798"}, {"statNm": "\ub355\uc720\uc0b0\ud734\uac8c\uc18c(\ud558\ub0a8\ubc29\ud5a5)", "addr": "\uc804\ub77c\ubd81\ub3c4 \ubb34\uc8fc\uad70 \uc548\uc131\uba74 \ud1b5\uc601\ub300\uc804\uace0\uc18d\ub3c4\ub85c 148 (\uacf5\uc9c4\ub9ac)", "lat": "35.8170253", "lng": "127.6459339"}, {"statNm": "\uc9c0\ub9ac\uc0b0\ud734\uac8c\uc18c(\uace0\uc11c\ubc29\ud5a5)", "addr": "\uc804\ub77c\ubd81\ub3c4 \ub0a8\uc6d0\uc2dc \uc544\uc601\uba74 88\uc62c\ub9bc\ud53d\uace0\uc18d\ub3c4\ub85c 75 (\uc544\uace1\ub9ac)", "lat": "35.4836213", "lng": "127.5667699"}, {"statNm": "\uc9c0\ub9ac\uc0b0\ud734\uac8c\uc18c(\uace0\uc11c\ubc29\ud5a5)", "addr": "\uc804\ub77c\ubd81\ub3c4 \ub0a8\uc6d0\uc2dc \uc544\uc601\uba74 88\uc62c\ub9bc\ud53d\uace0\uc18d\ub3c4\ub85c 75 (\uc544\uace1\ub9ac)", "lat": "35.4836213", "lng": "127.5667699"}, {"statNm": "\uc9c0\ub9ac\uc0b0\ud734\uac8c\uc18c(\uc625\ud3ec\ubc29\ud5a5)", "addr": "\uc804\ub77c\ubd81\ub3c4 \ub0a8\uc6d0\uc2dc \uc544\uc601\uba74 88\uc62c\ub9bc\ud53d\uace0\uc18d\ub3c4\ub85c 76 (\uc544\uace1\ub9ac)", "lat": "35.4808967", "lng": "127.566233"}, {"statNm": "\uc9c0\ub9ac\uc0b0\ud734\uac8c\uc18c(\uc625\ud3ec\ubc29\ud5a5)", "addr": "\uc804\ub77c\ubd81\ub3c4 \ub0a8\uc6d0\uc2dc \uc544\uc601\uba74 88\uc62c\ub9bc\ud53d\uace0\uc18d\ub3c4\ub85c 76 (\uc544\uace1\ub9ac)", "lat": "35.4808967", "lng": "127.566233"}, {"statNm": "\uac15\ucc9c\uc0b0\ud734\uac8c\uc18c(\ub300\uad6c\ubc29\ud5a5)", "addr": "\uc804\ub77c\ubd81\ub3c4 \uc21c\ucc3d\uad70 \uc21c\ucc3d\uc74d 88\uc62c\ub9bc\ud53d\uace0\uc18d\ub3c4\ub85c 22 (\ubc31\uc0b0\ub9ac)", "lat": "35.364473", "lng": "127.1048023"}, {"statNm": "\uac15\ucc9c\uc0b0\ud734\uac8c\uc18c(\ub300\uad6c\ubc29\ud5a5)", "addr": "\uc804\ub77c\ubd81\ub3c4 \uc21c\ucc3d\uad70 \uc21c\ucc3d\uc74d 88\uc62c\ub9bc\ud53d\uace0\uc18d\ub3c4\ub85c 22 (\ubc31\uc0b0\ub9ac)", "lat": "35.364473", "lng": "127.1048023"}, {"statNm": "\uc9c4\uc548\ud734\uac8c\uc18c(\uc775\uc0b0\ubc29\ud5a5)", "addr": "\uc804\ub77c\ubd81\ub3c4 \uc9c4\uc548\uad70 \uc9c4\uc548\uc74d \uc775\uc0b0\uc7a5\uc218\uace0\uc18d\ub3c4\ub85c 41 (\ub2e8\uc591\ub9ac)", "lat": "35.7782697", "lng": "127.425744"}, {"statNm": "\uc9c4\uc548\ud734\uac8c\uc18c(\uc775\uc0b0\ubc29\ud5a5)", "addr": "\uc804\ub77c\ubd81\ub3c4 \uc9c4\uc548\uad70 \uc9c4\uc548\uc74d \uc775\uc0b0\uc7a5\uc218\uace0\uc18d\ub3c4\ub85c 41 (\ub2e8\uc591\ub9ac)", "lat": "35.7782697", "lng": "127.425744"}, {"statNm": "\uc9c4\uc548\ud734\uac8c\uc18c(\uc7a5\uc218\ubc29\ud5a5)", "addr": "\uc804\ub77c\ubd81\ub3c4 \uc9c4\uc548\uad70 \uc9c4\uc548\uc74d \uc775\uc0b0\uc7a5\uc218\uace0\uc18d\ub3c4\ub85c 42 (\ub2e8\uc591\ub9ac)", "lat": "35.774925", "lng": "127.4262837"}, {"statNm": "\uc9c4\uc548\ud734\uac8c\uc18c(\uc7a5\uc218\ubc29\ud5a5)", "addr": "\uc804\ub77c\ubd81\ub3c4 \uc9c4\uc548\uad70 \uc9c4\uc548\uc74d \uc775\uc0b0\uc7a5\uc218\uace0\uc18d\ub3c4\ub85c 42 (\ub2e8\uc591\ub9ac)", "lat": "35.774925", "lng": "127.4262837"}, {"statNm": "\ub86f\ub370\ub9c8\ud2b8 \uad70\uc0b0\uc810", "addr": "\uc804\ub77c\ubd81\ub3c4 \uad70\uc0b0\uc2dc \uc218\uc1a1\ub85c 185 (\uc218\uc1a1\ub3d9)", "lat": "35.9647788", "lng": "126.7163555"}, {"statNm": "\ub86f\ub370\ub9c8\ud2b8 \uad70\uc0b0\uc810", "addr": "\uc804\ub77c\ubd81\ub3c4 \uad70\uc0b0\uc2dc \uc218\uc1a1\ub85c 185 (\uc218\uc1a1\ub3d9)", "lat": "35.9647788", "lng": "126.7163555"}, {"statNm": "\ub86f\ub370\ub9c8\ud2b8 \uc775\uc0b0\uc810", "addr": "\uc804\ub77c\ubd81\ub3c4 \uc775\uc0b0\uc2dc \ubb34\uc655\ub85c 1053 (\uc601\ub4f1\ub3d9)", "lat": "35.9597398", "lng": "126.9741078"}, {"statNm": "\ub86f\ub370\ub9c8\ud2b8 \uc775\uc0b0\uc810", "addr": "\uc804\ub77c\ubd81\ub3c4 \uc775\uc0b0\uc2dc \ubb34\uc655\ub85c 1053 (\uc601\ub4f1\ub3d9)", "lat": "35.9597398", "lng": "126.9741078"}, {"statNm": "\ub86f\ub370\ub9c8\ud2b8 \uc775\uc0b0\uc810", "addr": "\uc804\ub77c\ubd81\ub3c4 \uc775\uc0b0\uc2dc \ubb34\uc655\ub85c 1053 (\uc601\ub4f1\ub3d9)", "lat": "35.9597398", "lng": "126.9741078"}, {"statNm": "\ubcc0\uc0b0\ubc18\ub3c4\uad6d\ub9bd\uacf5\uc6d0 \uaca9\ud3ec\uc8fc\ucc28\uc7a5", "addr": "\uc804\ub77c\ubd81\ub3c4 \ubd80\uc548\uad70 \ubcc0\uc0b0\uba74 \uaca9\ud3ec\ub9ac 283-1", "lat": "35.627881", "lng": "126.471165"}, {"statNm": "\ubcc0\uc0b0\ubc18\ub3c4\uad6d\ub9bd\uacf5\uc6d0 \uaca9\ud3ec\uc8fc\ucc28\uc7a5", "addr": "\uc804\ub77c\ubd81\ub3c4 \ubd80\uc548\uad70 \ubcc0\uc0b0\uba74 \uaca9\ud3ec\ub9ac 283-1", "lat": "35.627881", "lng": "126.471165"}, {"statNm": "\ubcc0\uc0b0\ubc18\ub3c4\uad6d\ub9bd\uacf5\uc6d0 \ub0b4\uc18c\uc8fc\ucc28\uc7a5", "addr": "\uc804\ub77c\ubd81\ub3c4 \ubd80\uc548\uad70 \uc9c4\uc11c\uba74 \uc11d\ud3ec\ub9ac 240", "lat": "35.610062", "lng": "126.588533"}, {"statNm": "\ubcc0\uc0b0\ubc18\ub3c4\uad6d\ub9bd\uacf5\uc6d0 \ub0b4\uc18c\uc8fc\ucc28\uc7a5", "addr": "\uc804\ub77c\ubd81\ub3c4 \ubd80\uc548\uad70 \uc9c4\uc11c\uba74 \uc11d\ud3ec\ub9ac 240", "lat": "35.610062", "lng": "126.588533"}, {"statNm": "\uc9c0\ub9ac\uc0b0\uad6d\ub9bd\uacf5\uc6d0 \ubd81\ubd80 \ubc18\uc120\uc8fc\ucc28\uc7a5", "addr": "\uc804\ub77c\ubd81\ub3c4 \ub0a8\uc6d0\uc2dc \uc0b0\ub0b4\uba74 \ubd80\uc6b4\ub9ac 216-10", "lat": "35.377231", "lng": "127.581692"}, {"statNm": "\uc9c0\ub9ac\uc0b0\uad6d\ub9bd\uacf5\uc6d0 \ubd81\ubd80 \ubc18\uc120\uc8fc\ucc28\uc7a5", "addr": "\uc804\ub77c\ubd81\ub3c4 \ub0a8\uc6d0\uc2dc \uc0b0\ub0b4\uba74 \ubd80\uc6b4\ub9ac 216-10", "lat": "35.377231", "lng": "127.581692"}, {"statNm": "\uc9c0\ub9ac\uc0b0\uad6d\ub9bd\uacf5\uc6d0 \ubc40\uc0ac\uace8\uc57c\uc601\uc7a5", "addr": "\uc804\ub77c\ubd81\ub3c4 \ub0a8\uc6d0\uc2dc \uc0b0\ub0b4\uba74 \ub355\ub3d9\ub9ac 406", "lat": "35.354821", "lng": "127.558283"}, {"statNm": "\uc9c0\ub9ac\uc0b0\uad6d\ub9bd\uacf5\uc6d0 \ubc40\uc0ac\uace8\uc57c\uc601\uc7a5", "addr": "\uc804\ub77c\ubd81\ub3c4 \ub0a8\uc6d0\uc2dc \uc0b0\ub0b4\uba74 \ub355\ub3d9\ub9ac 406", "lat": "35.354821", "lng": "127.558283"}, {"statNm": "\ub0b4\uc7a5\uc0b0\uad6d\ub9bd\uacf5\uc6d0 \ud0d0\ubc29\uc548\ub0b4\uc18c", "addr": "\uc804\ub77c\ubd81\ub3c4 \uc815\uc74d\uc2dc \ub0b4\uc7a5\ub3d9 673-1", "lat": "35.487895", "lng": "126.907447"}, {"statNm": "\ub0b4\uc7a5\uc0b0\uad6d\ub9bd\uacf5\uc6d0 1(\ub0b4\uc7a5)\uc8fc\ucc28\uc7a5", "addr": "\uc804\ub77c\ubd81\ub3c4 \uc815\uc74d\uc2dc \ub0b4\uc7a5\ub3d9 52", "lat": "35.49408", "lng": "126.925858"}, {"statNm": "\ub0b4\uc7a5\uc0b0\uad6d\ub9bd\uacf5\uc6d0 1(\ub0b4\uc7a5)\uc8fc\ucc28\uc7a5", "addr": "\uc804\ub77c\ubd81\ub3c4 \uc815\uc74d\uc2dc \ub0b4\uc7a5\ub3d9 52", "lat": "35.49408", "lng": "126.925858"}, {"statNm": "\ub0b4\uc7a5\uc0b0\uad6d\ub9bd\uacf5\uc6d0 \ub124\uc774\ucc98\uc13c\ud130", "addr": "\uc804\ub77c\ubd81\ub3c4 \uc815\uc74d\uc2dc \ub0b4\uc7a5\ub3d9 169-1", "lat": "35.508267", "lng": "126.906523"}, {"statNm": "\ub0b4\uc7a5\uc0b0\uad6d\ub9bd\uacf5\uc6d0 \ub124\uc774\ucc98\uc13c\ud130", "addr": "\uc804\ub77c\ubd81\ub3c4 \uc815\uc74d\uc2dc \ub0b4\uc7a5\ub3d9 169-1", "lat": "35.508267", "lng": "126.906523"}, {"statNm": "\ub355\uc720\uc0b0\uad6d\ub9bd\uacf5\uc6d0 \ub355\uc720\ub300\uc57c\uc601\uc7a5", "addr": "\uc804\ub77c\ubd81\ub3c4 \ubb34\uc8fc\uad70 \uc124\ucc9c\uba74 \uc0bc\uacf5\ub9ac 456-1\ubc88\uc9c0", "lat": "35.893725", "lng": "127.772644"}, {"statNm": "\ub355\uc720\uc0b0\uad6d\ub9bd\uacf5\uc6d0 \ub355\uc720\ub300\uc57c\uc601\uc7a5", "addr": "\uc804\ub77c\ubd81\ub3c4 \ubb34\uc8fc\uad70 \uc124\ucc9c\uba74 \uc0bc\uacf5\ub9ac 456-1\ubc88\uc9c0", "lat": "35.893725", "lng": "127.772644"}, {"statNm": "\ub355\uc720\uc0b0\uad6d\ub9bd\uacf5\uc6d0 \uad00\ub9ac\uc0ac\ubb34\uc18c \uc55e \uc8fc\ucc28\uc7a5", "addr": "\uc804\ub77c\ubd81\ub3c4 \ubb34\uc8fc\uad70 \uc124\ucc9c\uba74 \uc0bc\uacf5\ub9ac 411", "lat": "35.901189", "lng": "127.775679"}, {"statNm": "\ub355\uc720\uc0b0\uad6d\ub9bd\uacf5\uc6d0 \uad00\ub9ac\uc0ac\ubb34\uc18c \uc55e \uc8fc\ucc28\uc7a5", "addr": "\uc804\ub77c\ubd81\ub3c4 \ubb34\uc8fc\uad70 \uc124\ucc9c\uba74 \uc0bc\uacf5\ub9ac 411", "lat": "35.901189", "lng": "127.775679"}, {"statNm": "SK \uc81c\uc77c\uc8fc\uc720\uc18c", "addr": "\uc804\ub77c\ubd81\ub3c4 \ub0a8\uc6d0\uc2dc \uc8fc\uc0dd\uba74 \uc81c\ucc9c\ub9ac 245", "lat": "35.372288", "lng": "127.312663"}, {"statNm": "\ub0a8\uc6d0\uc0c8\ub9c8\uc744\uae08\uace0\uc8fc\uc720\uc18c", "addr": "\uc804\ub77c\ubd81\ub3c4 \ub0a8\uc6d0\uc2dc \uae08\ub3d9 437-6", "lat": "35.406314", "lng": "127.372393"}, {"statNm": "\ub0a8\uc6d0\uc0c8\ub9c8\uc744\uae08\uace0\uc8fc\uc720\uc18c", "addr": "\uc804\ub77c\ubd81\ub3c4 \ub0a8\uc6d0\uc2dc \uae08\ub3d9 437-6", "lat": "35.406314", "lng": "127.372393"}, {"statNm": "SK \uc6b4\ubd09\uc8fc\uc720\uc18c", "addr": "\uc804\ub77c\ubd81\ub3c4 \ub0a8\uc6d0\uc2dc \uc6b4\ubd09\uc74d \ud669\uc0b0\ub85c1026", "lat": "35.437148", "lng": "127.524895"}, {"statNm": "SK \uc11c\uc6b8\uc8fc\uc720\uc18c", "addr": "\uc804\ub77c\ubd81\ub3c4 \uad70\uc0b0\uc2dc \uc11c\uc218\uba74 \ub3d9\uad70\uc0b0\ub85c 984", "lat": "36.003038", "lng": "126.869701"}, {"statNm": "\uc2a4\ud30c\ub77c\ucfe0\uc544", "addr": "\uc804\ub77c\ubd81\ub3c4 \uc804\uc8fc\uc2dc \uc644\uc0b0\uad6c \uc2e0\ucd0c3\uae3824\ubc88\uc9c0", "lat": "35.817418", "lng": "127.115631"}, {"statNm": "\ub86f\ub370\ub9c8\ud2b8 \ub0a8\uc6d0\uc810", "addr": "\uc804\ub77c\ubd81\ub3c4 \ub0a8\uc6d0\uc2dc \ud5a5\uad50\ub3d9 \ucd98\ud5a5\ub85c 96 (\ud5a5\uad50\ub3d9)", "lat": "35.423317", "lng": "127.39247"}, {"statNm": "\uc774\ub9c8\ud2b8 \uc804\uc8fc\uc810", "addr": "\uc804\ub77c\ubd81\ub3c4 \uc804\uc8fc\uc2dc \uc644\uc0b0\uad6c \ub2f9\uc0b0\ub85c 111", "lat": "35.83286374", "lng": "127.12089862"}, {"statNm": "\uc804\uc8fc\ub355\uc9c4\uacf5\uc6d0 \uc8fc\ucc28\uc7a5", "addr": "\uc804\ub77c\ubd81\ub3c4 \uc804\uc8fc\uc2dc \ub355\uc9c4\uad6c \ub355\uc9c4\ub3d9 2\uac00 179-6", "lat": "35.8481760", "lng": "127.1204980"}, {"statNm": "\uc608\uc220\uc758 \uc804\ub2f9", "addr": "\uc804\ub77c\ubd81\ub3c4 \uad70\uc0b0\uc2dc \uc9c0\uace1\ub3d9 286-8", "lat": "35.9607154", "lng": "126.7090665"}, {"statNm": "\uae08\uac15\ucca0\uc0c8\uc870\ub9dd\ub300", "addr": "\uc804\ub77c\ubd81\ub3c4 \uad70\uc0b0\uc2dc \uc131\uc0b0\uba74 \uc131\ub355\ub9ac", "lat": "36.0197065", "lng": "126.7635205"}, {"statNm": "\uc5ec\uc0b0\ud734\uac8c\uc18c(\uc21c\ucc9c\ubc29\ud5a5)", "addr": "\uc804\ub77c\ubd81\ub3c4 \uc775\uc0b0\uc2dc \uc5ec\uc0b0\uba74 \ud638\uc0b0\ub9ac \uc0b032-6", "lat": "36.0479377", "lng": "127.1026013"}, {"statNm": "\ud568\uc5f4\uc62c\ub9bc\ud53d \uc2a4\ud3ec\uce20\uc13c\ud130", "addr": "\uc804\ub77c\ubd81\ub3c4 \uc775\uc0b0\uc2dc \ud568\uc5f4\uc74d \uc640\ub9ac164", "lat": "36.0741298", "lng": "126.963993"}, {"statNm": "\uc815\uc74d\ub179\ub450\uc7a5\uad70\ud734\uac8c\uc18c(\ub17c\uc0b0\ubc29\ud5a5)", "addr": "\uc804\ub77c\ubd81\ub3c4 \uc815\uc74d\uc2dc \ubd81\uba74 \ub0a8\uc0b0\ub9ac", "lat": "35.6006769", "lng": "126.8644591"}, {"statNm": "\uc815\uc74d\ub179\ub450\uc7a5\uad70\ud734\uac8c\uc18c(\uc21c\ucc9c\ubc29\ud5a5)", "addr": "\uc804\ub77c\ubd81\ub3c4 \uc815\uc74d\uc2dc \ubd81\uba74 \uc815\uc2e0\ub85c 135-61", "lat": "35.6016871", "lng": "126.8624805"}, {"statNm": "\uc9c0\ub9ac\uc0b0\ud734\uac8c\uc18c(\uc625\ud3ec\ubc29\ud5a5)", "addr": "\uc804\ub77c\ubd81\ub3c4 \ub0a8\uc6d0\uc2dc \uc544\uc601\uba74 \uc544\uace1\ub9ac", "lat": "35.4808967", "lng": "127.566233"}, {"statNm": "\uc9c0\ub9ac\uc0b0\ud734\uac8c\uc18c(\uace0\uc11c\ubc29\ud5a5)", "addr": "\uc804\ub77c\ubd81\ub3c4 \ub0a8\uc6d0\uc2dc \uc544\uc601\uba74 \uc544\uace1\ub9ac", "lat": "35.4837213", "lng": "127.5665699"}, {"statNm": "\uadfc\ub85c\uc790\uc885\ud569\ubcf5\uc9c0\uad00", "addr": "\uc804\ub77c\ubd81\ub3c4 \uc644\uc8fc\uad70 \ubd09\ub3d9\uc74d \ub454\uc0b0\ub9ac 881", "lat": "35.9628434", "lng": "127.1270991"}, {"statNm": "\uc9c4\uc548\uad70\uccad", "addr": "\uc804\ub77c\ubd81\ub3c4 \uc9c4\uc548\uad70 \uc9c4\uc548\uc74d \uc911\uc559\ub85c 67", "lat": "35.7918402", "lng": "127.4245086"}, {"statNm": "\ub355\uc720\uc0b0\ud734\uac8c\uc18c(\ud558\ub0a8\ubc29\ud5a5)", "addr": "\uc804\ub77c\ubd81\ub3c4 \ubb34\uc8fc\uad70 \uc548\uc131\uba74 \ud1b5\uc601\ub300\uc804\uace0\uc18d\ub3c4\ub85c 148", "lat": "35.8171253", "lng": "127.6457339"}, {"statNm": "\ubb34\uc8fc\uc74d\uc8fc\ubbfc\uc790\uce58\uc13c\ud130", "addr": "\uc804\ub77c\ubd81\ub3c4 \ubb34\uc8fc\uad70 \ubb34\uc8fc\uc74d \ud5a5\ud559\ub85c 49", "lat": "36.0088603", "lng": "127.6619473"},