[{"statNm": "\uc5d8\ud0c0\uc6cc \uad70\uc0b0", "statId": "BNIE2301", "addr": "\uc804\ub77c\ubd81\ub3c4 \uad70\uc0b0\uc2dc \ubd80\uace11\uae38 52", "lat": "35.960831703", "lng": "126.69117558"}, {"statNm": "\ub77c\uc628\ud638\ud154", "statId": "CSRO0001", "addr": "\uc804\ub77c\ubd81\ub3c4 \uad70\uc0b0\uc2dc \uac00\ub3c4\uc5481\uae38 47", "lat": "35.94654", "lng": "126.562138"}, {"statNm": "\ub86f\ub370\ub9ac\uc544 \uc0b0\ubd81\uc810", "statId": "CV000000", "addr": "\uc804\ub77c\ubd81\ub3c4 \uad70\uc0b0\uc2dc \uacf5\ub2e8\ub300\ub85c 566", "lat": "35.970392", "lng": "126.684262"}, {"statNm": "\uc775\uc0b0\uc2dc\uccad", "statId": "IK180801", "addr": "\uc804\ub77c\ubd81\ub3c4 \uc775\uc0b0\uc2dc \uc778\ubd81\ub85c 32\uae38 1", "lat": "35.94825", "lng": "126.957924"}, {"statNm": "\uc218\uc9c8\ubcf5\uc6d0\uc13c\ud130 \uc55e \uacf5\uc6d0\uc8fc\ucc28\uc7a5", "statId": "JJ180801", "addr": "\uc804\ub77c\ubd81\ub3c4 \uc804\uc8fc\uc2dc \ub355\uc9c4\uad6c \uc911\ub3d9\ub85c 150", "lat": "35.83294", "lng": "127.062113"}, {"statNm": "\uc2dc\uae30\uacf5\uc601\uc8fc\ucc28\uc7a5", "statId": "JU000001", "addr": "\uc804\ub77c\ubd81\ub3c4 \uc815\uc74d\uc2dc \uc2dc\uae30\ub3d9", "lat": "35.56565", "lng": "126.855950"}, {"statNm": "LGL \uc804\uc8fc\uc9d1\ubc30\uc13c\ud130", "statId": "LDK00001", "addr": "\uc804\ub77c\ubd81\ub3c4 \uc644\uc8fc\uad70 \ubd09\ub3d9\uc74d \uc644\uc8fc\uc0b0\ub2e87\ub85c 55", "lat": "35.956345595", "lng": "127.12384726"}, {"statNm": "\uc120\uc6b4\ud504\ub77c\uc790", "statId": "TDK00001", "addr": "\uc804\ub77c\ubd81\ub3c4 \uace0\ucc3d\uad70 \uace0\ucc3d\uc74d \ubcf4\ub9bf\uace8\ub85c 191", "lat": "35.4423976", "lng": "126.6950412"}]