[{"statNm": "\uacbd\ub0a8\ub3c4\uccad \uc5b4\ub9b0\uc774\uc9d1 \uc8fc\ucc28\uc7a5", "statId": "BNFA0102", "addr": "\uacbd\uc0c1\ub0a8\ub3c4 \ucc3d\uc6d0\uc2dc \uc758\ucc3d\uad6c \uc911\uc559\ub300\ub85c 300", "lat": "35.237985", "lng": "128.695435"}, {"statNm": "\ud604\ub300\uc790\ub3d9\ucc28 \uc11c\uae40\ud574\uc11c\ube44\uc2a4", "statId": "CVHYSK00", "addr": "\uacbd\uc0c1\ub0a8\ub3c4 \uae40\ud574\uc2dc \uc8fc\ucd0c\uba74 \uc11c\ubd80\ub85c 1474-11", "lat": "35.229205", "lng": "128.820029"}, {"statNm": "\uc591\uc0b0 \uc528\uc2a4\ud0c0\ubaa8\ud154", "statId": "EN000001", "addr": "\uacbd\uc0c1\ub0a8\ub3c4 \uc591\uc0b0\uc2dc \uc6a9\ub2f9\ub0b4\uad11\ub85c 90", "lat": "35.4251499", "lng": "129.1935388"}, {"statNm": "\uce98\ub9ac\ud3ec\ub2c8\uc544\ud638\ud154\ud1b5\uc601", "statId": "JE200004", "addr": "\uacbd\uc0c1\ub0a8\ub3c4 \ud1b5\uc601\uc2dc \ud1b5\uc601\ud574\uc548\ub85c 235", "lat": "34.840373", "lng": "128.421828"}, {"statNm": "\uae40\ud574\uc2dc \ucc28\ub7c9\ub4f1\ub85d\uc0ac\uc5c5\uc18c", "statId": "KH180901", "addr": "\uacbd\uc0c1\ub0a8\ub3c4 \uae40\ud574\uc2dc \ubd80\uc6d0\ub3d9 553-1", "lat": "35.2264", "lng": "128.8900"}, {"statNm": "LGL \uc9c4\uc8fc\uc9d1\ubc30\uc13c\ud130", "statId": "LDM00001", "addr": "\uacbd\uc0c1\ub0a8\ub3c4 \uc9c4\uc8fc\uc2dc \ub0b4\ub3d9\uba74 \ub0b4\ucd95\ub85c 447", "lat": "35.126263727", "lng": "128.02978142"}, {"statNm": "\ub0a8\ud574 \uc544\ub9ac\uc544\ud39c\uc158", "statId": "PC000004", "addr": "\uacbd\uc0c1\ub0a8\ub3c4 \ub0a8\ud574\uad70 \uc0bc\ub3d9\uba74 \ub3d9\ubd80\ub300\ub85c1122\ubc88\uae38 132-32", "lat": "34.80251474", "lng": "128.050374"}, {"statNm": "\ud574\uc6b4\uc8fc\uc720\uc18c", "statId": "SK517460", "addr": "\uacbd\uc0c1\ub0a8\ub3c4 \ucc3d\uc6d0\uc2dc \ub9c8\uc0b0\ud569\ud3ec\uad6c \ud574\uc548\ub300\ub85c 42", "lat": "35.180791", "lng": "128.563339"}, {"statNm": "\uc6d0\uc77c\uc774\ud14d\uc8fc\uc2dd\ud68c\uc0ac", "statId": "TDM00001", "addr": "\uacbd\uc0c1\ub0a8\ub3c4 \ud568\uc548\uad70 \ubc95\uc218\uba74 \uc7a5\ubc31\ub85c 596", "lat": "35.3154939", "lng": "128.3313861"}]