[{"statNm": "\ub86f\ub370\ub9c8\ud2b8 \uc0bc\uacc4\uc810", "addr": "\uacbd\uc0c1\ub0a8\ub3c4 \ucc3d\uc6d0\uc2dc \ub9c8\uc0b0\ud68c\uc6d0\uad6c \ub0b4\uc11c\uc74d \uacbd\ub0a8\ub300\ub85c 927", "lat": "35.233023", "lng": "128.504094"}, {"statNm": "\ud648\ud50c\ub7ec\uc2a4 \ub9c8\uc0b0\uc810", "addr": "\uacbd\uc0c1\ub0a8\ub3c4 \ucc3d\uc6d0\uc2dc \ub9c8\uc0b0\ud68c\uc6d0\uad6c \uc0bc\ud638\ub85c 56", "lat": "35.222610", "lng": "128.585767"}, {"statNm": "\uc9c4\uc8fc\uc2dc\uccad", "addr": "\uacbd\uc0c1\ub0a8\ub3c4 \uc9c4\uc8fc\uc2dc \ub3d9\uc9c4\ub85c 155", "lat": "35.180378", "lng": "128.108884"}, {"statNm": "\uacbd\uc0c1\ub0a8\ub3c4 \uc11c\ubd80\uccad\uc0ac", "addr": "\uacbd\uc0c1\ub0a8\ub3c4 \uc9c4\uc8fc\uc2dc \uc6d4\uc544\uc0b0\ub85c 2026", "lat": "35.2129639", "lng": "128.1233299"}, {"statNm": "\uc9c4\ud574\ud574\uc591\uacf5\uc6d0", "addr": "\uacbd\uc0c1\ub0a8\ub3c4 \ucc3d\uc6d0\uc2dc \uc9c4\ud574\uad6c \uba85\ub3d9\ub85c 62", "lat": "35.092286", "lng": "128.719427"}, {"statNm": "\uc2e0\uc138\uacc4\uc885\ud569\uc815\ube44", "addr": "\uacbd\uc0c1\ub0a8\ub3c4 \ud1b5\uc601\uc2dc \uad11\ub3c4\uba74 \uc8fd\ub9bc\ub9ac 292-33", "lat": "34.8789124", "lng": "128.4133694"}, {"statNm": "\uae40\ud574\uc2dc \uc7a5\uc720\ucd9c\uc7a5\uc18c", "addr": "\uacbd\uc0c1\ub0a8\ub3c4 \uae40\ud574\uc2dc \ubd80\uace1\ub85c 57", "lat": "35.2090443", "lng": "128.798395"}, {"statNm": "\uc9c4\uc601\ubb38\ud654\uc13c\ud130", "addr": "\uacbd\uc0c1\ub0a8\ub3c4 \uae40\ud574\uc2dc \uc9c4\uc601\uc74d \uae40\ud574\ub300\ub85c 440", "lat": "35.3049134", "lng": "128.7374389"}, {"statNm": "\uac70\uc81c\ud734\uac8c\uc18c(\uac70\uc81c\ud574\uc591\ud30c\ud06c)", "addr": "\uacbd\uc0c1\ub0a8\ub3c4 \uac70\uc81c\uc2dc \uac70\uc81c\ub300\ub85c 1068", "lat": "34.9723153", "lng": "128.6938807"}, {"statNm": "\uace0\uc131\ud734\uac8c\uc18c(\ud558\ub0a8\ubc29\ud5a5)", "addr": "\uacbd\uc0c1\ub0a8\ub3c4 \uace0\uc131\uad70 \ub300\uac00\uba74 \ud1b5\uc601\ub300\uc804\uace0\uc18d\ub3c4\ub85c 32", "lat": "35.0571523", "lng": "128.2511447"}, {"statNm": "\uace0\uc131\ud734\uac8c\uc18c(\ud1b5\uc601\ubc29\ud5a5)", "addr": "\uacbd\uc0c1\ub0a8\ub3c4 \uace0\uc131\uad70 \ub300\uac00\uba74 \ud1b5\uc601\ub300\uc804\uace0\uc18d\ub3c4\ub85c 29", "lat": "35.0516247", "lng": "128.2638664"}, {"statNm": "\uc774\uc21c\uc2e0\uc21c\uad6d\uacf5\uc6d0", "addr": "\uacbd\uc0c1\ub0a8\ub3c4 \ub0a8\ud574\uad70 \uace0\ud604\uba74 \ucc28\uba74\ub9ac", "lat": "34.9105664", "lng": "127.8587754"}, {"statNm": "\ud558\ub3d9\uad70\uccad", "addr": "\uacbd\uc0c1\ub0a8\ub3c4 \ud558\ub3d9\uad70 \ud558\ub3d9\uc74d \uad70\uccad\ub85c 23", "lat": "35.0673835", "lng": "127.7511601"}, {"statNm": "\uc11d\ud48d\ud734\uac8c\uc18c", "addr": "\uacbd\uc0c1\ub0a8\ub3c4 \uc0b0\uccad\uad70 \uc2e0\uc548\uba74 \uc0b0\uccad\ub300\ub85c 1169", "lat": "35.3629543", "lng": "127.9186023"}, {"statNm": "\ud568\uc591\ud734\uac8c\uc18c(\ud558\ub0a8\ubc29\ud5a5)", "addr": "\uacbd\uc0c1\ub0a8\ub3c4 \ud568\uc591\uad70 \uc9c0\uace1\uba74 \ubcf4\uc0b0\ub9ac", "lat": "35.5518867", "lng": "127.7599314"}, {"statNm": "\uc870\ub9dd\uacf5\uc6d0", "addr": "\uacbd\uc0c1\ub0a8\ub3c4 \ud568\uc591\uad70 \ud568\uc591\uc74d \uace0\uc6b4\ub85c 161-51", "lat": "35.5244553", "lng": "127.7438188"}, {"statNm": "\uac70\ucc3d\ud734\uac8c\uc18c(\uc625\ud3ec\ubc29\ud5a5)", "addr": "\uacbd\uc0c1\ub0a8\ub3c4 \uac70\ucc3d\uad70 \uac00\uc870\uba74 \ub3c4\ub9ac", "lat": "35.7057972", "lng": "128.0569946"}, {"statNm": "\uac70\ucc3d\ud734\uac8c\uc18c(\uace0\uc11c\ubc29\ud5a5)", "addr": "\uacbd\uc0c1\ub0a8\ub3c4 \uac70\ucc3d\uad70 \uac00\uc870\uba74 \ub3c4\ub9ac \uc0b0189-1", "lat": "35.7085155", "lng": "128.0574192"}, {"statNm": "\uac70\ucc3d\uad70\uccad", "addr": "\uacbd\uc0c1\ub0a8\ub3c4 \uac70\ucc3d\uad70 \uac70\ucc3d\uc74d \uc911\uc559\ub85c 103", "lat": "35.6869125", "lng": "127.9092271"}, {"statNm": "\ud569\ucc9c\uad70\uccad", "addr": "\uacbd\uc0c1\ub0a8\ub3c4 \ud569\ucc9c\uad70 \ud569\ucc9c\uc74d \ub3d9\uc11c\ub85c 119", "lat": "35.5666565", "lng": "128.1667084"}, {"statNm": "\ud1b5\ub3c4\uc0ac\ud734\uac8c\uc18c(\ubd80\uc0b0\ubc29\ud5a5)", "addr": "\uacbd\uc0c1\ub0a8\ub3c4 \uc591\uc0b0\uc2dc \ud558\ubd81\uba74 \uacbd\ubd80\uace0\uc18d\ub3c4\ub85c 31-1 (\uc21c\uc9c0\ub9ac)", "lat": "35.4885288", "lng": "129.0914428"}, {"statNm": "\uace0\uc131\ud734\uac8c\uc18c(\ud1b5\uc601\ubc29\ud5a5)", "addr": "\uacbd\uc0c1\ub0a8\ub3c4 \uace0\uc131\uad70 \ub300\uac00\uba74 \ud1b5\uc601\ub300\uc804\uace0\uc18d\ub3c4\ub85c 29 (\uc1a1\uacc4\ub9ac)", "lat": "35.0515247", "lng": "128.2640664"}, {"statNm": "\uace0\uc131\ud734\uac8c\uc18c(\ud558\ub0a8\ubc29\ud5a5)", "addr": "\uacbd\uc0c1\ub0a8\ub3c4 \uace0\uc131\uad70 \ub300\uac00\uba74 \ud1b5\uc601\ub300\uc804\uace0\uc18d\ub3c4\ub85c 32 (\uc2e0\uc804\ub9ac)", "lat": "35.0570523", "lng": "128.2513447"}, {"statNm": "\uc0b0\uccad\ud734\uac8c\uc18c(\ud1b5\uc601\ubc29\ud5a5)", "addr": "\uacbd\uc0c1\ub0a8\ub3c4 \uc0b0\uccad\uad70 \ub2e8\uc131\uba74 \ud1b5\uc601\ub300\uc804\uace0\uc18d\ub3c4\ub85c 77 (\ubc29\ubaa9\ub9ac)", "lat": "35.3333219", "lng": "127.9375368"}, {"statNm": "\uc0b0\uccad\ud734\uac8c\uc18c(\ud558\ub0a8\ubc29\ud5a5)", "addr": "\uacbd\uc0c1\ub0a8\ub3c4 \uc0b0\uccad\uad70 \ub2e8\uc131\uba74 \ud1b5\uc601\ub300\uc804\uace0\uc18d\ub3c4\ub85c 76 (\ubc29\ubaa9\ub9ac)", "lat": "35.3340661", "lng": "127.9386829"}, {"statNm": "\ud568\uc591\ud734\uac8c\uc18c(\ud1b5\uc601\ubc29\ud5a5)", "addr": "\uacbd\uc0c1\ub0a8\ub3c4 \ud568\uc591\uad70 \uc9c0\uace1\uba74 \ud6a8\uc0b0\uae38 23-31 (\ubcf4\uc0b0\ub9ac)", "lat": "35.5510049", "lng": "127.7588744"}, {"statNm": "\ud568\uc591\ud734\uac8c\uc18c(\ud558\ub0a8\ubc29\ud5a5)", "addr": "\uacbd\uc0c1\ub0a8\ub3c4 \ud568\uc591\uad70 \uc9c0\uace1\uba74 \ud6a8\uc0b0\uae38 23-11 (\ubcf4\uc0b0\ub9ac)", "lat": "35.5517867", "lng": "127.7601314"}, {"statNm": "\uc601\uc0b0\ud734\uac8c\uc18c(\ub9c8\uc0b0\ubc29\ud5a5)", "addr": "\uacbd\uc0c1\ub0a8\ub3c4 \ucc3d\ub155\uad70 \uc601\uc0b0\uba74 \uc7a5\ucc99\ud638\uc218\uae38 56-110 (\uc2e0\uc81c\ub9ac)", "lat": "35.4295445", "lng": "128.4963675"}, {"statNm": "\uce60\uc11c\ud734\uac8c\uc18c(\uc591\ud3c9\ubc29\ud5a5)", "addr": "\uacbd\uc0c1\ub0a8\ub3c4 \ud568\uc548\uad70 \uce60\uc11c\uba74 \uacc4\ub8e1\ub85c 122-1 (\uacc4\ub0b4\ub9ac)", "lat": "35.3704567", "lng": "128.4967833"}, {"statNm": "\uc0ac\ucc9c\ud734\uac8c\uc18c(\ubd80\uc0b0\ubc29\ud5a5)", "addr": "\uacbd\uc0c1\ub0a8\ub3c4 \uc0ac\ucc9c\uc2dc \uace4\uc591\uba74 \uc11c\uc0bc\ub85c 619 (\ubb35\uace1\ub9ac)", "lat": "35.0732831", "lng": "128.0110198"}, {"statNm": "\uc0ac\ucc9c\ud734\uac8c\uc18c(\uc21c\ucc9c\ubc29\ud5a5)", "addr": "\uacbd\uc0c1\ub0a8\ub3c4 \uc0ac\ucc9c\uc2dc \uace4\uc591\uba74 \ubb35\uc2e4\uae38 31-11 (\ubb35\uace1\ub9ac)", "lat": "35.0748033", "lng": "128.0134007"}, {"statNm": "\ud568\uc548\ud734\uac8c\uc18c(\ubd80\uc0b0\ubc29\ud5a5)", "addr": "\uacbd\uc0c1\ub0a8\ub3c4 \ud568\uc548\uad70 \uad70\ubd81\uba74 \ud604\ud3ec\ub85c 205 (\uc720\ud604\ub9ac)", "lat": "35.2940514", "lng": "128.3473478"}, {"statNm": "\uac70\ucc3d\ud734\uac8c\uc18c(\uace0\uc11c\ubc29\ud5a5)", "addr": "\uacbd\uc0c1\ub0a8\ub3c4 \uac70\ucc3d\uad70 \uac00\uc870\uba74 \uac00\uc870\uac00\uc57c\ub85c 1523 (\ub3c4\ub9ac)", "lat": "35.7084155", "lng": "128.0576192"}, {"statNm": "\uac70\ucc3d\ud734\uac8c\uc18c(\uc625\ud3ec\ubc29\ud5a5)", "addr": "\uacbd\uc0c1\ub0a8\ub3c4 \uac70\ucc3d\uad70 \uac00\uc870\uba74 \uac00\uc870\uac00\uc57c\ub85c 1543-81 (\ub3c4\ub9ac)", "lat": "35.7056972", "lng": "128.0571946"}, {"statNm": "\uc7a5\uc720\ud734\uac8c\uc18c(\ubd80\uc0b0\ubc29\ud5a5)", "addr": "\uacbd\uc0c1\ub0a8\ub3c4 \uae40\ud574\uc2dc \uc7a5\uc720\ub85c116\ubc88\uae38 44-82 (\ubd80\uace1\ub3d9)", "lat": "35.2118159", "lng": "128.794438"}, {"statNm": "\ud55c\uad6d\ub3c4\ub85c\uacf5\uc0ac\ucc3d\uc6d0\uc9c0\uc0ac", "addr": "\uacbd\uc0c1\ub0a8\ub3c4 \ucc3d\uc6d0\uc2dc \uc758\ucc3d\uad6c \uc758\ucc3d\ub300\ub85c 1024", "lat": "35.2842423", "lng": "128.7006196"}, {"statNm": "\ub86f\ub370\ub9c8\ud2b8 \ub9c8\uc0b0\uc810", "addr": "\uacbd\uc0c1\ub0a8\ub3c4 \ucc3d\uc6d0\uc2dc \ub9c8\uc0b0\ud569\ud3ec\uad6c \uc2e0\ub9c8\uc0b0\uc2dc\uc7a5\uae38 33 (\ucc3d\ud3ec\ub3d93\uac00)", "lat": "35.1813836", "lng": "128.5606975"}, {"statNm": "\ub86f\ub370\ub9c8\ud2b8 \uc7a5\uc720\uc810", "addr": "\uacbd\uc0c1\ub0a8\ub3c4 \uae40\ud574\uc2dc \ubc88\ud6541\ub85c56\ubc88\uae38 15 \ub86f\ub370\ub9c8\ud2b8", "lat": "35.193012", "lng": "128.8013646"}, {"statNm": "\uc9c0\ub9ac\uc0b0\uad6d\ub9bd\uacf5\uc6d0 \uc911\uc0b0\ub9ac\uc8fc\ucc28\uc7a5", "addr": "\uacbd\uc0c1\ub0a8\ub3c4 \uc0b0\uccad\uad70 \uc2dc\ucc9c\uba74 \uc911\uc0b0\ub9ac 619-12", "lat": "35.304022", "lng": "127.74934"}, {"statNm": "\uc9c0\ub9ac\uc0b0\uad6d\ub9bd\uacf5\uc6d0 \uc30d\uacc4\uc0ac \uc8fc\ucc28\uc7a5", "addr": "\uacbd\uc0c1\ub0a8\ub3c4 \ud558\ub3d9\uad70 \ud654\uac1c\uba74 \uc6a9\uac15\ub9ac 400-5", "lat": "35.230286", "lng": "127.641776"}, {"statNm": "\ud55c\ub824\ud574\uc0c1\uad6d\ub9bd\uacf5\uc6d0\uc0ac\ubb34\uc18c \ub178\ub7c9\ubd84\uc18c", "addr": "\uacbd\uc0c1\ub0a8\ub3c4 \ub0a8\ud574\uad70 \uc124\ucc9c\uba74 \ub178\ub7c9\ub9ac 410-36", "lat": "34.939704", "lng": "127.875309"}, {"statNm": "\ud55c\ub824\ud574\uc0c1\uad6d\ub9bd\uacf5\uc6d0\uc0ac\ubb34\uc18c \uae08\uc0b0\ubd84\uc18c", "addr": "\uacbd\uc0c1\ub0a8\ub3c4 \ub0a8\ud574\uad70 \uc774\ub3d9\uba74 \ubcf4\ub9ac\uc554\ub85c 287", "lat": "34.773405", "lng": "127.987807"}, {"statNm": "\ub9cc\ud3ec\uc8fc\uc720\uc18c", "addr": "\uacbd\uc0c1\ub0a8\ub3c4 \ubc00\uc591\uc2dc \uc0bc\ub791\uc9c4\uc74d \uc0bc\ub791\uc9c4\ub85c 390", "lat": "35.39879", "lng": "128.819108"}, {"statNm": "\ud1b5\ub3c4\ud638\ud154", "addr": "\uacbd\uc0c1\ub0a8\ub3c4 \uc591\uc0b0\uc2dc \uc2e0\ud3c9\uac15\ubcc08\uae38 11", "lat": "35.493286", "lng": "129.083243"}, {"statNm": "\ud3ec\uc720\uc8fc\uc720\uc18c", "addr": "\uacbd\uc0c1\ub0a8\ub3c4 \uc591\uc0b0\uc2dc \uc5b4\uace1\ud130\ub110\ub85c40", "lat": "35.375148", "lng": "129.031419"}, {"statNm": "S-oil \ubb3c\uae08\uc8fc\uc720\uc18c", "addr": "\uacbd\uc0c1\ub0a8\ub3c4 \uc591\uc0b0\uc2dc \ubb3c\uae08\uc74d \ud669\uc0b0\ub85c501", "lat": "35.31907", "lng": "128.994332"}, {"statNm": "\uc911\uc559\uc8fc\uc720\uc18c", "addr": "\uacbd\uc0c1\ub0a8\ub3c4 \uc758\ub839\uad70 \uc758\ub839\uc74d \ubc31\uc0b0\ub85c4", "lat": "35.320263", "lng": "128.2645"}, {"statNm": "\ub9c8\uc0b0\uc758\ub8cc\uc6d0", "addr": "\uacbd\uc0c1\ub0a8\ub3c4 \ucc3d\uc6d0\uc2dc \uc7a5\uad70\ub3d94\uac00 3-6", "lat": "35.199462", "lng": "128.565332"}, {"statNm": "\ub0a8\uad11\uc11d\uc720\ud310\ub9e4", "addr": "\uacbd\uc0c1\ub0a8\ub3c4 \ucc3d\uc6d0\uc2dc \uc758\ucc3d\uad6c \ucc3d\uc6d0\ub300\ub85c314", "lat": "35.238045", "lng": "128.633719"}, {"statNm": "\uc911\uc559\ubaa8\ud130\uc2a4", "addr": "\uacbd\uc0c1\ub0a8\ub3c4 \ucc3d\uc6d0\uc2dc \uc758\ucc3d\uad6c \uc18c\uacc4\ub85c 33", "lat": "35.25481", "lng": "128.603051"}, {"statNm": "\ud569\ucc9c\uad00\uad11\ud734\uac8c\uc18c", "addr": "\uacbd\uc0c1\ub0a8\ub3c4 \ud569\ucc9c\uad70 \uc30d\ubc31\uba74 \uc30d\ubc31\uc911\uc559\ub85c162-8", "lat": "35.449674", "lng": "128.14454"}, {"statNm": "\ub86f\ub370\ub9c8\ud2b8 \uac70\uc81c\uc810", "addr": "\uacbd\uc0c1\ub0a8\ub3c4 \uac70\uc81c\uc2dc \uc11c\uac04\ub3c4\uae38 9-9 (\uc625\ud3ec\ub3d9)", "lat": "34.888448", "lng": "128.691064"}, {"statNm": "\ub86f\ub370\ub9c8\ud2b8 \uc2dc\ud2f0\uc138\ube10\uc810", "addr": "\uacbd\uc0c1\ub0a8\ub3c4 \ucc3d\uc6d0\uc2dc \uc758\ucc3d\uad6c \uc6d0\uc774\ub300\ub85c 320 (\ub450\ub300\ub3d9)", "lat": "35.240183", "lng": "128.653229"}, {"statNm": "\ub86f\ub370\ub9c8\ud2b8 \uae40\ud574\uc810", "addr": "\uacbd\uc0c1\ub0a8\ub3c4 \uae40\ud574\uc2dc \uae40\ud574\ub300\ub85c 2330 (\ubd80\uc6d0\ub3d9)", "lat": "35.225619", "lng": "128.881964"}, {"statNm": "\ub86f\ub370\ub9c8\ud2b8 \uc591\ub355\uc810", "addr": "\uacbd\uc0c1\ub0a8\ub3c4 \ucc3d\uc6d0\uc2dc \ub9c8\uc0b0\ud68c\uc6d0\uad6c \uc0bc\ud638\ub85c 80 (\uc591\ub355\ub3d9)", "lat": "35.223311", "lng": "128.585287"}, {"statNm": "\uc0ac\ucc9c\ub9cc\ub0a8\uc758 \uad11\uc7a5", "addr": "\uacbd\uc0c1\ub0a8\ub3c4 \uc0ac\ucc9c\uc2dc \ucd95\ub3d9\uba74 \uc11c\uc0bc\ub85c 1742", "lat": "35.1090735", "lng": "128.085891"}, {"statNm": "\uc591\uc0b0\uad6d\ubbfc\uccb4\uc721\uc13c\ud130", "addr": "\uacbd\uc0c1\ub0a8\ub3c4 \uc591\uc0b0\uc2dc \ubb3c\uae08\uc74d \uac00\ucd0c\ub9ac 990, \uc548\ucabd \uc8fc\ucc28\uc7a5", "lat": "35.325638", "lng": "128.9951935"}, {"statNm": "\ub355\uacc4\ub3d9\uc8fc\ubbfc\uc13c\ud130", "addr": "\uacbd\uc0c1\ub0a8\ub3c4 \uc591\uc0b0\uc2dc \ub355\uacc4\ub3d9 1039-5", "lat": "35.3751747", "lng": "129.1497396"}, {"statNm": "\uc6c5\uc0c1\uccb4\uc721\uacf5\uc6d0", "addr": "\uacbd\uc0c1\ub0a8\ub3c4 \uc591\uc0b0\uc2dc \ud3c9\uc0b0\ub3d9 283, \ucd95\uad6c\uc7a5 \uc606", "lat": "35.3778178", "lng": "129.1434076"}, {"statNm": "\ud654\uc655\uc0b0 \uc790\uc5f0\ud734\uc591\ub9bc", "addr": "\uacbd\uc0c1\ub0a8\ub3c4 \ucc3d\ub155\uad70 \uace0\uc554\uba74 \uccad\uac04\uae38 128-126", "lat": "35.5462783", "lng": "128.5678712"}, {"statNm": "\uc0ac\ud30c\ub3d9 \ub178\uc678\uc8fc\ucc28\uc7a5", "addr": "\uacbd\uc0c1\ub0a8\ub3c4 \ucc3d\uc6d0\uc2dc \uc131\uc0b0\uad6c \uc0ac\ud30c\ub3d964-2", "lat": "35.2234373", "lng": "128.7020911"}, {"statNm": "\ud48d\ud638\ub3d9\uacf5\uc601\uc8fc\ucc28\uc7a5(\ub178\uc678\uc8fc\ucc28\uc7a5)", "addr": "\uacbd\uc0c1\ub0a8\ub3c4 \ucc3d\uc6d0\uc2dc \uc9c4\ud574\uad6c \ud48d\ud638\ub3d9 305-21", "lat": "35.1327351", "lng": "128.7041533"}, {"statNm": "\ubd80\ub9bc\uacf5\uc124\uc6b4\ub3d9\uc7a5 \uc8fc\ucc28\uc7a5", "addr": "\uacbd\uc0c1\ub0a8\ub3c4 \uc758\ub839\uad70 \ubd80\ub9bc\uba74 \uac10\uc554\ub9ac 1254", "lat": "35.4714534", "lng": "128.3227612"}, {"statNm": "\ub86f\ub370\ub9c8\ud2b8 \uc6c5\uc0c1\uc810", "addr": "\uacbd\uc0c1\ub0a8\ub3c4 \uc591\uc0b0\uc2dc \uc0bc\ud6381\uae38 34, 4\uce35 \uc8fc\ucc28\uc7a5 02", "lat": "35.4125843", "lng": "129.1671829"}, {"statNm": "\ub86f\ub370\ub9c8\ud2b8 \uc9c4\uc8fc\uc810", "addr": "\uacbd\uc0c1\ub0a8\ub3c4 \uc9c4\uc8fc\uc2dc \ub3d9\uc9c4\ub85c 440, \uc9c0\ud5582\uce35 \uc8fc\ucc28\uc7a5 C6", "lat": "35.1800924", "lng": "128.139958"}, {"statNm": "\ub86f\ub370\ub9c8\ud2b8 \ud1b5\uc601\uc810", "addr": "\uacbd\uc0c1\ub0a8\ub3c4 \ud1b5\uc601\uc2dc \ubb34\uc804\ub300\ub85c 65, 4\uce35 \uc8fc\ucc28\uc7a5", "lat": "34.8603378", "lng": "128.4287301"}, {"statNm": "\uc0bc\ucc9c\ud3ec\uc885\ud569\uc815\ube44", "addr": "\uacbd\uc0c1\ub0a8\ub3c4 \uc0ac\ucc9c\uc2dc \uc0bc\ucc9c\ud3ec\ub300\uad50\ub85c 577", "lat": "34.9493441", "lng": "128.0777738"}, {"statNm": "\uc9c4\uc8fc\ud604\ub300\uc11c\ube44\uc2a4", "addr": "\uacbd\uc0c1\ub0a8\ub3c4 \uc9c4\uc8fc\uc2dc \ub0b4\ub3d9\uba74 \ub0b4\ub3d9\ub85c 110", "lat": "35.1551221", "lng": "128.079304"}, {"statNm": "\ube44\ud559\uc5d0\ub108\uc9c0", "addr": "\uacbd\uc0c1\ub0a8\ub3c4 \uc591\uc0b0\uc2dc \uc0c1\ubd81\uba74 \uc591\uc0b0\ub300\ub85c 1510", "lat": "35.402327", "lng": "129.0565632"}, {"statNm": "\uadfc\ub85c\uc790\ubcf5\uc9c0\uacf5\ub2e8\ucc3d\uc6d0\ubcd1\uc6d0", "addr": "\uacbd\uc0c1\ub0a8\ub3c4 \ucc3d\uc6d0\uc2dc \uc131\uc0b0\uad6c \ucc3d\uc6d0\ub300\ub85c 721, \uac74\ubb3c \uc6b0\uce21", "lat": "35.2187322", "lng": "128.6722464"}, {"statNm": "\uae08\ud638\ud1b5\uc601\ub9c8\ub9ac\ub098\ub9ac\uc870\ud2b8\uc8fc\ucc28\uc7a5", "addr": "\uacbd\uc0c1\ub0a8\ub3c4 \ud1b5\uc601\uc2dc \ud070\ubc1c\uac1c 1\uae38 33, \ub9c8\ub9ac\ub098\uc694\ud2b8\ud074\ub7fd \uc55e", "lat": "34.827381", "lng": "128.439006"}, {"statNm": "\uba85\ub3d9\ub178\uc678\uacf5\uc601\uc8fc\ucc28\uc7a5(\ub178\uc678\uc8fc\ucc28\uc7a5)", "addr": "\uacbd\uc0c1\ub0a8\ub3c4 \ucc3d\uc6d0\uc2dc \uc9c4\ud574\uad6c \uba85\ub3d9580, \uc88c\uce21 \uc8fc\ucc28\uc7a5", "lat": "35.1015619", "lng": "128.7173541"}, {"statNm": "\ubd81\uba74\uace8\ud504\uc5f0\uc2b5\uc7a5", "addr": "\uacbd\uc0c1\ub0a8\ub3c4 \ucc3d\uc6d0\uc2dc \uc758\ucc3d\uad6c \uc6d4\uacc4\ub9ac 162-4, \uace8\ud504\uc7a5 \ubc11 \uc8fc\ucc28\uc7a5", "lat": "35.356198", "lng": "128.6334696"}, {"statNm": "\ud638\uc554\uc774\ubcd1\ucca0\uc0dd\uac00 \uacf5\uc601\uc8fc\ucc28\uc7a5", "addr": "\uacbd\uc0c1\ub0a8\ub3c4 \uc758\ub839\uad70 \uc815\uace1\uba74 \uc911\uad50\ub9ac 487", "lat": "35.3805686", "lng": "128.3257161"}, {"statNm": "\ud568\uc548\uad70\uc885\ud569\uc0ac\ud68c\ubcf5\uc9c0\uad00", "addr": "\uacbd\uc0c1\ub0a8\ub3c4 \ud568\uc548\uad70 \uce60\uc6d0\uc74d \uc0bc\uce60\ub85c 155", "lat": "35.3093994", "lng": "128.5170739"}, {"statNm": "\uc591\uc0b0\uc2dc\uccad", "addr": "\uacbd\uc0c1\ub0a8\ub3c4 \uc591\uc0b0\uc2dc \ub0a8\ubd80\ub3d9 876-1, \uc591\uc0b0\ubb38\ud654\ud68c\uad00 \uac74\ub108\ud3b8 \uc8fc\ucc28\uc7a5", "lat": "35.3328921", "lng": "129.0361143"}, {"statNm": "\uc0c1\ubd81\uba74\uc0ac\ubb34\uc18c", "addr": "\uacbd\uc0c1\ub0a8\ub3c4 \uc591\uc0b0\uc2dc \uc0c1\ubd81\uba74 \uc11d\uacc4\ub9ac 272-20", "lat": "35.4182066", "lng": "129.0644296"}, {"statNm": "\ub3d9\uba74\uc0c1\ub3d9\uccb4\uc721\uacf5\uc6d0", "addr": "\uacbd\uc0c1\ub0a8\ub3c4 \uc591\uc0b0\uc2dc \ub3d9\uba74 \uc5ec\ub77d\ub9ac 301-1", "lat": "35.3063267", "lng": "129.0900302"}, {"statNm": "\ubc95\uae30\uc218\uc6d0\uc9c0", "addr": "\uacbd\uc0c1\ub0a8\ub3c4 \uc591\uc0b0\uc2dc \ub3d9\uba74 \ubc95\uae30\ub9ac 523-3", "lat": "35.3439657", "lng": "129.1151315"}, {"statNm": "\uae40\ud574\ud734\uac8c\uc18c \uae30\uc7a5\ubc29\ud5a5", "addr": "\uacbd\uc0c1\ub0a8\ub3c4 \uae40\ud574\uc2dc \ub300\ub3d9\uba74 \uc6d4\ucd0c\ub9ac 770", "lat": "35.2689882", "lng": "129.0028827"}, {"statNm": "\uc591\uc0b0\ub514\uc790\uc778\uacf5\uc6d0", "addr": "\uacbd\uc0c1\ub0a8\ub3c4 \uc591\uc0b0\uc2dc \ubc31\ud638\ub85c23, \ucd95\uad6c\uc7a5 \uc606", "lat": "35.3209906", "lng": "128.9998986"}, {"statNm": "\uc9c4\uc8fc\ud734\uac8c\uc18c(\ubd80\uc0b0\ubc29\ud5a5)", "addr": "\uacbd\uc0c1\ub0a8\ub3c4 \uc9c4\uc8fc\uc2dc \ub0a8\ud574\uace0\uc18d\ub3c4\ub85c 194", "lat": "35.1596748", "lng": "128.1225553"}, {"statNm": "\uac70\uc81c\uc2dc\uccad", "addr": "\uacbd\uc0c1\ub0a8\ub3c4 \uac70\uc81c\uc2dc \uacc4\ub8e1\ub85c 125", "lat": "34.880628", "lng": "128.622013"}, {"statNm": "\uae40\ud574\uc2dc \ucc28\ub7c9\ub4f1\ub85d\uc0ac\uc5c5\uc18c", "addr": "\uacbd\uc0c1\ub0a8\ub3c4 \uae40\ud574\uc2dc \uae40\ud574\ub300\ub85c 2401", "lat": "35.2261", "lng": "128.8904"}, {"statNm": "\ubc00\uc591\uacf5\uc124\uc6b4\ub3d9\uc7a5", "addr": "\uacbd\uc0c1\ub0a8\ub3c4 \ubc00\uc591\uc2dc \ubc00\uc591\ub300\ub85c 2057-21", "lat": "35.504852", "lng": "128.747453"}, {"statNm": "\ubaa9\ud654\ud734\uac8c\uc18c", "addr": "\uacbd\uc0c1\ub0a8\ub3c4 \uc0ac\ucc9c\uc2dc \uc6a9\ud604\uba74 \uc0ac\ucc9c\ub300\ub85c 912", "lat": "35.001863", "lng": "128.054131"}, {"statNm": "\uc758\ub839\uad70\uc885\ud569\uc0ac\ud68c\ubcf5\uc9c0\uad00", "addr": "\uacbd\uc0c1\ub0a8\ub3c4 \uc758\ub839\uad70 \uc758\ub839\uc74d \uc758\ubcd1\ub85c8\uae38 44", "lat": "35.316636", "lng": "128.256632"}, {"statNm": "\ubb38\uc0b0\ud734\uac8c\uc18c(\uc21c\ucc9c\ubc29\ud5a5)", "addr": "\uacbd\uc0c1\ub0a8\ub3c4 \uc9c4\uc8fc\uc2dc \ubb38\uc0b0\uc74d \ub0a8\ud574\uace0\uc18d\ub3c4\ub85c 195", "lat": "35.171173", "lng": "128.151099"}, {"statNm": "\ucc3d\ub155\uad70\ubbfc\uccb4\uc721\uad00", "addr": "\uacbd\uc0c1\ub0a8\ub3c4 \ucc3d\ub155\uad70 \ucc3d\ub155\uc74d \ucc3d\ub155\ub300\ub85c 307", "lat": "35.519905", "lng": "128.505764"}, {"statNm": "\uc774\ub9c8\ud2b8 \ub9c8\uc0b0\uc810", "addr": "\uacbd\uc0c1\ub0a8\ub3c4 \ucc3d\uc6d0\uc2dc \ub9c8\uc0b0\ud569\ud3ec\uad6c \uc11c\uc131\ub85c 3", "lat": "35.198189", "lng": "128.570069"}, {"statNm": "\uc9c4\ub3d9\uba74\uc0ac\ubb34\uc18c", "addr": "\uacbd\uc0c1\ub0a8\ub3c4 \ucc3d\uc6d0\uc2dc \ub9c8\uc0b0\ud569\ud3ec\uad6c \uc9c4\ub3d9\uba74 \uc2e0\uc11c\ucd0c\ub85c 13", "lat": "35.115256", "lng": "128.48190"}, {"statNm": "\uc131\uc8fc\ub3d9\uc8fc\ubbfc\uc13c\ud130", "addr": ", \uc678\ubd80\ud654\uc7a5\uc2e4 \uc55e", "lat": "35.1895", "lng": "128.694279"}, {"statNm": "\uc774\ub9c8\ud2b8 \ucc3d\uc6d0\uc810", "addr": "\uacbd\uc0c1\ub0a8\ub3c4 \ucc3d\uc6d0\uc2dc \uc131\uc0b0\uad6c \uc6d0\uc774\ub300\ub85c 608", "lat": "35.22639048", "lng": "128.67981855"}, {"statNm": "\ub3d9\uc74d\uc0ac\ubb34\uc18c", "addr": "\uacbd\uc0c1\ub0a8\ub3c4 \ucc3d\uc6d0\uc2dc \uc758\ucc3d\uad6c \ub3d9\uc74d \ub3d9\uc74d\ub85c 88", "lat": "35.2846599", "lng": "128.6822931"}, {"statNm": "\uac00\uc57c\uc74d\uc0ac\ubb34\uc18c", "addr": "\uacbd\uc0c1\ub0a8\ub3c4 \ud568\uc548\uad70 \uac00\uc57c\uc74d \ud568\uc548\ub300\ub85c 505", "lat": "35.272348", "lng": "128.407920"}, {"statNm": "\ud669\ub9e4\uc0b0\ub9cc\ub0a8\uc758\uad11\uc7a5", "addr": "\uacbd\uc0c1\ub0a8\ub3c4 \ud569\ucc9c\uad70 \uac00\ud68c\uba74 \uc11c\ubd80\ub85c 1563", "lat": "35.485834", "lng": "128.024710"}, {"statNm": "\uc0ac\ub4f1\uba74\uc0ac\ubb34\uc18c", "addr": "\uacbd\uc0c1\ub0a8\ub3c4 \uac70\uc81c\uc2dc \uc0ac\ub4f1\uba74 \uc131\ud3ec\ub85c 104", "lat": "34.918191", "lng": "128.522367"}, {"statNm": "\uac70\uc81c \ud559\ub3d9\uc8fc\ucc28\uc7a5", "addr": "\uacbd\uc0c1\ub0a8\ub3c4 \uac70\uc81c\uc2dc \ub3d9\ubd80\uba74 \ud559\ub3d9\ub9ac 264", "lat": "34.775660", "lng": "128.640934"}, {"statNm": "\uc870\uc120\ud574\uc591\ubb38\ud654\uad00", "addr": "\uacbd\uc0c1\ub0a8\ub3c4 \uac70\uc81c\uc2dc \uc77c\uc6b4\uba74 \uc9c0\uc138\ud3ec\ud574\uc548\ub85c 41", "lat": "34.832916", "lng": "128.702094"}, {"statNm": "\uc640\ud604\ubaa8\ub798\uc232\ud574\ubcc0(\ud574\uc218\uc695\uc7a5)", "addr": "\uacbd\uc0c1\ub0a8\ub3c4 \uac70\uc81c\uc2dc \uc77c\uc6b4\uba74 \uc640\ud604\ub9ac431-2", "lat": "34.813671", "lng": "128.707103"}, {"statNm": "\uac70\uc81c\uad00\uad11\uc548\ub0b4\uc18c", "addr": "\uacbd\uc0c1\ub0a8\ub3c4 \uac70\uc81c\uc2dc \uc0ac\ub4f1\uba74 \uc624\ub7c9\ub9ac 841", "lat": "34.888354", "lng": "128.494865"}, {"statNm": "\uac70\ucc3d\uad70 \ub18d\uc5c5\uae30\uc220\uc13c\ud130", "addr": "\uacbd\uc0c1\ub0a8\ub3c4 \uac70\ucc3d\uad70 \uac70\ucc3d\uc74d \uac70\ud568\ub300\ub85c 3322", "lat": "35.677924", "lng": "127.922673"}, {"statNm": "\uc218\uc2b9\ub300", "addr": "\uacbd\uc0c1\ub0a8\ub3c4 \uac70\ucc3d\uad70 \uc704\ucc9c\uba74 \ud669\uc0b01\uae38 60-6", "lat": "35.760428", "lng": "127.834155"}, {"statNm": "\uac00\uc870\uc5ed\uad8c \ucee4\ubba4\ub2c8\ud2f0\uc13c\ud130", "addr": "\uacbd\uc0c1\ub0a8\ub3c4 \uac70\ucc3d\uad70 \uac00\uc870\uba74 \uc9c0\uc0b0\ub85c 1488-30", "lat": "35.709585", "lng": "128.017193"}, {"statNm": "\uace0\uc131\uc74d \uc0ac\ubb34\uc18c", "addr": "\uacbd\uc0c1\ub0a8\ub3c4 \uace0\uc131\uad70 \uace0\uc131\uc74d \uc1a1\ud559\ub85c 93", "lat": "34.978136", "lng": "128.319916"}, {"statNm": "\ubb38\ud654\uccb4\uc721\uc13c\ud130", "addr": "\uacbd\uc0c1\ub0a8\ub3c4 \uace0\uc131\uad70 \uace0\uc131\uc74d \uc1a1\ud559\uace0\ubd84\ub85c 193", "lat": "34.979713", "lng": "128.312236"}, {"statNm": "\ub300\uccad\uacc4\uace1 \uacf5\uc601\uc8fc\ucc28\uc7a5", "addr": "\uacbd\uc0c1\ub0a8\ub3c4 \uae40\ud574\uc2dc \ub300\uccad\ub3d9 \uc0b0112-130", "lat": "35.184191", "lng": "128.773486"}, {"statNm": "\uac00\uc57c\ud14c\ub9c8\ud30c\ud06c", "addr": "\uacbd\uc0c1\ub0a8\ub3c4 \uae40\ud574\uc2dc \uac00\uc57c\ud14c\ub9c8\uae38 161", "lat": "35.251751", "lng": "128.893001"}, {"statNm": "\uc0bc\ubb38\uacf5\uc6a9\uc8fc\ucc28\uc7a5", "addr": "\uacbd\uc0c1\ub0a8\ub3c4 \ubc00\uc591\uc2dc \uc0bc\ubb38\ub3d9 24-40", "lat": "35.484263", "lng": "128.760117"}, {"statNm": "\uc0ac\ucc9c\uacf5\ud56d", "addr": "\uacbd\uc0c1\ub0a8\ub3c4 \uc0ac\ucc9c\uc2dc \uc0ac\ucc9c\uc74d \uc0ac\ucc9c\ub300\ub85c 1971", "lat": "35.092235", "lng": "128.087129"}, {"statNm": "\uc0ac\ucc9c\ud734\uac8c\uc18c(\ubd80\uc0b0\ubc29\ud5a5)", "addr": "\uacbd\uc0c1\ub0a8\ub3c4 \uc0ac\ucc9c\uc2dc \uace4\uc591\uba74 \uc11c\uc0bc\ub85c 619", "lat": "35.073612", "lng": "128.011383"}, {"statNm": "\uc0ac\ucc9c\ud734\uac8c\uc18c(\uc21c\ucc9c\ubc29\ud5a5)", "addr": "\uacbd\uc0c1\ub0a8\ub3c4 \uc0ac\ucc9c\uc2dc \uace4\uc591\uba74 \ubb35\uc2e4\uae38 31-11", "lat": "35.074722", "lng": "128.013336"}, {"statNm": "\uc9c0\ub9ac\uc0b0 \uc911\uc0b0 \uad00\uad11\uc9c0", "addr": "\uacbd\uc0c1\ub0a8\ub3c4 \uc0b0\uccad\uad70 \uc2dc\ucc9c\uba74 \uc911\uc0b0\ub9ac501-4", "lat": "35.291821", "lng": "127.754710"}, {"statNm": "\ud3c9\uc0b0\ub3d9 \ud589\uc815\ubcf5\uc9c0\uc13c\ud130", "addr": "\uacbd\uc0c1\ub0a8\ub3c4 \uc591\uc0b0\uc2dc \ud3c9\uc0b0\ub85c 71", "lat": "35.381661", "lng": "129.147043"}, {"statNm": "\ud654\uc815\uba74\uacf5\uc124\uc6b4\ub3d9\uc7a5", "addr": "\uacbd\uc0c1\ub0a8\ub3c4 \uc758\ub839\uad70 \ud654\uc815\uba74 \ud654\uc815\ub85c 328", "lat": "35.275702", "lng": "128.212536"}, {"statNm": "\uae08\uc0b0\uba74\uc0ac\ubb34\uc18c", "addr": "\uacbd\uc0c1\ub0a8\ub3c4 \uc9c4\uc8fc\uc2dc \uae08\uc0b0\ub85c 107", "lat": "35.213871", "lng": "128.147722"}, {"statNm": "\ub0a8\uc9c0\uc2dc\uc678\ubc84\uc2a4\ud130\ubbf8\ub110 \uc778\uadfc \uacf5\uc6a9\uc8fc\ucc28\uc7a5", "addr": "\uacbd\uc0c1\ub0a8\ub3c4 \ucc3d\ub155\uad70 \ub0a8\uc9c0\uc74d \ub0a8\uc9c0\ub9ac 167-4 \uc77c\uc6d0", "lat": "35.391654", "lng": "128.483389"}, {"statNm": "\uc785\uace1\uad70\ub9bd\uacf5\uc6d0(\uc785\uace1\uc9c0 \uc8fc\ucc28\uc7a5)", "addr": "\uacbd\uc0c1\ub0a8\ub3c4 \ud568\uc548\uad70 \uc0b0\uc778\uba74 \uc785\uace1\ub9ac 1180-1", "lat": "35.263328", "lng": "128.449638"}, {"statNm": "\uacf5\ub3d9\uc721\uc544\ub098\ub214\ud130 (\uad6c \uce60\uc6d0\ubcf4\uac74\uc9c0\uc18c)", "addr": "\uacbd\uc0c1\ub0a8\ub3c4 \ud568\uc548\uad70 \uce60\uc6d0\uc74d \uc6a9\uc0b01\uae38 28", "lat": "35.308514", "lng": "128.517627"}, {"statNm": "\ud568\uc548\ud734\uac8c\uc18c(\ubd80\uc0b0\ubc29\ud5a5)", "addr": "\uacbd\uc0c1\ub0a8\ub3c4 \ud568\uc548\uad70 \uad70\ubd81\uba74 \ud604\ud3ec\ub85c 205", "lat": "35.293769", "lng": "128.347844"}, {"statNm": "\ub18d\uc6d4\uc815 \uad00\uad11\ub2e8\uc9c0 \uc8fc\ucc28\uc7a5", "addr": "\uacbd\uc0c1\ub0a8\ub3c4 \ud568\uc591\uad70 \uc548\uc758\uba74 \ub18d\uc6d4\uc815\uae389-13", "lat": "35.623657", "lng": "127.783039"}, {"statNm": "\uc2ec\uc6d0\uc815(\uc6a9\ucd94\uacc4\uace1)\uc8fc\ucc28\uc7a5", "addr": "\uacbd\uc0c1\ub0a8\ub3c4 \ud568\uc591\uad70 \uc548\uc758\uba74 \ud558\uc6d0\ub9ac 1201-3", "lat": "35.668293", "lng": "127.787960"}, {"statNm": "\ud568\uc591\ubb38\ud654\uc2dc\uc124\uc0ac\uc5c5\uc18c", "addr": "\uacbd\uc0c1\ub0a8\ub3c4 \ud568\uc591\uad70 \ud568\uc591\uc74d \ud544\ubd09\uc0b0\uae38 55", "lat": "35.524093", "lng": "127.721746"}, {"statNm": "\uac00\uc57c\uc0b0\uad6d\ub9bd\uacf5\uc6d0\uc0ac\ubb34\uc18c \uc8fc\ucc28\uc7a5", "addr": "\uacbd\uc0c1\ub0a8\ub3c4 \ud569\ucc9c\uad70 \uac00\uc57c\uba74 \uac00\uc57c\uc0b0\ub85c 1200", "lat": "35.767368", "lng": "128.132487"}, {"statNm": "\uad70\ubd81\uba74\uc0ac\ubb34\uc18c", "addr": "\uacbd\uc0c1\ub0a8\ub3c4 \ud568\uc548\uad70 \uad70\ubd81\uba74 \uc9c0\ub4502\uae38 15", "lat": "35.261188", "lng": "128.345317"}, {"statNm": "\uc2a4\ud3ec\uce20\ud30c\ud06c \uc8fc\ucc28\uc7a5", "addr": "\uacbd\uc0c1\ub0a8\ub3c4 \uac70\ucc3d\uad70 \uac70\ucc3d\uc74d \uc2ec\uc18c\uc815\uae3839-36", "lat": "35.693631", "lng": "127.926266"}, {"statNm": "\ub0a8\uc0b0\uacf5\uc6d0", "addr": "\uacbd\uc0c1\ub0a8\ub3c4 \uace0\uc131\uad70 \uace0\uc131\uc74d \ub3d9\uc678\ub9ac 595", "lat": "34.967214", "lng": "128.326964"}, {"statNm": "\uae40\ud574\uc11c\ubd80\ubb38\ud654\uc13c\ud130", "addr": "\uacbd\uc0c1\ub0a8\ub3c4 \uae40\ud574\uc2dc \uc728\ud5582\ub85c 210", "lat": "35.172807", "lng": "128.821536"}, {"statNm": "\ubbf8\uc870\ud56d \ubd81\ud56d\uc8fc\ucc28\uc7a5", "addr": "\uacbd\uc0c1\ub0a8\ub3c4 \ub0a8\ud574\uad70 \ubbf8\uc870\uba74 \ubbf8\uc870\ub9ac 107-6", "lat": "34.713333", "lng": "128.044998"}, {"statNm": "\ucc3d\uc120\uad50 \uc8fc\ucc28\uc7a5", "addr": "\uacbd\uc0c1\ub0a8\ub3c4 \ub0a8\ud574\uad70 \uc0bc\ub3d9\uba74 \uc9c0\uc871\ub9ac 291-11", "lat": "34.832542", "lng": "128.000230"}, {"statNm": "\uc0c1\uc8fc\ud574\uc218\uc695\uc7a5 \uc8fc\ucc28\uc7a5", "addr": "\uacbd\uc0c1\ub0a8\ub3c4 \ub0a8\ud574\uad70 \uc0c1\uc8fc\uba74 \uc0c1\uc8fc\ub9ac 1227", "lat": "34.721943", "lng": "127.988609"}, {"statNm": "\ubc00\uc591\uc544\ub9ac\ub791\ub300\uacf5\uc6d0 \uc8fc\ucc28\uc7a5", "addr": "\uacbd\uc0c1\ub0a8\ub3c4 \ubc00\uc591\uc2dc \uad50\ub3d9 556\ubc88\uc9c0", "lat": "35.505375", "lng": "128.758272"}, {"statNm": "\ud45c\ucda9\uc0ac \uad00\uad11\uc9c0 \uacf5\uc601\uc8fc\ucc28\uc7a5", "addr": "\uacbd\uc0c1\ub0a8\ub3c4 \ubc00\uc591\uc2dc \ub2e8\uc7a5\uba74 \uad6c\ucc9c\ub9ac 2052\ubc88\uc9c0", "lat": "35.531126", "lng": "128.942964"}, {"statNm": "\uc5bc\uc74c\uace8 \uacf5\uc601\uc8fc\ucc28\uc7a5", "addr": "\uacbd\uc0c1\ub0a8\ub3c4 \ubc00\uc591\uc2dc \uc0b0\ub0b4\uba74 \uc0bc\uc591\ub9ac 190-1\ubc88\uc9c0", "lat": "35.580564", "lng": "128.980919"}, {"statNm": "\ubb34\uc548\uc6a9\ud638\ub180\uc774 \uc804\uc218\uad00", "addr": "\uacbd\uc0c1\ub0a8\ub3c4 \ubc00\uc591\uc2dc \ubb34\uc548\uba74 \uc0ac\uba85\ub85c 537", "lat": "35.472743", "lng": "128.652629"}, {"statNm": "\ub0a8\uc77c\ub300\ud574\uc218\uc695\uc7a5 \uc8fc\ucc28\uc7a5", "addr": "\uacbd\uc0c1\ub0a8\ub3c4 \uc0ac\ucc9c\uc2dc \ud5a5\ucd0c\ub3d9 631-6", "lat": "34.927781", "lng": "128.097806"}, {"statNm": "\uc591\uc0b0\ud734\uac8c\uc18c(\uc11c\uc6b8\ubc29\ud5a5)", "addr": "\uacbd\uc0c1\ub0a8\ub3c4 \uc591\uc0b0\uc2dc \ubaa9\uc7a5\uae38 15-50", "lat": "35.322863", "lng": "129.057296"}, {"statNm": "\uc758\ub839\uc18c\ubc29\uc11c", "addr": "\uacbd\uc0c1\ub0a8\ub3c4 \uc758\ub839\uad70 \uc758\ub839\uc74d \uc758\ub839\ub85c 108-17", "lat": "35.320372", "lng": "128.248660"}, {"statNm": "\uc9c4\uc8fc\uc2dc\ub18d\uc0b0\ubb3c\ub3c4\ub9e4\uc2dc\uc7a5", "addr": "\uacbd\uc0c1\ub0a8\ub3c4 \uc9c4\uc8fc\uc2dc \ub0a8\uac15\ub85c 1689", "lat": "35.211713", "lng": "128.124520"}, {"statNm": "kbs\ucc3d\uc6d0\ubc29\uc1a1\ucd1d\uad6d", "addr": "\uacbd\uc0c1\ub0a8\ub3c4 \ucc3d\uc6d0\uc2dc \uc758\ucc3d\uad6c \uc911\uc559\ub300\ub85c 178(\uc2e0\uc6d4\ub3d9 97-1)", "lat": "35.228260", "lng": "128.684869"}, {"statNm": "\uce60\uc11c\uc9c0\ubc29\uc0b0\uc5c5\ub2e8\uc9c0", "addr": "\uacbd\uc0c1\ub0a8\ub3c4 \ud568\uc548\uad70 \uce60\uc11c\uba74 \uacf5\ub2e8\uc548\uae38 12 (\ub18d\ud611)", "lat": "35.362112", "lng": "128.485533"}, {"statNm": "\ub300\uc0b0\uba74\uc0ac\ubb34\uc18c", "addr": "\uacbd\uc0c1\ub0a8\ub3c4 \ud568\uc548\uad70 \ub300\uc0b0\uba74 \ub300\uc0b0\uc911\uc559\ub85c 176", "lat": "35.350010", "lng": "128.431837"}, {"statNm": "\ucc3d\ub155\uad70\uccad", "addr": "\uacbd\uc0c1\ub0a8\ub3c4 \ucc3d\ub155\uad70 \ucc3d\ub155\uc74d \uad70\uccad\uae38 1", "lat": "35.545162", "lng": "128.490355"}, {"statNm": "\uad6c\uc0b0\uba74\uc0ac\ubb34\uc18c", "addr": "\uacbd\uc0c1\ub0a8\ub3c4 \ucc3d\uc6d0\uc2dc \ub9c8\uc0b0\ud569\ud3ec\uad6c \uad6c\uc0b0\uba74 \uad6c\uc0b0\ub85c 554", "lat": "35.119364", "lng": "128.580546"}, {"statNm": "\uccad\ud559\ub3d9 \ubc15\ubb3c\uad00 (\uccad\ud559\ub3d9 \uacf5\uc601\uc8fc\ucc28\uc7a5)", "addr": "\uacbd\uc0c1\ub0a8\ub3c4 \ud558\ub3d9\uad70 \uccad\ud559\ub85c 2526", "lat": "35.242544", "lng": "127.710520"}, {"statNm": "\uc0ac\ucc9c\uc885\ud569\uc6b4\ub3d9\uc7a5", "addr": "\uacbd\uc0c1\ub0a8\ub3c4 \uc0ac\ucc9c\uc2dc \uc0ac\ucc9c\uc74d \uad6c\uc554\ub450\ubb38\ub85c 85", "lat": "35.0884591", "lng": "128.0939464"}, {"statNm": "\uc0bc\ucc9c\ud3ec\ub300\uad50\uacf5\uc6d0", "addr": "\uacbd\uc0c1\ub0a8\ub3c4 \uc0ac\ucc9c\uc2dc \uc0ac\ucc9c\ub300\ub85c 17", "lat": "34.9324694", "lng": "128.0521274"}, {"statNm": "\ucc3d\uc6d0\uc2dc\uccad", "addr": "\uacbd\uc0c1\ub0a8\ub3c4 \ucc3d\uc6d0\uc2dc \uc758\ucc3d\uad6c \uc911\uc559\ub300\ub85c 151", "lat": "35.2282982", "lng": "128.6831979"}, {"statNm": "\uc9c4\uc804\uba74\uc0ac\ubb34\uc18c", "addr": "\uacbd\uc0c1\ub0a8\ub3c4 \ucc3d\uc6d0\uc2dc \ub9c8\uc0b0\ud569\ud3ec\uad6c \uc9c4\uc804\uba74 \uc624\uc11c\ub9ac 604-3", "lat": "35.1028645", "lng": "128.4190036"}, {"statNm": "\uc131\uc0b0\uc2a4\ud3ec\uce20\uc13c\ud130", "addr": "\uacbd\uc0c1\ub0a8\ub3c4 \ucc3d\uc6d0\uc2dc \uc131\uc0b0\uad6c \ucc3d\uc774\ub300\ub85c 888", "lat": "35.2063615", "lng": "128.7055198"}, {"statNm": "\ub9c8\uc0b0\ud569\ud3ec\uc2a4\ud3ec\uce20\uc13c\ud130", "addr": "\uacbd\uc0c1\ub0a8\ub3c4 \ucc3d\uc6d0\uc2dc \ub9c8\uc0b0\ud569\ud3ec\uad6c \ub4dc\ub9bc\ubca0\uc774\ub300\ub85c 56", "lat": "35.1765576", "lng": "128.5675444"}, {"statNm": "\uc9c4\ud574\ub178\uc778\uc885\ud569\ubcf5\uc9c0\uad00", "addr": "\uacbd\uc0c1\ub0a8\ub3c4 \ucc3d\uc6d0\uc2dc \uc9c4\ud574\uad6c \ud48d\ud638\ub3d9 27-3", "lat": "35.1352978", "lng": "128.7112004"}, {"statNm": "\uc1a1\ub9bc\uacf5\uc6d0\uc8fc\ucc28\uc7a5", "addr": "\uacbd\uc0c1\ub0a8\ub3c4 \ud558\ub3d9\uad70 \ud558\ub3d9\uc74d \uad11\ud3c9\ub9ac 443-17", "lat": "35.063820", "lng": "127.742021"}, {"statNm": "\uc9c4\uad50\uacf5\uc601\uc8fc\ucc28\uc7a5", "addr": "\uacbd\uc0c1\ub0a8\ub3c4 \ud558\ub3d9\uad70 \uc9c4\uad50\uba74 \uc9c4\uad50\ub9ac 426-41", "lat": "35.029967", "lng": "127.904228"}, {"statNm": "\uc5f0\ucd08\uba74\uc0ac\ubb34\uc18c", "addr": "\uacbd\uc0c1\ub0a8\ub3c4 \uac70\uc81c\uc2dc \uc5f0\ucd08\uba74 \uc8fd\ud1a0\ub9ac 781-1", "lat": "34.914778", "lng": "128.656056"}, {"statNm": "\uad6d\ubbfc\uc5f0\uae08\uacf5\ub2e8 \uac70\ucc3d\uc0ac\uc625", "addr": "\uacbd\uc0c1\ub0a8\ub3c4 \uac70\ucc3d\uad70 \uac70\ucc3d\uc74d \ub300\ub3d9\ub9ac 992-2", "lat": "35.693720", "lng": "127.922976"}, {"statNm": "\uc218\ud0dc\ubcf4\uac74\uc9c4\ub8cc\uc18c \uc8fc\ucc28\uc7a5", "addr": "\uacbd\uc0c1\ub0a8\ub3c4 \uace0\uc131\uad70 \ud558\uc77c\uba74 \uc6a9\ud0dc\ub9ac 188-1", "lat": "34.952415", "lng": "128.213715"}, {"statNm": "\uc0c1\ub9ac\uba74 \ubcf4\uac74\uc9c0\uc18c \uc8fc\ucc28\uc7a5", "addr": "\uacbd\uc0c1\ub0a8\ub3c4 \uace0\uc131\uad70 \uc0c1\ub9ac\uba74 \ucc99\ubc88\uc815\ub9ac 804", "lat": "34.998000", "lng": "128.189000"}, {"statNm": "\uc0c1\uc871\uc554\uad70\ub9bd\uacf5\uc6d0 \uc8fc\ucc28\uc7a5", "addr": "\uacbd\uc0c1\ub0a8\ub3c4 \uace0\uc131\uad70 \ud558\uc774\uba74 \ub355\uba85\ub9ac 284", "lat": "34.908385", "lng": "128.147083"}, {"statNm": "\ubd88\uc554\ub3d9\uc8fc\ubbfc\uc13c\ud130", "addr": "\uacbd\uc0c1\ub0a8\ub3c4 \uae40\ud574\uc2dc \ubd88\uc554\ub3d9 220-17", "lat": "35.222333", "lng": "128.926861"}, {"statNm": "\ubd09\ud654\ub9c8\uc744\uc8fc\ucc28\uc7a5", "addr": "\uacbd\uc0c1\ub0a8\ub3c4 \uae40\ud574\uc2dc \uc9c4\uc601\uc74d \ubcf8\uc0b0\ub9ac 40-9", "lat": "35.313889", "lng": "128.770028"}, {"statNm": "\uc784\ud638\uccb4\uc721\uacf5\uc6d0", "addr": "\uacbd\uc0c1\ub0a8\ub3c4 \uae40\ud574\uc2dc \uc678\ub3d9 \uc0b0 28-1", "lat": "35.229106", "lng": "128.850674"}, {"statNm": "\ud558\ub0a8\uc74d\ud589\uc815\ubcf5\uc9c0\uc13c\ud130", "addr": "\uacbd\uc0c1\ub0a8\ub3c4 \ubc00\uc591\uc2dc \ud558\ub0a8\uc74d \uc218\uc0b0\ub9ac 469-13", "lat": "35.375194", "lng": "128.711278"}, {"statNm": "\uc0dd\ucd08\uc2dc\uc678\ubc84\uc2a4\ud130\ubbf8\ub110\uc8fc\ucc28\uc7a5", "addr": "\uacbd\uc0c1\ub0a8\ub3c4 \uc0b0\uccad\uad70 \uc0dd\ucd08\uba74 \uc5b4\uc11c\ub9ac 290-2", "lat": "35.492167", "lng": "127.832944"}, {"statNm": "\ucc28\ud669\uba74\uc0ac\ubb34\uc18c\uc8fc\ucc28\uc7a5", "addr": "\uacbd\uc0c1\ub0a8\ub3c4 \uc0b0\uccad\uad70 \ucc28\ud669\uba74 \uc7a5\uc704\ub9ac 18-3", "lat": "35.463389", "lng": "127.927806"}, {"statNm": "\ub9cc\ub0a8\uc758\uad11\uc7a5", "addr": "\uacbd\uc0c1\ub0a8\ub3c4 \uc591\uc0b0\uc2dc \ub2e4\ubc29\ub3d9 572-1", "lat": "35.330778", "lng": "129.036556"}, {"statNm": "\ub0b4\uc870\ub9c8\uc744 \uacf5\uc6a9\uc8fc\ucc28\uc7a5", "addr": "\uacbd\uc0c1\ub0a8\ub3c4 \uc758\ub839\uad70 \uce60\uace1\uba74 \ub0b4\uc870\ub9ac 429-1", "lat": "35.354083", "lng": "128.195417"}, {"statNm": "\ub300\uc9c0\uba74\uc0ac\ubb34\uc18c", "addr": "\uacbd\uc0c1\ub0a8\ub3c4 \ucc3d\ub155\uad70 \ub300\uc9c0\uba74 \ubaa8\uc0b0\ub9ac 501-1", "lat": "35.555417", "lng": "128.467806"}, {"statNm": "\ubd80\uace1 \uacf5\uc124\uc8fc\ucc28\uc7a5", "addr": "\uacbd\uc0c1\ub0a8\ub3c4 \ucc3d\ub155\uad70 \ubd80\uace1\uba74 \uac70\ubb38\ub9ac 824", "lat": "35.438139", "lng": "128.587472"}, {"statNm": "\ud55c\uad6d\uc804\uae30\uc5f0\uad6c\uc6d0 \ucc3d\uc5c5\ubcf4\uc721\uc13c\ud130 \uc8fc\ucc28\uc7a5", "addr": "\uacbd\uc0c1\ub0a8\ub3c4 \ucc3d\uc6d0\uc2dc \uc131\uc0b0\uad6c \uc131\uc8fc\ub3d9 178", "lat": "35.191122", "lng": "128.719432"}, {"statNm": "\ubd81\uba74\ud589\uc815\ubcf5\uc9c0\uc13c\ud130", "addr": "\uacbd\uc0c1\ub0a8\ub3c4 \ucc3d\uc6d0\uc2dc \uc758\ucc3d\uad6c \ubd81\uba74 \uc2e0\ucd0c\ub9ac 954-4", "lat": "35.347889", "lng": "128.607444"}, {"statNm": "\ud558\ub3d9\ubb38\ud654\uc608\uc220\ud68c\uad00", "addr": "\uacbd\uc0c1\ub0a8\ub3c4 \ud558\ub3d9\uad70 \ud558\ub3d9\uc74d \uc74d\ub0b4\ub9ac 962-2", "lat": "35.073139", "lng": "127.740917"}, {"statNm": "\uad70\ubd813.1\uae30\ub150\uccb4\uc721\uad00", "addr": "\uacbd\uc0c1\ub0a8\ub3c4 \ud568\uc548\uad70 \uad70\ubd81\uba74 \uc18c\ud3ec\ub9ac 516-2", "lat": "35.265778", "lng": "128.348972"}, {"statNm": "\ubd09\uc0b0\uba74\uc0ac\ubb34\uc18c \uacf5\uc601\uc8fc\ucc28\uc7a5", "addr": "\uacbd\uc0c1\ub0a8\ub3c4 \ud569\ucc9c\uad70 \ubd09\uc0b0\uba74 \uae40\ubd09\ub9ac 344-11", "lat": "35.625806", "lng": "128.042056"}, {"statNm": "\ud55c\uad6d\uc138\ub77c\ubbf9\uae30\uc220\uc6d0 \ubcf8\uc6d0", "addr": "\uacbd\uc0c1\ub0a8\ub3c4 \uc9c4\uc8fc\uc2dc \ucda9\ubb34\uacf5\ub3d9 15-4", "lat": "35.177417", "lng": "128.135278"}, {"statNm": "\uc6c5\uc591\uba74\uc0ac\ubb34\uc18c", "addr": "\uacbd\uc0c1\ub0a8\ub3c4 \uac70\ucc3d\uad70 \uc6c5\uc591\uba74 \ub178\ud604\ub9ac 217-1", "lat": "35.805167", "lng": "127.917944"}, {"statNm": "\ubbfc\uc6d0\uccad\uc0ac \uc8fc\ucc28\uc7a5(\uae40\ud574\uc2dc\uccad)", "addr": "\uacbd\uc0c1\ub0a8\ub3c4 \uae40\ud574\uc2dc \ubd80\uc6d0\ub3d9 625-1", "lat": "35.227444", "lng": "128.890261"}, {"statNm": "\ud1b5\uc601\uc2dc\uccad1\uccad\uc0ac", "addr": "\uacbd\uc0c1\ub0a8\ub3c4 \ud1b5\uc601\uc2dc \ubb34\uc804\ub3d9 357", "lat": "34.854783", "lng": "128.433358"}, {"statNm": "\uc790\ub3d9\ucc28\ubd80\ud488\ud601\uc2e0\uc13c\ud130", "addr": "\uacbd\uc0c1\ub0a8\ub3c4 \ucc3d\uc6d0\uc2dc \ub9c8\uc0b0\ud68c\uc6d0\uad6c \ub0b4\uc11c\uc74d \uc911\ub9ac 1127-28", "lat": "35.237556", "lng": "128.507361"}, {"statNm": "\uc9c4\uc601\uacf5\uc124\uc6b4\ub3d9\uc7a5", "addr": "\uacbd\uc0c1\ub0a8\ub3c4 \uae40\ud574\uc2dc \uc9c4\uc601\uc74d \uc9c4\uc601\ub9ac 1347", "lat": "35.307361", "lng": "128.717333"}, {"statNm": "\ub86f\ub370\ub9c8\ud2b8 \ucc3d\uc6d0\uc911\uc559\uc810", "addr": "\uacbd\uc0c1\ub0a8\ub3c4 \ucc3d\uc6d0\uc2dc \uc131\uc0b0\uad6c \uc911\uc559\ub3d9 92", "lat": "35.225389", "lng": "128.680389"}, {"statNm": "\ud558\ubd81\ubb38\ud654\uc758\uc9d1", "addr": "\uacbd\uc0c1\ub0a8\ub3c4 \uc591\uc0b0\uc2dc \ud558\ubd81\uba74 \uc21c\uc9c0\ub9ac 756-93", "lat": "35.489306", "lng": "129.085694"}, {"statNm": "\uacc4\uc131\uba74\ubcf4\uac74\uc9c0\uc18c", "addr": "\uacbd\uc0c1\ub0a8\ub3c4 \ucc3d\ub155\uad70 \uacc4\uc131\uba74 \uacc4\uc131\ub9ac 606", "lat": "35.486722", "lng": "128.509694"}, {"statNm": "\ubb38\uc0b0\uc74d \uc0ac\ubb34\uc18c", "addr": "\uacbd\uc0c1\ub0a8\ub3c4 \uc9c4\uc8fc\uc2dc \ubb38\uc0b0\uc74d \uc0bc\uace1\ub9ac 1265-1", "lat": "35.168500", "lng": "128.164361"}, {"statNm": "\uc2b9\uac15\uae30\uc548\uc804\uae30\uc220\uc6d0", "addr": "\uacbd\uc0c1\ub0a8\ub3c4 \uac70\ucc3d\uad70 \ub0a8\uc0c1\uba74 \ub300\uc0b0\ub9ac 1572", "lat": "35.653000", "lng": "127.930361"}, {"statNm": "\uc6c5\ub3d9\ud558\uc218\ucc98\ub9ac\uc7a5", "addr": "\uacbd\uc0c1\ub0a8\ub3c4 \ucc3d\uc6d0\uc2dc \uc9c4\ud574\uad6c \ub0a8\ubb38\ub3d9 1190-1", "lat": "35.096333", "lng": "128.783056"}, {"statNm": "\uc591\uc0b0\ud734\uac8c\uc18c(\uc11c\uc6b8\ubc29\ud5a5)", "addr": "\uacbd\uc0c1\ub0a8\ub3c4 \uc591\uc0b0\uc2dc \ub3d9\uba74 \ubaa9\uc7a5\uae38 15-50", "lat": "35.32279605", "lng": "129.057324"}, {"statNm": "\ub178\ub7c9\ub300\uad50 \ud64d\ubcf4\uad00 \uc8fc\ucc28\uc7a5", "addr": "\uacbd\uc0c1\ub0a8\ub3c4 \ud558\ub3d9\uad70 \uae08\ub0a8\uba74 \ub178\ub7c9\ub9ac 704", "lat": "34.94723855", "lng": "127.8653781"}, {"statNm": "\uacf5\uad70 \uad50\uc721\uc0ac\ub839\ubd80 \uc81c1\uc815\ubb38 1\uc8fc\ucc28\uc7a5", "addr": "\uacbd\uc0c1\ub0a8\ub3c4 \uc9c4\uc8fc\uc2dc \uc18d\uc0ac\ub9ac 175", "lat": "35.1863062", "lng": "128.14891013"}, {"statNm": "\uacf5\uad70 \uad50\uc721\uc0ac\ub839\ubd80 \uc81c2\uc815\ubb38 \uc8fc\ucc28\uc7a5", "addr": "\uacbd\uc0c1\ub0a8\ub3c4 \uc9c4\uc8fc\uc2dc \uae08\uc0b0\uba74 \uc1a1\ubc31\ub85c46", "lat": "35.2054418", "lng": "128.14950082"}, {"statNm": "\uc640\ub8e1\uc2a4\ud3ec\uce20\uc13c\ud0c0 \uc8fc\ucc28\uc7a5", "addr": "\uacbd\uc0c1\ub0a8\ub3c4 \uc0ac\ucc9c\uc2dc \uc0ac\ucc9c\uc74d \uc0ac\uc8fc\ub9ac 263-1", "lat": "35.08185327", "lng": "128.07988553"}, {"statNm": "\uc9c4\uc601\ud734\uac8c\uc18c(\uc21c\ucc9c\ubc29\ud5a5)", "addr": "\uacbd\uc0c1\ub0a8\ub3c4 \uae40\ud574\uc2dc \uc9c4\uc601\uc74d \ud558\uacc4\ub85c96\ubc88\uae38 68", "lat": "35.27970412", "lng": "128.71683077"}, {"statNm": "\ub454\ub355\uba74\uc0ac\ubb34\uc18c", "addr": "\uacbd\uc0c1\ub0a8\ub3c4 \uac70\uc81c\uc2dc \ub454\ub355\uba74 \ud558\ub454\ub9ac 365-64", "lat": "34.836942", "lng": "128.505418"}, {"statNm": "\ub0a8\ubd80\uba74\uc0ac\ubb34\uc18c", "addr": "\uacbd\uc0c1\ub0a8\ub3c4 \uac70\uc81c\uc2dc \ub0a8\ubd80\uba74 \uc800\uad6c\ub9ac 70", "lat": "34.731932", "lng": "128.60991"}, {"statNm": "\ud558\uccad\uba74\uc0ac\ubb34\uc18c", "addr": "\uacbd\uc0c1\ub0a8\ub3c4 \uac70\uc81c\uc2dc \ud558\uccad\uba74 \ud558\uccad\ub9ac 665-1", "lat": "34.954985", "lng": "128.655134"}, {"statNm": "\ub2a5\ud3ec\ub3d9\uc0ac\ubb34\uc18c", "addr": "\uacbd\uc0c1\ub0a8\ub3c4 \uac70\uc81c\uc2dc \ub2a5\ud3ec\ub3d9 401-4", "lat": "34.879464", "lng": "128.734313"}, {"statNm": "\ub0a8\uc0c1\uba74\uc0ac\ubb34\uc18c", "addr": "\uacbd\uc0c1\ub0a8\ub3c4 \uac70\ucc3d\uad70 \ub0a8\uc0c1\uba74 \ubb34\ucd0c\ub9ac 632-2", "lat": "35.643478", "lng": "127.91032"}, {"statNm": "\ub2f9\ud56d\ud3ec\uad00\uad11\uc9c0 \uc8fc\ucc28\uc7a5", "addr": "\uacbd\uc0c1\ub0a8\ub3c4 \uace0\uc131\uad70 \ud68c\ud654\uba74 \ubd09\ub3d9\ub9ac 1060", "lat": "35.061286", "lng": "128.396953"}, {"statNm": "\ud558\uc774\uba74\uc0dd\ud65c\uccb4\uc721\uad00", "addr": "\uacbd\uc0c1\ub0a8\ub3c4 \uace0\uc131\uad70 \ud558\uc774\uba74 \ub355\ud638\ub9ac 474-1", "lat": "34.930988", "lng": "128.121033"}, {"statNm": "\ub3d9\ud574\uba74 \ubcf5\uc9c0\ud68c\uad00 \uc8fc\ucc28\uc7a5", "addr": "\uacbd\uc0c1\ub0a8\ub3c4 \uace0\uc131\uad70 \ub3d9\ud574\uba74 \uc7a5\uae30\ub9ac 251-9", "lat": "35.041111", "lng": "128.419444"}, {"statNm": "\uac08\ubaa8\ubd09\uc0b0\ub9bc\uc695\uc7a5 \uc8fc\ucc28\uc7a5", "addr": "\uacbd\uc0c1\ub0a8\ub3c4 \uace0\uc131\uad70 \uace0\uc131\uc74d \uc774\ub2f9\ub9ac 253-4", "lat": "34.977953", "lng": "128.271891"}, {"statNm": "\ub3d9\ubd80\uc2a4\ud3ec\uce20\uc13c\ud130", "addr": "\uacbd\uc0c1\ub0a8\ub3c4 \uae40\ud574\uc2dc \uc0bc\ubc29\ub3d9 840-2", "lat": "35.256222", "lng": "128.905852"}, {"statNm": "\ubc18\ub8e1\uacf5\uc6d0\uc8fc\ucc28\uc7a5", "addr": "\uacbd\uc0c1\ub0a8\ub3c4 \uae40\ud574\uc2dc \uad00\ub3d9\ub3d9 332", "lat": "35.177564", "lng": "128.805999"}, {"statNm": "\ud654\ud3ec\ucc9c\uc0dd\ud0dc\ud559\uc2b5\uad00(\uc8fc\ucc28\uc7a5)", "addr": "\uacbd\uc0c1\ub0a8\ub3c4 \uae40\ud574\uc2dc \ud55c\ub9bc\uba74 \ud1f4\ub798\ub9ac 1363", "lat": "35.310938", "lng": "128.789435"}, {"statNm": "\ub454\ucd0c\uc0db\ub4e4\ub9c8\uc744\uc232\uc8fc\ucc28\uc7a5", "addr": "\uacbd\uc0c1\ub0a8\ub3c4 \ub0a8\ud574\uad70 \uc0bc\ub3d9\uba74 \uae08\uc1a1\ub9ac 1416-1", "lat": "34.826293", "lng": "128.034875"}, {"statNm": "\ucc3d\uc120\uba74\uacf5\uc6a9\uc8fc\ucc28\uc7a5", "addr": "\uacbd\uc0c1\ub0a8\ub3c4 \ub0a8\ud574\uad70 \ucc3d\uc120\uba74 \uc0c1\uc8fd\ub9ac 143", "lat": "34.857605", "lng": "128.012465"}, {"statNm": "\uccad\ub3c4\uba74\ud589\uc815\ubcf5\uc9c0\uc13c\ud130 \ubbfc\uc6d0\uc778\uc8fc\ucc28\uc7a5", "addr": "\uacbd\uc0c1\ub0a8\ub3c4 \ubc00\uc591\uc2dc \uccad\ub3c4\uba74 \uad6c\uae30\ub9ac 140-6", "lat": "35.549093", "lng": "128.624155"}, {"statNm": "\uc2dc\ucc9c\uba74\uc0ac\ubb34\uc18c\uc8fc\ucc28\uc7a5", "addr": "\uacbd\uc0c1\ub0a8\ub3c4 \uc0b0\uccad\uad70 \uc2dc\ucc9c\uba74 \uc0ac\ub9ac 932-1", "lat": "35.27669", "lng": "127.838242"}, {"statNm": "\uad81\ub958\uba74\uc0ac\ubb34\uc18c \uc8fc\ucc28\uc7a5", "addr": "\uacbd\uc0c1\ub0a8\ub3c4 \uc758\ub839\uad70 \uad81\ub958\uba74 \ud1a0\uace1\ub9ac 602-1", "lat": "35.446987", "lng": "128.24899"}, {"statNm": "\uc9c0\uc815\uba74\ubcf5\uc9c0\ud68c\uad00", "addr": "\uacbd\uc0c1\ub0a8\ub3c4 \uc758\ub839\uad70 \uc9c0\uc815\uba74 \ubd09\uace1\ub9ac 793-11", "lat": "35.381916", "lng": "128.388268"}, {"statNm": "\uc9c4\uc8fc\uc2dc\uc131\uad00\ub9ac\uc0ac\ubb34\uc18c", "addr": "\uacbd\uc0c1\ub0a8\ub3c4 \uc9c4\uc8fc\uc2dc \ub0a8\uc131\ub3d9 3-1", "lat": "35.190932", "lng": "128.078485"}, {"statNm": "\uc6b0\ud3ec\uc7a0\uc790\ub9ac\ub098\ub77c", "addr": "\uacbd\uc0c1\ub0a8\ub3c4 \ucc3d\ub155\uad70 \ub300\ud569\uba74 \uc8fc\ub9e4\ub9ac 508-2", "lat": "35.565113", "lng": "128.417919"}, {"statNm": "\uc625\uc57c\uacf5\uc6a9\uc8fc\ucc28\uc7a5", "addr": "\uacbd\uc0c1\ub0a8\ub3c4 \ucc3d\ub155\uad70 \uc774\ubc29\uba74 \uac70\ub0a8\ub9ac 436-1", "lat": "35.60093", "lng": "128.383458"}, {"statNm": "\ubc18\uc1a1\uacf5\uc6d0 \uae4c\uce58A \ub4a4 \uc8fc\ucc28\uc7a5", "addr": "\uacbd\uc0c1\ub0a8\ub3c4 \ucc3d\uc6d0\uc2dc \uc131\uc0b0\uad6c \ubc18\uc1a1\ub3d9 201", "lat": "35.243462", "lng": "128.666837"}, {"statNm": "\uc0b0\uc591\uc2a4\ud3ec\uce20\ud30c\ud06c \uc8fc\ucc28\uc7a5", "addr": "\uacbd\uc0c1\ub0a8\ub3c4 \ud1b5\uc601\uc2dc \uc0b0\uc591\uc74d \ub0a8\ud3c9\ub9ac 741-9", "lat": "34.803423", "lng": "128.396925"}, {"statNm": "\ud1b5\uc601RCE\uc138\uc790\ud2b8\ub77c\uc232", "addr": "\uacbd\uc0c1\ub0a8\ub3c4 \ud1b5\uc601\uc2dc \uc6a9\ub0a8\uba74 \ud654\uc0bc\ub9ac 202", "lat": "34.850788489", "lng": "128.44965241"}, {"statNm": "\uc625\uc885\uba74\uc0ac\ubb34\uc18c \uc8fc\ucc28\uc7a5", "addr": "\uacbd\uc0c1\ub0a8\ub3c4 \ud558\ub3d9\uad70 \uc625\uc885\uba74 \uccad\ub8e1\ub9ac 124-7", "lat": "35.18255", "lng": "127.879212"}, {"statNm": "\uad6d\ubbfc\uccb4\uc721\uc13c\ud130", "addr": "\uacbd\uc0c1\ub0a8\ub3c4 \ud558\ub3d9\uad70 \uc801\ub7c9\uba74 \uace0\uc808\ub9ac 1209-1", "lat": "35.06103", "lng": "127.778333"}, {"statNm": "\uae08\ub0a8\uba74 \ubcf5\ud569\ucee4\ubba4\ub2c8\ud2f0\uc13c\ud130", "addr": "\uacbd\uc0c1\ub0a8\ub3c4 \ud558\ub3d9\uad70 \uae08\ub0a8\uba74 \uc1a1\ubb38\ub9ac 824-1", "lat": "34.950783", "lng": "127.858453"}, {"statNm": "\uad6c\uc7ac\ubd09\uc790\uc5f0\ud734\uc591\ub9bc", "addr": "\uacbd\uc0c1\ub0a8\ub3c4 \ud558\ub3d9\uad70 \uc801\ub7c9\uba74 \uc11c\ub9ac 1765-13", "lat": "35.128028", "lng": "127.74567"}, {"statNm": "\uccad\uc18c\ub144\uc218\ub828\uc6d0", "addr": "\uacbd\uc0c1\ub0a8\ub3c4 \ud558\ub3d9\uad70 \uc911\ud3c9\ub9ac 763", "lat": "34.982526", "lng": "127.894606"}, {"statNm": "\uce60\uc6d0\uba74 \ub3c4\uc11c\uad00 \uc8fc\ucc28\uc7a5", "addr": "\uacbd\uc0c1\ub0a8\ub3c4 \ud568\uc548\uad70 \uce60\uc6d0\uc74d \uc6a9\uc0b0\ub9ac 144-2", "lat": "35.304764", "lng": "128.515922"}, {"statNm": "\ud569\ucc9c\uad70\ubbfc\uccb4\uc721\uad00(\uc77c\ud574\uacf5\uc6d0 \uacf5\uc124\uc8fc\ucc28\uc7a5)", "addr": "\uacbd\uc0c1\ub0a8\ub3c4 \ud569\ucc9c\uad70 \ud569\ucc9c\uc74d \ud569\ucc9c\ub9ac 925-2", "lat": "35.561124", "lng": "128.153891"}, {"statNm": "\uc0bc\uac00\ube0c\ub79c\ub4dc\uc721\ud0c0\uc6b4", "addr": "\uacbd\uc0c1\ub0a8\ub3c4 \ud569\ucc9c\uad70 \uc0bc\uac00\uba74 \uc18c\uc624\ub9ac 450-25", "lat": "35.413312", "lng": "128.11835"}, {"statNm": "\ud558\uccad\uc2a4\ud3ec\uce20\ud0c0\uc6b4", "addr": "\uacbd\uc0c1\ub0a8\ub3c4 \uac70\uc81c\uc2dc \ud558\uccad\uba74 \uc2e4\uc804\ub9ac 656-2", "lat": "34.958278", "lng": "128.651713"}, {"statNm": "\ubc30\ub0b4\uace8\ud64d\ubcf4\uad00", "addr": "\uacbd\uc0c1\ub0a8\ub3c4 \uc591\uc0b0\uc2dc \uc6d0\ub3d9\uba74 \uc120\ub9ac 1421-5", "lat": "35.48595", "lng": "128.984693"}, {"statNm": "\uace4\ucda9\uc0dd\ud0dc\ud559\uc2b5\uad00 \uc8fc\ucc28\uc7a5", "addr": "\uacbd\uc0c1\ub0a8\ub3c4 \uc758\ub839\uad70 \uc758\ub839\uc74d \ubb34\uc804\ub9ac 124-1", "lat": "35.319692", "lng": "128.282267"}, {"statNm": "\ucc3d\ub155\uc2a4\ud3ec\uce20\ud30c\ud06c", "addr": "\uacbd\uc0c1\ub0a8\ub3c4 \ucc3d\ub155\uad70 \ubd80\uace1\uba74 \uc0ac\ucc3d\ub9ac 328", "lat": "35.434565", "lng": "128.59224"}, {"statNm": "\ud30c\ud06c\ub79c\ub4dc\uc606 \uacf5\uc601\uc8fc\ucc28\uc7a5", "addr": "\uacbd\uc0c1\ub0a8\ub3c4 \ucc3d\uc6d0\uc2dc \uc9c4\ud574\uad6c \ud0dc\ubc31\ub3d9 104", "lat": "35.170449", "lng": "128.655602"}, {"statNm": "\ubd80\uc0b0\uacbd\ub0a8\uc5f0\uc218\uc6d0", "addr": "\uacbd\uc0c1\ub0a8\ub3c4 \ucc3d\uc6d0\uc2dc \uc9c4\ud574\uad6c \ub0a8\uc591\ub3d9 166-1", "lat": "35.112214", "lng": "128.778985"}, {"statNm": "\uc8fc\uc0c1\uba74\uc0ac\ubb34\uc18c", "addr": "\uacbd\uc0c1\ub0a8\ub3c4 \uac70\ucc3d\uad70 \uc8fc\uc0c1\uba74 \ub3c4\ud3c9\ub9ac 718", "lat": "35.749023", "lng": "127.91326"}, {"statNm": "\uc218\uc591\ub3d9\uc8fc\ubbfc\uc13c\ud130", "addr": "\uacbd\uc0c1\ub0a8\ub3c4 \uac70\uc81c\uc2dc \uc591\uc815\ub3d9 665-1", "lat": "34.887944", "lng": "128.646466"}, {"statNm": "\uc218\uace1\uba74 \ub18d\uc0b0\ubb3c\uc0b0\uc9c0 \uc720\ud1b5\uc13c\ud130", "addr": "\uacbd\uc0c1\ub0a8\ub3c4 \uc9c4\uc8fc\uc2dc \uc218\uace1\uba74 \ub300\ucc9c\ub9ac 118-2", "lat": "35.197927", "lng": "127.930152"}, {"statNm": "\uae38\uace1 \uccb4\uc721\uacf5\uc6d0", "addr": "\uacbd\uc0c1\ub0a8\ub3c4 \ucc3d\ub155\uad70 \uae38\uace1\uba74 \uc99d\uc0b0\ub9ac 901-1", "lat": "35.384708", "lng": "128.56978"}, {"statNm": "\ubcbd\uacc4\uc57c\uc601\uc7a5", "addr": "\uacbd\uc0c1\ub0a8\ub3c4 \uc758\ub839\uad70 \uad81\ub958\uba74 \ubcbd\uacc4\ub9ac 63", "lat": "35.435147", "lng": "128.226941"}, {"statNm": "\uad6d\ubbfc\uac74\uac15\ubcf4\ud5d8\uacf5\ub2e8 \uae40\ud574\uc9c0\uc0ac", "addr": "\uacbd\uc0c1\ub0a8\ub3c4 \uae40\ud574\uc2dc \uc804\ud558\ub85c176\ubc88\uae38 79, 1\uce35", "lat": "35.223576848215", "lng": "128.87445786"}, {"statNm": "\ud55c\uad6d\ud3f4\ub9ac\ud14d\ub300\ud559 \ud56d\uacf5\ucea0\ud37c\uc2a4", "addr": "\uacbd\uc0c1\ub0a8\ub3c4 \uc0ac\ucc9c\uc2dc \ub300\ud559\uae38 46", "lat": "34.947849438808", "lng": "128.10798724"}, {"statNm": "\uc0c1\ubb38\ub3d9\uc8fc\ubbfc\uc13c\ud130", "addr": "\uacbd\uc0c1\ub0a8\ub3c4 \uac70\uc81c\uc2dc \uac70\uc81c\uc911\uc559\ub85c 1641", "lat": "34.867833482867", "lng": "128.63823282"}, {"statNm": "\ud0c4\uc18c\uc5c6\ub294 \ub9c8\uc744(\uc758\uc2e0) \uc0dd\ud0dc\uc8fc\ucc28\uc7a5", "addr": "\uacbd\uc0c1\ub0a8\ub3c4 \ud558\ub3d9\uad70 \ud654\uac1c\uba74 \ub300\uc131\ub9ac 1212-1", "lat": "35.2819955", "lng": "127.6526147"}, {"statNm": "\ud568\uc591\uad70 \uc885\ud569\ud3d0\uae30\ubb3c\ucc98\ub9ac\uc7a5", "addr": "\uacbd\uc0c1\ub0a8\ub3c4 \ud568\uc591\uad70 \ud568\uc591\uc74d \ud568\uc591\ub0a8\uc11c\ub85c 996-166", "lat": "35.5067047", "lng": "127.7483634"}, {"statNm": "\uc11d\uc804\ub3d9\ud589\uc815\ubcf5\uc9c0\uc13c\ud130", "addr": "\uacbd\uc0c1\ub0a8\ub3c4 \ucc3d\uc6d0\uc2dc \ub9c8\uc0b0\ud68c\uc6d0\uad6c \uc11d\uc804\ub3d94\uae38 52", "lat": "35.233115", "lng": "128.572418"}, {"statNm": "\ub300\uc0b0\uba74\ud589\uc815\ubcf5\uc9c0\uc13c\ud130", "addr": "\uacbd\uc0c1\ub0a8\ub3c4 \ucc3d\uc6d0\uc2dc \uc758\ucc3d\uad6c \ub300\uc0b0\uba74 \uac00\uc220\uc0b0\ub2e8\ub3d9\ub85c 10", "lat": "35.3310296", "lng": "128.7087061"}, {"statNm": "\uc131\uc0b0\uc544\ud2b8\ud640", "addr": "\uacbd\uc0c1\ub0a8\ub3c4 \ucc3d\uc6d0\uc2dc \uc758\ucc3d\uad6c \uc911\uc559\ub300\ub85c 181", "lat": "35.2300313", "lng": "128.6836696"}, {"statNm": "\ub0b4\uc11c\uc74d\uc2a4\ud3ec\uce20\uc13c\ud130", "addr": "\uacbd\uc0c1\ub0a8\ub3c4 \ucc3d\uc6d0\uc2dc \ub9c8\uc0b0\ud68c\uc6d0\uad6c \ub0b4\uc11c\uc74d \uc911\ub9ac 391-3", "lat": "35.2497473", "lng": "128.5216128"}, {"statNm": "\uace4\uc591\uccb4\uc721\uacf5\uc6d0 \uc8fc\ucc28\uc7a5", "addr": "\uacbd\uc0c1\ub0a8\ub3c4 \uc0ac\ucc9c\uc2dc \uace4\uc591\uba74 \uc11c\uc815\ub9ac 83", "lat": "35.061452750462", "lng": "127.961088652"}, {"statNm": "\uc7a5\uc720\ub3c4\uc11c\uad00", "addr": "\uacbd\uc0c1\ub0a8\ub3c4 \uae40\ud574\uc2dc \ub300\uccad\ub85c176\ubc88\uae38 7", "lat": "35.191353658729", "lng": "128.797031580"}, {"statNm": "\uae40\ud574\uc0b0\uc5c5\uc9c4\ud765\uc758\uc0dd\uba85\uc735\ud569\uc7ac\ub2e8", "addr": "\uacbd\uc0c1\ub0a8\ub3c4 \uae40\ud574\uc2dc \uace8\ub4e0\ub8e8\ud2b8\ub85c 80-59", "lat": "35.214974720433", "lng": "128.83228128"}, {"statNm": "\ub18d\uc0b0\ubb3c\uc885\ud569\uac00\uacf5\uc13c\ud130", "addr": "\uacbd\uc0c1\ub0a8\ub3c4 \ubc00\uc591\uc2dc \uc0c1\ub0a8\uba74 \uae30\uc0b0\ub9ac 1053", "lat": "35.4456099", "lng": "128.7564157"}, {"statNm": "\ub18d\uc5c5\uae30\uc220\uc13c\ud130", "addr": "\uacbd\uc0c1\ub0a8\ub3c4 \ubc00\uc591\uc2dc \uc0c1\ub0a8\uba74 \uae30\uc0b0\ub9ac 1039", "lat": "35.446988368703", "lng": "128.756266405"}, {"statNm": "\uc0b0\ub0b4\uba74 \ud589\uc815\ubcf5\uc9c0\uc13c\ud130", "addr": "\uacbd\uc0c1\ub0a8\ub3c4 \ubc00\uc591\uc2dc \uc0b0\ub0b4\uba74 \uc0b0\ub0b4\ub85c 322", "lat": "35.5846907", "lng": "128.8806439"}, {"statNm": "\ud568\uc548\uad70\ub18d\uc5c5\uae30\uc220\uc13c\ud130", "addr": "\uacbd\uc0c1\ub0a8\ub3c4 \ud568\uc548\uad70 \uac00\uc57c\uc74d \ud568\uc548\ub300\ub85c 755", "lat": "35.2939896", "lng": "128.3978479"}, {"statNm": "\uc194\uc815\uc194\ubc14\ub78c\ud574\ubcc0\uc8fc\ucc28\uc7a5", "addr": "\uacbd\uc0c1\ub0a8\ub3c4 \ub0a8\ud574\uad70 \ubbf8\uc870\uba74 \uc1a1\uc815\ub9ac 1133-1", "lat": "34.723706270411", "lng": "128.02459962"}, {"statNm": "\ud568\uc591\uad70\uccad \uc8fc\ucc28\uc7a5", "addr": "\uacbd\uc0c1\ub0a8\ub3c4 \ud568\uc591\uad70 \ud568\uc591\uc74d \uace0\uc6b4\ub85c 35", "lat": "35.520240302074", "lng": "127.72455714"}, {"statNm": "\uc9c4\uc8fc\uad6d\ud1a0\uad00\ub9ac\uc0ac\ubb34\uc18c", "addr": "\uacbd\uc0c1\ub0a8\ub3c4 \uc9c4\uc8fc\uc2dc \ub0a8\uac15\ub85c 50", "lat": "35.1637333", "lng": "128.0378899"}, {"statNm": "\uc9c4\uc601\uad6d\ud1a0\uad00\ub9ac\uc0ac\ubb34\uc18c", "addr": "\uacbd\uc0c1\ub0a8\ub3c4 \uae40\ud574\uc2dc \uc9c4\uc601\uc74d \ud558\uacc4\ub85c 70", "lat": "35.285779756994", "lng": "128.71200697"}, {"statNm": "\ucc3d\uc6d0\uc5ed\uc0ac\ubbfc\uc18d\uad00", "addr": "\uacbd\uc0c1\ub0a8\ub3c4 \ucc3d\uc6d0\uc2dc \uc758\ucc3d\uad6c \uc0ac\ub9bc\ub3d9 70", "lat": "35.2439314", "lng": "128.6811405"}, {"statNm": "\uc9c4\uc131\ub18d\uacf5\ub2e8\uc9c0 \uc8fc\ucc28\uc7a5", "addr": "\uacbd\uc0c1\ub0a8\ub3c4 \uc9c4\uc8fc\uc2dc \uc9c4\uc131\uba74 \ub3d9\ubd80\ub85c1259\ubc88\uae38 32", "lat": "35.1799765", "lng": "128.2198122"}, {"statNm": "\uc9c4\uc8fc\uc9c0\uc2dd\uc0b0\uc5c5\uc13c\ud130", "addr": "\uacbd\uc0c1\ub0a8\ub3c4 \uc9c4\uc8fc\uc2dc \ub9dd\uacbd\ub0a8\uae38 60\ubc88\uae38 18", "lat": "35.183593094978", "lng": "128.08489122"}, {"statNm": "\uc870\uba85\uad70\ucd1d \uc8fc\ucc28\uc7a5", "addr": "\uacbd\uc0c1\ub0a8\ub3c4 \uc0ac\ucc9c\uc2dc \uc6a9\ud604\uba74 \ud1b5\uc591\ub9ac 249", "lat": "35.04065696405", "lng": "128.0480343329"}, {"statNm": "\uc18c\ubc29\uad50\uc721\ud6c8\ub828\uc7a5", "addr": "\uacbd\uc0c1\ub0a8\ub3c4 \uc758\ub839\uad70 \uac00\ub840\uba74 \uac00\ub840\ub85c 677", "lat": "35.3772045", "lng": "128.2339601"}, {"statNm": "\ud569\ucc9c\ubc15\ubb3c\uad00", "addr": "\uacbd\uc0c1\ub0a8\ub3c4 \ud569\ucc9c\uad70 \uc30d\ucc45\uba74 \uc131\uc0b0\ub9ac 234", "lat": "35.5797407", "lng": "128.2840263"}, {"statNm": "\uc120\uc9c4\ub9ac\uc131 \uc8fc\ucc28\uc7a5", "addr": "\uacbd\uc0c1\ub0a8\ub3c4 \uc0ac\ucc9c\uc2dc \uc6a9\ud604\uba74 \uc120\uc9c4\uae38 467", "lat": "35.042908098580", "lng": "128.04419616"}, {"statNm": "\uc2dc\ub8e8\ubd09\uacf5\uc601\uc8fc\ucc28\uc7a5", "addr": "\uacbd\uc0c1\ub0a8\ub3c4 \ucc3d\uc6d0\uc2dc \uc9c4\ud574\uad6c \uc790\uc740\ub3d9 401-2", "lat": "35.1481279", "lng": "128.7112329"}, {"statNm": "\uc0ac\ucc9c\uc2dc\uccad", "addr": "\uacbd\uc0c1\ub0a8\ub3c4 \uc0ac\ucc9c\uc2dc \uc6a9\ud604\uba74 \uc2dc\uccad\ub85c 77 (\ub355\uace1\ub9ac 501)", "lat": "35.0036209", "lng": "128.064206"}, {"statNm": "\ub0b4\uc11c\ub18d\uc0b0\ubb3c\ub3c4\ub9e4\uc2dc\uc7a5 \ucc44\uc18c\uacf5\ud310\uc7a5\uc55e", "addr": "\uacbd\uc0c1\ub0a8\ub3c4 \ucc3d\uc6d0\uc2dc \ub9c8\uc0b0\ud68c\uc6d0\uad6c \ub0b4\uc11c\uc74d \uc720\ud1b5\ub2e8\uc9c0\ub85c", "lat": "35.255635", "lng": "128.511913"}, {"statNm": "\uae40\ud574\uc720\ud1b5\uc13c\ud130", "addr": "\uacbd\uc0c1\ub0a8\ub3c4 \uae40\ud574\uc2dc \uce60\uc0b0\ub85c 128", "lat": "35.184192", "lng": "128.836648"}, {"statNm": "\ub86f\ub370\ub9c8\ud2b8 \ud1b5\uc601\uc810 \uc625\uc0c1(\uc9c0\uc0c13\uce35)\uc8fc\ucc28\uc7a5", "addr": "\uacbd\uc0c1\ub0a8\ub3c4 \ud1b5\uc601\uc2dc \ubb34\uc804\ub300\ub85c", "lat": "34.860807", "lng": "128.428305"}, {"statNm": "\ud55c\uad6d\ud3f4\ub9ac\ud14d7\ub300\ud559 \ucc3d\uc6d0\ucea0\ud37c\uc2a4 \ubcf4\uc721\uad00 \uc55e", "addr": "\uacbd\uc0c1\ub0a8\ub3c4 \ucc3d\uc6d0\uc2dc \uc131\uc0b0\uad6c \uc678\ub3d9\ubc18\ub9bc\ub85c", "lat": "35.228511", "lng": "128.668974"}, {"statNm": "\uc774\ub9c8\ud2b8 \uc591\uc0b0\uc810", "addr": "\uacbd\uc0c1\ub0a8\ub3c4 \uc591\uc0b0\uc2dc \uc591\uc0b0\uc5ed6\uae38 12", "lat": "35.336834", "lng": "129.026741"}, {"statNm": "\uc774\ub9c8\ud2b8 \ud1b5\uc601\uc810", "addr": "\uacbd\uc0c1\ub0a8\ub3c4 \ud1b5\uc601\uc2dc \uad11\ub3c4\uba74 \uc8fd\ub9bc4\ub85c 9", "lat": "34.887106", "lng": "128.418269"}, {"statNm": "\uac70\uc81c\uad6d\ubbfc\uccb4\uc721\uc13c\ud130", "addr": "\uacbd\uc0c1\ub0a8\ub3c4 \uac70\uc81c\uc2dc \uac70\uc81c\uba74 \uc11c\uc815\ub9ac 790-1", "lat": "34.8539289", "lng": "128.5813105"}, {"statNm": "\uac1c\ucc9c\uba74\uc0ac\ubb34\uc18c \uc8fc\ucc28\uc7a5", "addr": "\uacbd\uc0c1\ub0a8\ub3c4 \uace0\uc131\uad70 \uac1c\ucc9c\uba74 \uc625\ucc9c\ub85c 1278", "lat": "35.0985295", "lng": "128.2589495"}, {"statNm": "\uac70\ub958\uba74\uc0ac\ubb34\uc18c \uc8fc\ucc28\uc7a5", "addr": "\uacbd\uc0c1\ub0a8\ub3c4 \uace0\uc131\uad70 \uac70\ub958\uba74 \ub2f9\ub3d93\uae38 5", "lat": "34.99183689", "lng": "128.40443497"}, {"statNm": "\uad6c\ub9cc\uba74\uc0ac\ubb34\uc18c \uc8fc\ucc28\uc7a5", "addr": "\uacbd\uc0c1\ub0a8\ub3c4 \uace0\uc131\uad70 \uad6c\ub9cc\uba74 \uc601\ud68c\ub85c 1765", "lat": "35.0878113", "lng": "128.3348437"}, {"statNm": "\ub300\uac00\uba74\uc0ac\ubb34\uc18c \uc8fc\ucc28\uc7a5", "addr": "\uacbd\uc0c1\ub0a8\ub3c4 \uace0\uc131\uad70 \ub300\uac00\uba74 \ub300\uac00\ub85c 471", "lat": "35.0171391", "lng": "128.2985725"}, {"statNm": "\uc0bc\uc0b0\uba74\uc0ac\ubb34\uc18c \uc8fc\ucc28\uc7a5", "addr": "\uacbd\uc0c1\ub0a8\ub3c4 \uace0\uc131\uad70 \uc0bc\uc0b0\uba74 \uacf5\ub8e1\ub85c 2137", "lat": "34.9367554", "lng": "128.2734778"}, {"statNm": "\uc0c1\ub9ac\uba74\uc0ac\ubb34\uc18c \uc8fc\ucc28\uc7a5", "addr": "\uacbd\uc0c1\ub0a8\ub3c4 \uace0\uc131\uad70 \uc0c1\ub9ac\uba74 \ucc99\ubc88\uc8151\uae38 105", "lat": "34.9997367", "lng": "128.1862299"}, {"statNm": "\uc601\ud604\uba74\uc0ac\ubb34\uc18c \uc8fc\ucc28\uc7a5", "addr": "\uacbd\uc0c1\ub0a8\ub3c4 \uace0\uc131\uad70 \uc601\ud604\uba74 \uce68\uc810\ub9ac 356-2", "lat": "35.0541445", "lng": "128.2057497"}, {"statNm": "\ud558\uc774\uba74\uc0ac\ubb34\uc18c \uc8fc\ucc28\uc7a5", "addr": "\uacbd\uc0c1\ub0a8\ub3c4 \uace0\uc131\uad70 \ud558\uc774\uba74 \uacf5\ub8e1\ub85c 979", "lat": "35.4216175", "lng": "127.8685360"}, {"statNm": "\ud558\uc77c\uba74\uc0ac\ubb34\uc18c \uc8fc\ucc28\uc7a5", "addr": "\uacbd\uc0c1\ub0a8\ub3c4 \uace0\uc131\uad70 \ud558\uc77c\uba74 \uacf5\ub8e1\ub85c 979", "lat": "34.9433200", "lng": "128.1928425"}, {"statNm": "\ud68c\ud654\uba74\uc0ac\ubb34\uc18c \uc8fc\ucc28\uc7a5", "addr": "\uacbd\uc0c1\ub0a8\ub3c4 \uace0\uc131\uad70 \ud68c\ud654\uba74 \ubc30\ub454\ub85c 80", "lat": "35.0604335", "lng": "128.3730498"}, {"statNm": "\ubd09\ud669\ub3d9\uc720\uc801\uc9c0", "addr": "\uacbd\uc0c1\ub0a8\ub3c4 \uae40\ud574\uc2dc \ubd09\ud669\ub3d9 465", "lat": "35.2324727", "lng": "128.8746114"}, {"statNm": "\uae40\ud574\ud558\ud0a4\uacbd\uae30\uc7a5", "addr": "\uacbd\uc0c1\ub0a8\ub3c4 \uae40\ud574\uc2dc \uc2e0\uc5b4\uc0b0\uae38 44", "lat": "35.2560185", "lng": "128.9070152"}, {"statNm": "\uae40\ud574\ubb38\ud654\uc758\uc804\ub2f9", "addr": "\uacbd\uc0c1\ub0a8\ub3c4 \uae40\ud574\uc2dc \uae40\ud574\ub300\ub85c 2060", "lat": "35.243612", "lng": "128.869420"}, {"statNm": "\uae40\ud574\uc911\uc18c\uae30\uc5c5\ube44\uc988\ub2c8\uc2a4\uc13c\ud130", "addr": "\uacbd\uc0c1\ub0a8\ub3c4 \uae40\ud574\uc2dc \uc8fc\ucd0c\uba74 \uace8\ub4e0\ub8e8\ud2b8\ub85c 80-16", "lat": "35.21265548", "lng": "128.83131973"}, {"statNm": "\ub0a8\ud574\uad70\uc885\ud569\uc0ac\ud68c\ubcf5\uc9c0\uad00", "addr": "\uacbd\uc0c1\ub0a8\ub3c4 \ub0a8\ud574\uad70 \ub0a8\ud574\uc74d \ub9dd\uc6b4\ub85c 32", "lat": "34.8383382", "lng": "127.8908154"}, {"statNm": "\ubc00\uc591\uc544\ub9ac\ub791 \ucc9c\ubb38\ub300", "addr": "\uacbd\uc0c1\ub0a8\ub3c4 \ubc00\uc591\uc2dc \ubc00\uc591\ub300\uacf5\uc6d0\ub85c 86", "lat": "35.50204940", "lng": "128.76138311"}, {"statNm": "\uc0ac\ucc9c\uc74d\uc885\ud569\ud589\uc815\ud0c0\uc6b4", "addr": "\uacbd\uc0c1\ub0a8\ub3c4 \uc0ac\ucc9c\uc2dc \uc0ac\ucc9c\uc74d \uc218\uc11d\ub9ac 126", "lat": "35.0875407", "lng": "128.08828720"}, {"statNm": "\uc0bc\uc7a5\uba74\uc0ac\ubb34\uc18c", "addr": "\uacbd\uc0c1\ub0a8\ub3c4 \uc0b0\uccad\uad70 \uc0bc\uc7a5\uba74 \ub355\uc0b0\ub300\ud3ec\ub85c 257", "lat": "35.2980419", "lng": "127.8318175"}, {"statNm": "\ub2e8\uc131\uba74\uc0ac\ubb34\uc18c", "addr": "\uacbd\uc0c1\ub0a8\ub3c4 \uc0b0\uccad\uad70 \ub2e8\uc131\uba74 \ubaa9\ud654\ub85c 985", "lat": "35.2991194", "lng": "128.9876557"}, {"statNm": "\uc2e0\ub4f1\uba74\uc0ac\ubb34\uc18c", "addr": "\uacbd\uc0c1\ub0a8\ub3c4 \uc0b0\uccad\uad70 \uc2e0\ub4f1\uba74 \uc2e0\ucc28\ub85c 576", "lat": "35.3828030", "lng": "128.0070211"}, {"statNm": "\uc720\uace1\uba74\uc0ac\ubb34\uc18c \uc8fc\ucc28\uc7a5", "addr": "\uacbd\uc0c1\ub0a8\ub3c4 \uc758\ub839\uad70 \uc720\uace1\uba74 \ub9c8\uc7a5\ub85c 10", "lat": "35.4330222", "lng": "128.3138635"}, {"statNm": "\ubd80\ub9bc\uacf5\uc601\uc8fc\ucc28\uc7a5", "addr": "\uacbd\uc0c1\ub0a8\ub3c4 \uc758\ub839\uad70 \ubd80\ub9bc\uba74 \uc2e0\ubc18\ub9ac 398", "lat": "35.4661886", "lng": "128.3262315"}, {"statNm": "\uc9c0\uc815\uba74\uc885\ud569\uc6b4\ub3d9\uc7a5", "addr": "\uacbd\uc0c1\ub0a8\ub3c4 \uc758\ub839\uad70 \uc9c0\uc815\uba74 \ubd09\uace1\ub9ac511-2", "lat": "35.3794593", "lng": "128.3946687"}, {"statNm": "\uc2dc\uc678\ubc84\uc2a4\ud130\ubbf8\ub110 (\uacbd\ub0a8 \uc758\ub839\uad70)", "addr": "\uacbd\uc0c1\ub0a8\ub3c4 \uc758\ub839\uad70 \uc758\ub839\uc74d \uc11c\ub3d9\ub9ac 277", "lat": "35.3199803", "lng": "128.2542802"}, {"statNm": "\uc758\ub839\uc2dc\uc7a5\uc81c1\uc8fc\ucc28\uc7a5", "addr": "\uacbd\uc0c1\ub0a8\ub3c4 \uc758\ub839\uad70 \uc758\ub839\uc74d \uc11c\ub3d9\ub9ac 509-4", "lat": "35.3170164", "lng": "128.2604734"}, {"statNm": "\uc774\ubc18\uc131\uba74\uc0ac\ubb34\uc18c", "addr": "\uacbd\uc0c1\ub0a8\ub3c4 \uc9c4\uc8fc\uc2dc \uc624\ubd09\uc0b0\ub85c 719", "lat": "35.1393698", "lng": "128.3262865"}, {"statNm": "\ud3c9\uac70\uacf5\uc601\uc8fc\ucc28\uc7a5", "addr": "\uacbd\uc0c1\ub0a8\ub3c4 \uc9c4\uc8fc\uc2dc \ud3c9\uac70\ub3d9 202-1", "lat": "35.1722552", "lng": "128.0618444"}, {"statNm": "\uc9c4\uc8fc\uc2e4\ub0b4\uc218\uc601\uc7a5", "addr": "\uacbd\uc0c1\ub0a8\ub3c4 \uc9c4\uc8fc\uc2dc \ub0a8\uac15\ub85c 1655", "lat": "35.2094108", "lng": "128.1248224"}, {"statNm": "\ub098\ubd88\ucc9c\ubcf5\uac1c\ub3c4\ub85c \uacf5\uc601\uc8fc\ucc28\uc7a5", "addr": "\uacbd\uc0c1\ub0a8\ub3c4 \uc9c4\uc8fc\uc2dc \uc2e0\uc548\ub3d9 9-3", "lat": "35.1885431", "lng": "128.0722122"}, {"statNm": "\ub17c\uac1c\uc2dc\uc7a5 \uacf5\uc601\uc8fc\ucc28\uc7a5", "addr": "\uacbd\uc0c1\ub0a8\ub3c4 \uc9c4\uc8fc\uc2dc \uc7a5\ub300\ub85c43\ubc88\uae38 3-1", "lat": "35.1951486", "lng": "128.0876258"}, {"statNm": "\uc815\ucd0c\uba74\uc0ac\ubb34\uc18c", "addr": "\uacbd\uc0c1\ub0a8\ub3c4 \uc9c4\uc8fc\uc2dc \uc815\ucd0c\uba74 \ud654\uac1c\ub9ac 976", "lat": "35.1314730", "lng": "128.1025175"}, {"statNm": "\ucc3d\ub155\uc74d\uc0ac\ubb34\uc18c", "addr": "\uacbd\uc0c1\ub0a8\ub3c4 \ucc3d\ub155\uad70 \ucc3d\ub155\uc74d \uc885\ub85c 38-9", "lat": "35.5409246", "lng": "128.5010126"}, {"statNm": "\uc870\uc0b0\uacf5\uc601\uc8fc\ucc28\uc7a5", "addr": "\uacbd\uc0c1\ub0a8\ub3c4 \ucc3d\ub155\uad70 \ucc3d\ub155\uc74d \uc870\uc0b0\ub9ac 16", "lat": "35.5378079", "lng": "128.4851175"}, {"statNm": "\uc131\uc0b0\ub178\uc778\ubcf5\uc9c0\uad00", "addr": "\uacbd\uc0c1\ub0a8\ub3c4 \ucc3d\uc6d0\uc2dc \uc131\uc0b0\uad6c \ucc3d\uc774\ub300\ub85c 781", "lat": "35.2159250", "lng": "128.7043743"}, {"statNm": "\uc9c4\ub3d9\uc885\ud569\ubcf5\uc9c0\uad00", "addr": "\uacbd\uc0c1\ub0a8\ub3c4 \ucc3d\uc6d0\uc2dc \ub9c8\uc0b0\ud569\ud3ec\uad6c \uc9c4\ub3d9\uba74 \uc2e0\uc11c\ucd0c\ub85c15", "lat": "35.1166146", "lng": "128.4845083"}, {"statNm": "\uc0c1\ubcf5\uacf5\uc6d0", "addr": "\uacbd\uc0c1\ub0a8\ub3c4 \ucc3d\uc6d0\uc2dc \uc131\uc0b0\uad6c \uacf5\ub2e8\ub85c 474", "lat": "35.1973046", "lng": "128.6622088"}, {"statNm": "\ucc3d\uc6d0\ucd95\uad6c\uc13c\ud130", "addr": "\uacbd\uc0c1\ub0a8\ub3c4 \ucc3d\uc6d0\uc2dc \uc131\uc0b0\uad6c \ube44\uc74c\ub85c 97", "lat": "35.2217293", "lng": "128.7053470"}, {"statNm": "\uac00\uc57c\uc804\ud1b5\uc2dc\uc7a5", "addr": "\uacbd\uc0c1\ub0a8\ub3c4 \ud568\uc548\uad70 \uac00\uc57c\uc74d \ub9d0\uc0b0\ub9ac113", "lat": "35.2764008", "lng": "128.4085196"}, {"statNm": "\uce60\uc11c\uba74\uc0ac\ubb34\uc18c", "addr": "\uacbd\uc0c1\ub0a8\ub3c4 \ud568\uc548\uad70 \uce60\uc11c\uba74 \uccad\uacc42\uae38 35", "lat": "35.33328959", "lng": "128.49833071"}, {"statNm": "\uac00\ud68c\uba74\uc0ac\ubb34\uc18c", "addr": "\uacbd\uc0c1\ub0a8\ub3c4 \ud569\ucc9c\uad70 \uac00\ud68c\uba74 \ud669\ub9e4\uc0b0\ub85c 52", "lat": "35.4349244", "lng": "128.0337785"}, {"statNm": "\ud55c\ub824\ud574\uc0c1\uad6d\ub9bd\uacf5\uc6d0 \ud574\uae08\uac15 \uc8fc\ucc28\uc7a5", "addr": "\uacbd\uc0c1\ub0a8\ub3c4 \uac70\uc81c\uc2dc \ub0a8\ubd80\uba74 \uac08\uacf6\ub9ac 85-2", "lat": "34.7380989", "lng": "128.6737220"}, {"statNm": "\uace0\uc131\uad70\uc758\ud68c \uc8fc\ucc28\uc7a5", "addr": "\uacbd\uc0c1\ub0a8\ub3c4 \uace0\uc131\uad70 \uace0\uc131\uc74d \ub300\uac00\ub85c 13", "lat": "34.9838008", "lng": "128.3186308"}, {"statNm": "\uace0\uc131\uad70 \ud3d0\uae30\ubb3c\uc885\ud569\ucc98\ub9ac\uc7a5", "addr": "\uacbd\uc0c1\ub0a8\ub3c4 \uace0\uc131\uad70 \uc0bc\uc0b0\uba74 \ub300\ub3c5\uc0b0\uc5c5\ub85c 7", "lat": "34.9607033", "lng": "128.3127061"}, {"statNm": "\ub300\uac00\uc800\uc218\uc9c0\uc5f0\uaf43\ud14c\ub9c8\uacf5\uc6d0 \uc8fc\ucc28\uc7a5", "addr": "\uacbd\uc0c1\ub0a8\ub3c4 \uace0\uc131\uad70 \ub300\uac00\uba74 \uc720\ud765\ub9ac 304", "lat": "35.0082948", "lng": "128.2987137"}, {"statNm": "\uace0\uc131\uad70\ubcf4\uac74\uc18c \uc8fc\ucc28\uc7a5", "addr": "\uacbd\uc0c1\ub0a8\ub3c4 \uace0\uc131\uad70 \uace0\uc131\uc74d \ub0a8\ud3ec\ub85c79\ubc88\uae38 103-3", "lat": "34.9694961", "lng": "128.3150966"}, {"statNm": "\ubb34\ucc99\uc0b0 \uc8fc\ucc28\uc7a5", "addr": "\uacbd\uc0c1\ub0a8\ub3c4 \uae40\ud574\uc2dc \uc0dd\ub9bc\uba74 \uc0dd\ucca0\ub9ac 201", "lat": "35.3470854", "lng": "128.8549582"}, {"statNm": "\ucc3d\uc120\uc0dd\ud65c \uccb4\uc721\uacf5\uc6d0", "addr": "\uacbd\uc0c1\ub0a8\ub3c4 \ub0a8\ud574\uad70 \ucc3d\uc120\uba74 \uc0c1\uc8fd\ub9ac 10-9", "lat": "34.8622626", "lng": "128.0157225"}, {"statNm": "\uc11c\uba74\uc0ac\ubb34\uc18c", "addr": "\uacbd\uc0c1\ub0a8\ub3c4 \ub0a8\ud574\uad70 \uc11c\uba74 \uc2a4\ud3ec\uce20\ub85c 676", "lat": "34.8102374", "lng": "127.8379232"}, {"statNm": "\ub0a8\ud574\uc2e4\ub0b4\uccb4\uc721\uad00", "addr": "\uacbd\uc0c1\ub0a8\ub3c4 \ub0a8\ud574\uad70 \ub0a8\ud574\uc74d \ud654\uc804\ub85c43\ubc88\uae38 16", "lat": "34.83355", "lng": "127.8942124"}, {"statNm": "\uc911\ud604\ud790\ub9c1\uc13c\ud130", "addr": "\uacbd\uc0c1\ub0a8\ub3c4 \ub0a8\ud574\uad70 \uc11c\uba74 \ub0a8\uc11c\ub300\ub85c 2645", "lat": "34.8746487", "lng": "127.8284182"}, {"statNm": "\ubb38\ud654\uc608\uc220\ud68c\uad00 \uc8fc\ucc28\uc7a5", "addr": "\uacbd\uc0c1\ub0a8\ub3c4 \uc0ac\ucc9c\uc2dc \ub3d9\ub9bc\ub3d9 200", "lat": "34.9412753", "lng": "128.0753973"}, {"statNm": "\uad6d\ubbfc\uc5f0\uae08\uacf5\ub2e8 \uc0ac\ucc9c\ub0a8\ud574\uc9c0\uc0ac", "addr": "\uacbd\uc0c1\ub0a8\ub3c4 \uc0ac\ucc9c\uc2dc \uc6a9\ud604\uba74 \ub300\ubc2d\ub2f4\ub85c 13", "lat": "35.0083953", "lng": "128.0605416"}, {"statNm": "\uc0bc\ucc9c\ud3ec\uc720\ub78c\uc120 \uad00\uad11\uc885\ud569\uc9c0\uc6d0\uc2dc\uc124", "addr": "\uacbd\uc0c1\ub0a8\ub3c4 \uc0ac\ucc9c\uc2dc \ub300\ubc29\ub3d9 765-3", "lat": "34.9287627", "lng": "128.06310270"}, {"statNm": "\uc0b0\uccad\ub18d\uc5c5\uae30\uc220\uc13c\ud130", "addr": "\uacbd\uc0c1\ub0a8\ub3c4 \uc0b0\uccad\uad70 \uc0b0\uccad\uc74d \ubb3c\uc548\uc2e4\ub85c8", "lat": "35.4054609", "lng": "127.9008281"}, {"statNm": "\uae08\uc11c\uba74(\uc628\ub204\ub9ac\uad00)", "addr": "\uacbd\uc0c1\ub0a8\ub3c4 \uc0b0\uccad\uad70 \uae08\uc11c\uba74 \ub9e4\ucd0c\ub9ac 710-4", "lat": "35.4174440", "lng": "127.8628701"}, {"statNm": "\ud55c\uad6d\ub3c4\ub85c\uacf5\uc0ac \uc0b0\uccad\uc9c0\uc0ac", "addr": "\uacbd\uc0c1\ub0a8\ub3c4 \uc0b0\uccad\uad70 \uce5c\ud658\uacbd\ub85c 2593-43", "lat": "35.4216175", "lng": "127.8685360"}, {"statNm": "\uc9c0\ub9ac\uc0b0\uad6d\ub9bd\uacf5\uc6d0 \uacbd\ub0a8\uc0ac\ubb34\uc18c", "addr": "\uacbd\uc0c1\ub0a8\ub3c4 \uc0b0\uccad\uad70 \uc2dc\ucc9c\uba74 \ub0a8\uba85\ub85c 376", "lat": "35.2700176", "lng": "127.8533788"}, {"statNm": "\ub355\uacc4\ub3d9 \uc81c1\uacf5\uc601\uc8fc\ucc28\uc7a5", "addr": "\uacbd\uc0c1\ub0a8\ub3c4 \uc591\uc0b0\uc2dc \ub355\uacc4\ub3d9 989", "lat": "35.3749599", "lng": "129.1508988"}, {"statNm": "\ud55c\uad6d\ub3c4\ub85c\uacf5\uc0ac \uc591\uc0b0\uc9c0\uc0ac", "addr": "\uacbd\uc0c1\ub0a8\ub3c4 \uc591\uc0b0\uc2dc \ub3d9\uba74 \uc591\uc0b0\ub300\ub85c 542-45", "lat": "35.3225047", "lng": "129.0320021"}, {"statNm": "\uae08\uace1\uba74\uc0ac\ubb34\uc18c", "addr": "\uacbd\uc0c1\ub0a8\ub3c4 \uc9c4\uc8fc\uc2dc \uae08\uace1\uba74 \uc6d4\uc544\uc0b0\ub85c 140", "lat": "35.0941845", "lng": "128.1880206"}, {"statNm": "\ubc14\uc774\uc624\uc0b0\uc5c5\uc9c4\ud765\uc6d0", "addr": "\uacbd\uc0c1\ub0a8\ub3c4 \uc9c4\uc8fc\uc2dc \ubb38\uc0b0\uc74d \uc6d4\uc544\uc0b0\ub85c 991", "lat": "35.1609239", "lng": "128.1630138"}, {"statNm": "\ud55c\uad6d\ub3c4\ub85c\uacf5\uc0ac \ucc3d\ub155\uc9c0\uc0ac", "addr": "\uacbd\uc0c1\ub0a8\ub3c4 \ucc3d\ub155\uad70 \ucc3d\ub155\uc74d \uc6b0\ud3ec\uc720\uc5b4\ub18d\ub85c 684", "lat": "35.53673900", "lng": "128.47920660"}, {"statNm": "\uad6d\ub9bd\uc0dd\ud0dc\uc6d0 \uc2b5\uc9c0\uc13c\ud130", "addr": "\uacbd\uc0c1\ub0a8\ub3c4 \ucc3d\ub155\uad70 \uc774\ubc29\uba74 \uc774\uc0b0\uae38 38", "lat": "35.5339285", "lng": "128.3842828"}, {"statNm": "\uc0bc\uc9c4\uccb4\uc721\uc2dc\uc124", "addr": "\uacbd\uc0c1\ub0a8\ub3c4 \ucc3d\uc6d0\uc2dc \uc9c4\ub3d9\uba74 \uc0bc\uc9c4\uc758\uac70\ub300\ub85c 440", "lat": "35.11378409", "lng": "128.47126828"}, {"statNm": "\uc9c4\ud574\uad6c\uccad", "addr": "\uacbd\uc0c1\ub0a8\ub3c4 \ucc3d\uc6d0\uc2dc \uc9c4\ud574\ub300\ub85c 1101", "lat": "35.1323194", "lng": "128.7092482"}, {"statNm": "\ud314\uc6a9\ub18d\uc0b0\ubb3c\ub3c4\ub9e4\uc2dc\uc7a5", "addr": "\uacbd\uc0c1\ub0a8\ub3c4 \ucc3d\uc6d0\uc2dc \uc758\ucc3d\uad6c \ucc28\uc0c1\ub85c18\ubc88\uae38 45", "lat": "35.2287951", "lng": "128.6372843"}, {"statNm": "\ub9c8\uc0b0\uc885\ud569\uc6b4\ub3d9\uc7a5", "addr": "\uacbd\uc0c1\ub0a8\ub3c4 \ucc3d\uc6d0\uc2dc \ub9c8\uc0b0\ud68c\uc6d0\uad6c \uc0bc\ud638\ub85c 63", "lat": "35.2237949", "lng": "128.5809706"}, {"statNm": "\uc2dc\ub9bd\ud14c\ub2c8\uc2a4\uc7a5", "addr": "\uacbd\uc0c1\ub0a8\ub3c4 \ucc3d\uc6d0\uc2dc \uc131\uc0b0\uad6c \ube44\uc74c\ub85c25\ubc88\uae38 17", "lat": "35.2308341", "lng": "128.699075"}, {"statNm": "\ucc3d\uc6d0\uad6d\uc81c\uc0ac\uaca9\uc7a5", "addr": "\uacbd\uc0c1\ub0a8\ub3c4 \ucc3d\uc6d0\uc2dc \uc758\ucc3d\uad6c \uc0ac\ub9bc\ub85c 99\ubc88\uae3863", "lat": "35.2490817", "lng": "128.6845347"}, {"statNm": "\ud55c\uad6d\uad50\ud1b5\uc548\uc804\uacf5\ub2e8 \ucc3d\uc6d0\uac80\uc0ac\uc18c", "addr": "\uacbd\uc0c1\ub0a8\ub3c4 \ucc3d\uc6d0\uc2dc \uc758\ucc3d\uad6c \ucc3d\uc6d0\ub300\ub85c 494", "lat": "35.2290064", "lng": "128.6499141"}, {"statNm": "\uad6d\ubbfc\uc5f0\uae08\uacf5\ub2e8 \ud1b5\uc601\uc9c0\uc0ac", "addr": "\uacbd\uc0c1\ub0a8\ub3c4 \ud1b5\uc601\uc2dc \uad11\ub3c4\uba74 \uc2e0\uc8fd3\uae38 16", "lat": "34.8739506", "lng": "128.4179382"}, {"statNm": "\ud6a1\ucc9c\uba74 \ubcf5\uc9c0\ud68c\uad00", "addr": "\uacbd\uc0c1\ub0a8\ub3c4 \ud558\ub3d9\uad70 \ud6a1\ucc9c\uba74 \ud6a1\ubcf4\uae38 10", "lat": "35.110085", "lng": "127.8087485"}, {"statNm": "\uc591\ubcf4\ubb38\ud654\uc13c\ud130", "addr": "\uacbd\uc0c1\ub0a8\ub3c4 \ud558\ub3d9\uad70 \uc591\ubcf4\uba74 \uc6b4\uc554\ub9ac 154", "lat": "35.046651", "lng": "127.8441555"}, {"statNm": "\ubc31\ubb34\ub3d9\uc8fc\ucc28\uc7a5", "addr": "\uacbd\uc0c1\ub0a8\ub3c4 \ud568\uc591\uad70 \ub9c8\ucc9c\uba74 \uac15\uccad\ub9ac 197-3", "lat": "35.3630808", "lng": "127.6801809"}, {"statNm": "\ud569\ucc9c\uad70 \ub18d\uc5c5\uae30\uc220\uc13c\ud130", "addr": "\uacbd\uc0c1\ub0a8\ub3c4 \ud569\ucc9c\uad70 \ud569\ucc9c\uc74d \ud569\ucc9c\ub9ac 863-1", "lat": "35.56250980", "lng": "128.15979630"}, {"statNm": "\uc57c\ub85c\uba74\uc0ac\ubb34\uc18c", "addr": "\uacbd\uc0c1\ub0a8\ub3c4 \ud569\ucc9c\uad70 \uc57c\ub85c\uba74 \uad6c\uc815\ub9ac 280-3", "lat": "35.5567885", "lng": "128.1668261"}, {"statNm": "\ud669\uac15\ub808\ud3ec\uce20\uacf5\uc6d0", "addr": "\uacbd\uc0c1\ub0a8\ub3c4 \ud569\ucc9c\uad70 \ub300\uc591\uba74 \uc815\uc591\ub9ac 101-9", "lat": "35.5567885", "lng": "128.1668261"}, {"statNm": "\ud669\ub9e4\uc0b0\uad70\ub9bd\uacf5\uc6d0(\uc740\ud589\ub098\ubb34\uc8fc\ucc28\uc7a5)", "addr": "\uacbd\uc0c1\ub0a8\ub3c4 \ud569\ucc9c\uad70 \uac00\ud68c\uba74 \ub454\ub0b4\ub9ac \uc0b0219-16", "lat": "35.4870902", "lng": "127.9843445"}, {"statNm": "\ub2f9\ud56d\ud3ec\uad00\uad11\uc9c0 \uc8fc\ucc28\uc7a5", "addr": "\uacbd\uc0c1\ub0a8\ub3c4 \uace0\uc131\uad70 \ud68c\ud654\uba74 \ubd09\ub3d9\ub9ac 1060-6", "lat": "35.05322275", "lng": "128.39159747"}, {"statNm": "\uc9c4\uc8fc\uc2a4\ud3ec\uce20\ud30c\ud06c", "addr": "\uacbd\uc0c1\ub0a8\ub3c4 \uc9c4\uc8fc\uc2dc  \ubb38\uc0b0\uc74d \uc6d4\uc544\uc0b0\ub85c 973", "lat": "35.15852470", "lng": "128.163705"}, {"statNm": "\uc9c4\uc8fc \ud654\ubb3c\uc790\ub3d9\ucc28 \uacf5\uc601\ucc28\uace0\uc9c0", "addr": "\uacbd\uc0c1\ub0a8\ub3c4 \uc9c4\uc8fc\uc2dc \ud638\ud0c4\ub3d9 769", "lat": "35.16095465", "lng": "128.11588854"}, {"statNm": "\ucc3d\uc6d0\uc2a4\ud3ec\uce20\ud30c\ud06c", "addr": "\uacbd\uc0c1\ub0a8\ub3c4 \ucc3d\uc6d0\uc2dc \uc131\uc0b0\uad6c \uc6d0\uc774\ub300\ub85c 450", "lat": "35.233896", "lng": "128.6628591"}, {"statNm": "\uacbd\uc0c1\ub0a8\ub3c4\uad50\uc721\uccad", "addr": "\uacbd\uc0c1\ub0a8\ub3c4 \ucc3d\uc6d0\uc2dc \uc758\ucc3d\uad6c \uc911\uc559\ub300\ub85c 241", "lat": "35.23474470", "lng": "128.68864520"}, {"statNm": "\uc548\uc815\uc8fc\ucc28\uc7a5", "addr": "\uacbd\uc0c1\ub0a8\ub3c4 \ud1b5\uc601\uc2dc \uad11\ub3c4\uba74 \ud669\ub9ac 1645-2", "lat": "34.9578857", "lng": "128.4200156"}, {"statNm": "\ud1b5\uc601 \uc720\ub78c\uc120 \ud130\ubbf8\ub110", "addr": "\uacbd\uc0c1\ub0a8\ub3c4 \ud1b5\uc601\uc2dc \ub3c4\ub0a8\ub3d9 635", "lat": "34.8277662", "lng": "128.4328477"}, {"statNm": "\ucf00\uc774\ube14\uce74\ud30c\ud06c\ub79c\ub4dc \uc8fc\ucc28\uc7a5", "addr": "\uacbd\uc0c1\ub0a8\ub3c4 \ud1b5\uc601\uc2dc \ub3c4\ub0a8\ub3d9 354", "lat": "34.8258380", "lng": "128.4229770"}, {"statNm": "\uac70\ucc3d\uc0ac\uac74\uc0ac\uc5c5\uc18c", "addr": "\uacbd\uc0c1\ub0a8\ub3c4 \uac70\ucc3d\uad70 \uc2e0\uc6d0\uba74 \uc2e0\ucc28\ub85c2924", "lat": "35.555478", "lng": "127.925965"}, {"statNm": "\uc548\ub3d9\uccb4\uc721\uacf5\uc6d0", "addr": "\uacbd\uc0c1\ub0a8\ub3c4 \uae40\ud574\uc2dc \uc0bc\uc548\ub85c 112\ubc88\uae3820-61", "lat": "35.241421", "lng": "128.923131"}, {"statNm": "\uae40\ud574\uc2dc\ubbfc\uccb4\uc721\uacf5\uc6d0", "addr": "\uacbd\uc0c1\ub0a8\ub3c4 \uae40\ud574\uc2dc \uc0bc\uacc4\ub85c104-32", "lat": "35.259065", "lng": "128.877667"}, {"statNm": "\uc124\ubafc\ucda9\ud6a8\ud14c\ub9c8\ud30c\ud06c \uc8fc\ucc28\uc7a5", "addr": "\uacbd\uc0c1\ub0a8\ub3c4 \uc758\ub839\uad70 \ubd80\ub9bc\uba74 \uc785\uc0b0\ub85c178", "lat": "35.459055", "lng": "128.351987"}, {"statNm": "\uc5f0\ud654\ubcf5\uc9c0\uc13c\ud130", "addr": "\uacbd\uc0c1\ub0a8\ub3c4 \uc758\ub839\uad70 \ub099\uc11c\uba74 \ub099\ub3d9\uac15\ub85c859", "lat": "35.489146", "lng": "128.413399"}, {"statNm": "\uc720\uace1\uc1a1\uc0b0\uc9c4\ub8cc\uc18c", "addr": "\uacbd\uc0c1\ub0a8\ub3c4 \uc758\ub839\uad70 \uc720\uace1\uba74 \uccad\uc815\ub85c1679", "lat": "35.419718", "lng": "128.286592"}, {"statNm": "\ud55c\uad6d\ud658\uacbd\uacf5\ub2e8 \ubd80\uc0b0\uc6b8\uc0b0\uacbd\ub0a8\uc555\uc218\ubb3c\uc0ac\uc5c5\uc18c", "addr": "\uacbd\uc0c1\ub0a8\ub3c4 \uc758\ub839\uad70 \uad6c\ub8e116", "lat": "35.307475", "lng": "128.285731"}, {"statNm": "\uae38\uace1\uba74\uc0ac\ubb34\uc18c", "addr": "\uacbd\uc0c1\ub0a8\ub3c4 \ucc3d\ub155\uad70 \uae38\uace1\uba74 \uc99d\uc0b02\uae3819", "lat": "35.387214", "lng": "128.56921"}, {"statNm": "\uc131\uc0b0\uba74\uc0ac\ubb34\uc18c (\ubcf5\uc9c0\ud68c\uad00)", "addr": "\uacbd\uc0c1\ub0a8\ub3c4 \ucc3d\ub155\uad70 \uc131\uc0b0\uba74 \uc131\uc0b0\ub85c237", "lat": "35.628654", "lng": "128.493536"}, {"statNm": "\uc720\uc5b4\uba74\uc0ac\ubb34\uc18c", "addr": "\uacbd\uc0c1\ub0a8\ub3c4 \ucc3d\ub155\uad70 \uc720\uc5b4\uba74 \uc6b0\ud3ec1\ub300\ub85c583", "lat": "35.508104", "lng": "128.411159"}, {"statNm": "\uc18c\uacc4\uccb4\uc721\uacf5\uc6d0 \uc790\uc728\ubc29\ubc94\ub300 \uc8fc\ucc28\uc7a5", "addr": "\uacbd\uc0c1\ub0a8\ub3c4 \ucc3d\uc6d0\uc2dc \uc758\ucc3d\uad6c \uc18c\uacc4\ub85c135", "lat": "35.260349", "lng": "128.595532"}, {"statNm": "\uc6c5\ucc9c\ub3d9\ud589\uc815\ubcf5\uc9c0\uc13c\ud130", "addr": "\uacbd\uc0c1\ub0a8\ub3c4 \ucc3d\uc6d0\uc2dc \uc9c4\ud574\uad6c \uc6c5\ucc9c\uc911\ub85c59", "lat": "35.111393", "lng": "128.749373"}, {"statNm": "\ud604\ub3d9 \ud589\uc815\ubcf5\uc9c0\uc13c\ud130", "addr": "\uacbd\uc0c1\ub0a8\ub3c4 \ucc3d\uc6d0\uc2dc \ub9c8\uc0b0\ud569\ud3ec\uad6c \ud604\ub3d97\uae3827", "lat": "35.147941", "lng": "128.557611"}, {"statNm": "\ud1b5\uc601\ud574\uc591\uacbd\ucc30\uc11c (\uad11\ub3c4\uba74)", "addr": "\uacbd\uc0c1\ub0a8\ub3c4 \ud1b5\uc601\uc2dc \uad11\ub3c4\uba74 \uc8fd\ub9bc2\ub85c45", "lat": "34.880835", "lng": "128.417336"}, {"statNm": "\ud568\uc591\ubcfc\ub9c1\uc7a5\uc8fc\ucc28\uc7a5", "addr": "\uacbd\uc0c1\ub0a8\ub3c4 \ud568\uc591\uad70 \ud568\uc591\uc74d \uc0bc\ud734\uae3860-30", "lat": "35.517618", "lng": "127.714853"}, {"statNm": "(\uc0ac)\ub300\ud55c\ub178\uc778\ud68c \ud569\ucc9c\uad70\uc9c0\ud68c", "addr": "\uacbd\uc0c1\ub0a8\ub3c4 \ud569\ucc9c\uad70 \ud569\ucc9c\uc74d \uad50\ub3d91\uae3833", "lat": "35.565351", "lng": "128.164995"}, {"statNm": "\ub300\uc591\uba74\uc0ac\ubb34\uc18c", "addr": "\uacbd\uc0c1\ub0a8\ub3c4 \ud569\ucc9c\uad70 \ub300\uc591\uba74 \ub300\ud55c\ub85c5", "lat": "35.516655", "lng": "128.174687"}, {"statNm": "\ubb18\uc0b0\uba74\uc0ac\ubb34\uc18c", "addr": "\uacbd\uc0c1\ub0a8\ub3c4 \ud569\ucc9c\uad70 \ubb18\uc0b0\uba74 \ubb18\uc0b0\ub85c173-1", "lat": "35.658245", "lng": "128.11289"}, {"statNm": "\uc6a9\uc8fc\uba74\uc0ac\ubb34\uc18c", "addr": "\uacbd\uc0c1\ub0a8\ub3c4 \ud569\ucc9c\uad70 \uc6a9\uc8fc\uba74 \ud669\uacc4\ud3ed\ud3ec\ub85c1154", "lat": "35.540623", "lng": "128.113509"}, {"statNm": "\uc801\uc911\uba74\uc0ac\ubb34\uc18c", "addr": "\uacbd\uc0c1\ub0a8\ub3c4 \ud569\ucc9c\uad70 \uc801\uc911\uba74 \uc801\uc911\ub85c98", "lat": "35.547882", "lng": "128.278344"}, {"statNm": "\ucd08\uacc4\ub300\uacf5\uc6d0", "addr": "\uacbd\uc0c1\ub0a8\ub3c4 \ud569\ucc9c\uad70 \ucd08\uacc4\uba74 \ub3d9\ubd80\ub85c1240", "lat": "35.556819", "lng": "128.164615"}, {"statNm": "\ud569\ucc9c\uc6d0\ud3ed\ud53c\ud574\uc790\ubcf5\uc9c0\ud68c\uad00", "addr": "\uacbd\uc0c1\ub0a8\ub3c4 \ud569\ucc9c\uad70 \ud569\ucc9c\uc74d \ub300\uc57c\ub85c991", "lat": "35.575808", "lng": "128.164615"}, {"statNm": "\ub3d9\ub3d9\uc18c\uc785\uc8fc\ucc28\uc7a5", "addr": "\uacbd\uc0c1\ub0a8\ub3c4 \uc758\ub839\uad70 \uc758\ub839\uc74d \ucda9\uc775\ub85c86-2", "lat": "35.322329", "lng": "128.264463"}, {"statNm": "\uc5bc\uc74c\uace8 \uacf5\uc601\uc8fc\ucc28\uc7a5", "addr": "\uacbd\uc0c1\ub0a8\ub3c4 \ubc00\uc591\uc2dc \uc0b0\ub0b4\uba74 \uc5bc\uc74c\uace8\ub85c177", "lat": "35.579995", "lng": "128.982113"}, {"statNm": "\uc758\ucc3d\uad6c\uccad \ubcf8\uad00", "addr": "\uacbd\uc0c1\ub0a8\ub3c4 \ucc3d\uc6d0\uc2dc \uc758\ucc3d\uad6c \ud0dc\ubcf5\uc0b0\ub85c15\ubc88\uae388", "lat": "35.253564", "lng": "128.640286"}, {"statNm": "\ud638\ubc15\uc18c\uc8fc\ucc28\uc7a5", "addr": "\uacbd\uc0c1\ub0a8\ub3c4 \ubc00\uc591\uc2dc \uc0b0\ub0b4\uba74 \uc5bc\uc74c\uace8\ub85c334", "lat": "35.585691", "lng": "128.995386"}, {"statNm": "\ucc3d\ub155\uacf5\uc124\uc7a5\ub840\uc2dd\uc7a5", "addr": "\uacbd\uc0c1\ub0a8\ub3c4 \ucc3d\ub155\uad70 \ucc3d\ub155\uc74d \ud0d0\ud558\ub85c201", "lat": "35.532303", "lng": "128.490569"}, {"statNm": "\uc0b0\uc591\uc74d\uc0ac\ubb34\uc18c", "addr": "\uacbd\uc0c1\ub0a8\ub3c4 \ud1b5\uc601\uc2dc \uc0b0\uc591\uc74d \uc0b0\uc591\uc77c\uc8fc\ub85c1683-25", "lat": "34.803504", "lng": "128.386534"}, {"statNm": "\uacbd\uc0c1\uad6d\ub9bd\ub300\ud559\uad50", "addr": "\uacbd\uc0c1\ub0a8\ub3c4 \ud1b5\uc601\uc2dc \ud1b5\uc601\ud574\uc548\ub85c2", "lat": "34.8380995", "lng": "128.4009821"}, {"statNm": "\uacbd\uc0c1\ub300\ud559\uad50 \uac00\uc88c\ucea0\ud37c\uc2a4", "addr": "\uacbd\uc0c1\ub0a8\ub3c4 \uc9c4\uc8fc\uc2dc \uac00\uc88c\uae3829\ubc88\uae3863", "lat": "35.150628", "lng": "128.098621"}, {"statNm": "\uccad\ub355\uba74\ub2e4\ubaa9\uc801\ubcf5\uc9c0\ud68c\uad00", "addr": "\uacbd\uc0c1\ub0a8\ub3c4 \ud569\ucc9c\uad70 \uccad\ub355\uba74 \uc911\ud68c1\uae38 4", "lat": "35.5604762", "lng": "128.3216817"}, {"statNm": "\uac00\ub840\ub9c8\uc744\ubcf5\uc9c0\ud68c\uad00", "addr": "\uacbd\uc0c1\ub0a8\ub3c4 \uc758\ub839\uad70 \uac00\ub840\uba74 \uac00\ub840\ub9ac 320-1", "lat": "35.3236456", "lng": "128.2425199"}, {"statNm": "\uc591\uc0b0\uc2dc\ubcf4\uac74\uc18c", "addr": "\uacbd\uc0c1\ub0a8\ub3c4 \uc591\uc0b0\uc2dc \uc0bd\ub7c9\ub85c 169", "lat": "35.3354419", "lng": "129.0249037"}, {"statNm": "\uc0b0\ub3d9119\uc548\uc804\uc13c\ud130 \uccad\uc0ac \uc55e \uc8fc\ucc28\uc7a5", "addr": "\uacbd\uc0c1\ub0a8\ub3c4 \ubc00\uc591\uc2dc \uc0b0\uc678\uba74 \uae08\uace1\ub9ac 84-17", "lat": "35.5106736", "lng": "128.839966"}, {"statNm": "\ud55c\uad6d\ub18d\uc5b4\ucd0c\uacf5\uc0ac \ud558\ub3d9\ub0a8\ud574\uc9c0\uc0ac \uc8fc\ucc28\uc7a5", "addr": "\uacbd\uc0c1\ub0a8\ub3c4 \ud558\ub3d9\uad70 \ud558\ub3d9\uc74d \uc1a1\ub9bc1\uae38 12", "lat": "35.0642305", "lng": "127.7477578"}, {"statNm": "\uac70\ucc3d\ud734\uac8c\uc18c(\uad11\uc8fc)", "addr": "\uacbd\uc0c1\ub0a8\ub3c4 \uac70\ucc3d\uad70 \uac00\uc870\uba74 \uac00\uc870\uac00\uc57c\ub85c 1523", "lat": "35.7082702", "lng": "128.0579304"}, {"statNm": "\uac70\ucc3d\ud734\uac8c\uc18c(\ub300\uad6c)", "addr": "\uacbd\uc0c1\ub0a8\ub3c4 \uac70\ucc3d\uad70 \uac00\uc870\uba74 \ub3c4\ub9ac 454-9", "lat": "35.7061194", "lng": "128.0569299"}, {"statNm": "\uae40\ud574\uc758\uc0dd\uba85\uc13c\ud130 \uc8fc\ucc28\uc7a5", "addr": "\uacbd\uc0c1\ub0a8\ub3c4 \uae40\ud574\uc2dc \uc8fc\ucd0c\uba74 \uc18c\ub9dd\uae38 88", "lat": "35.21509610", "lng": "128.83376770"}, {"statNm": "\ud568\uc548\uba74\uc0ac\ubb34\uc18c", "addr": "\uacbd\uc0c1\ub0a8\ub3c4 \ud568\uc548\uad70 \ud568\uc548\uba74 \uc131\uc0b0\ub85c 15", "lat": "35.2419157", "lng": "128.4238627"}, {"statNm": "\uc758\ub839\ub3d9\ub3d9\uc2e0\uc2dc\uac00\uc9c0 \uc8fc\ucc28\uc7a5", "addr": "\uacbd\uc0c1\ub0a8\ub3c4 \uc758\ub839\uad70 \uc758\ub839\uc74d \ub3d9\ub3d9\ub9ac 1633", "lat": "35.3190552", "lng": "128.2716995"}, {"statNm": "\ucc3d\ub155\uc11c", "addr": "\uacbd\uc0c1\ub0a8\ub3c4 \ucc3d\ub155\uad70 \ucc3d\ub155\uc74d \uad50\uc0c1\ub9ac 28-35", "lat": "35.5402455", "lng": "128.501101"}, {"statNm": "\uc0b0\uccad\uc11c", "addr": "\uacbd\uc0c1\ub0a8\ub3c4 \uc0b0\uccad\uad70 \uc0b0\uccad\uc74d \uc911\uc559\ub85c 1", "lat": "35.4163937", "lng": "127.8747494"}, {"statNm": "\ucc9c\uc131\uc0b0 \uc2a4\ud3ec\uce20\ud30c\ud06c", "addr": "\uacbd\uc0c1\ub0a8\ub3c4 \uc591\uc0b0\uc2dc \uc0c1\ubd81\uba74 \ubd09\uc218\ub300\uae38 29-10", "lat": "35.420604", "lng": "129.0685284"}, {"statNm": "\ub354\ud798\ucc2c\uccb4\uc721\uad00", "addr": "\uacbd\uc0c1\ub0a8\ub3c4 \uc591\uc0b0\uc2dc \ubb3c\uae08\uc74d \uac00\ucd0c\ub9ac 990", "lat": "35.3258307", "lng": "128.9953015"}, {"statNm": "\ud568\uc548\uc11c", "addr": "\uacbd\uc0c1\ub0a8\ub3c4 \ud568\uc548\uad70 \uac00\uc57c\uc74d \uac00\uc57c\ub85c 85", "lat": "35.2785967", "lng": "128.4103298"}, {"statNm": "\ud569\ucc9c\uc11c", "addr": "\uacbd\uc0c1\ub0a8\ub3c4 \ud569\ucc9c\uad70 \ud669\uac15\uccb4\uc721\uacf5\uc6d0\ub85c 67", "lat": "35.5633466", "lng": "128.1693827"}, {"statNm": "\ud558\ub3d9\uc774\ud654 \uc2a4\ub9c8\ud2b8 \ubcf5\ud569\uc27c\ud130", "addr": "\uacbd\uc0c1\ub0a8\ub3c4 \ud558\ub3d9\uad70 \ud558\ub3d9\uc74d \ud654\uc2ec\ub9ac 1681", "lat": "35.0907516", "lng": "127.7135533"}, {"statNm": "\ud30c\ub3c5\uc804\uc2dc\uad00", "addr": "\uacbd\uc0c1\ub0a8\ub3c4 \ub0a8\ud574\uad70 \uc0bc\ub3d9\uba74 \ubd09\ud654\ub9ac 2572-1", "lat": "34.8002319", "lng": "128.037963"}, {"statNm": "\uc591\uc0b0\uc11c", "addr": "\uacbd\uc0c1\ub0a8\ub3c4 \uc591\uc0b0\uc2dc \ubb3c\uae08\uc74d \uc2e0\uc8fc4\uae38 8", "lat": "35.3379235", "lng": "129.016581"}, {"statNm": "\uac70\ucc3d\ubc84\uc2a4\ud130\ubbf8\ub110 \uacf5\uc601\uc8fc\ucc28\uc7a5", "addr": "\uacbd\uc0c1\ub0a8\ub3c4 \uac70\ucc3d\uad70 \uac70\ucc3d\uc74d \ub300\ud3c9\ub9ac 598", "lat": "35.685213", "lng": "127.923441"}, {"statNm": "\uace0\uc131\uacbd\ucc30\uc11c", "addr": "\uacbd\uc0c1\ub0a8\ub3c4 \uace0\uc131\uad70 \uace0\uc131\uc74d \uc911\uc559\ub85c 113", "lat": "34.975603", "lng": "128.332067"}, {"statNm": "\uc0b0\uc778\uba74\uc885\ud569\ubcf5\uc9c0\uad00", "addr": "\uacbd\uc0c1\ub0a8\ub3c4 \ud568\uc548\uad70 \uc0b0\uc778\uba74 \uac00\uc57c\ub85c 217", "lat": "35.278989", "lng": "128.424433"}, {"statNm": "\uc0bc\ucc9c\ud3ec \ub300\uad50\uacf5\uc6d0 \uc8fc\ucc28\uc7a5", "addr": "\uacbd\uc0c1\ub0a8\ub3c4 \uc0ac\ucc9c\uc2dc \uc0ac\ucc9c\ub300\ub85c 3-16", "lat": "34.933022", "lng": "128.051228"}, {"statNm": "\uc2e4\uc548\uad00\uad11\uc9c0 \uc8fc\ucc28\uc7a5", "addr": "\uacbd\uc0c1\ub0a8\ub3c4 \uc0ac\ucc9c\uc2dc \uc2e4\uc548\ub3d9 1234-1", "lat": "34.943736", "lng": "128.042078"}, {"statNm": "\uc81c3\uc544\ud30c\ud2b8\ud615\uacf5\uc7a5 \uc8fc\ucc28\uc7a5", "addr": "\uacbd\uc0c1\ub0a8\ub3c4 \ucc3d\uc6d0\uc2dc \uc758\ucc3d\uad6c \ucc3d\uc6d0\ub300\ub85c363\ubc88\uae38 11", "lat": "35.239706", "lng": "128.636381"}, {"statNm": "\uc9d1\ud604\uba74\uc0ac\ubb34\uc18c", "addr": "\uacbd\uc0c1\ub0a8\ub3c4 \uc9c4\uc8fc\uc2dc \uc9d1\ud604\uba74 \uc9c4\uc0b0\ub85c 697", "lat": "35.23905", "lng": "128.086597"}, {"statNm": "\ud1b5\uc601\uacbd\ucc30\uc11c", "addr": "\uacbd\uc0c1\ub0a8\ub3c4 \ud1b5\uc601\uc2dc \uad11\ub3c4\uba74 \uc8fd\ub9bc3\ub85c 53", "lat": "34.882469", "lng": "128.419797"}, {"statNm": "\uae40\ud574\uc2dc \ubd81\ubd80\ub3d9 \ud589\uc815\ubcf5\uc9c0\uc13c\ud130", "addr": "\uacbd\uc0c1\ub0a8\ub3c4 \uae40\ud574\uc2dc \ud574\ubc18\ucc9c\ub85c 160", "lat": "35.2627149", "lng": "128.8677677"}, {"statNm": "\uacbd\ub0a8\ub3c4\uccad \uc5b4\ub9b0\uc774\uc9d1 \uc8fc\ucc28\uc7a5", "addr": "\uacbd\uc0c1\ub0a8\ub3c4 \ucc3d\uc6d0\uc2dc \uc758\ucc3d\uad6c \uc911\uc559\ub300\ub85c 300", "lat": "35.237985", "lng": "128.695435"}, {"statNm": "\uacbd\ub0a8\ub0a8\ubd80\uc138\uad00", "addr": "\uacbd\uc0c1\ub0a8\ub3c4 \uac70\uc81c\uc2dc \uc7a5\uc2b9\ub85c 127", "lat": "34.865849", "lng": "128.723718"}, {"statNm": "\ucc3d\uc6d0\uc2dc \ud68c\uc131\uc885\ud569\uc2dc\uc7a5 \uacf5\uc601\uc8fc\ucc28\uc7a5", "addr": "\uacbd\uc0c1\ub0a8\ub3c4 \ucc3d\uc6d0\uc2dc \ub9c8\uc0b0\ud68c\uc6d0\uad6c \ud68c\uc131\uc2dc\uc7a51\uae38 16", "lat": "35.232884", "lng": "128.559365"}, {"statNm": "\uae40\ud574\ub3d9\uc0c1\uc2dc\uc7a5 \uacf5\uc601\uc8fc\ucc28\uc7a5 3\uce354\uce35", "addr": "\uacbd\uc0c1\ub0a8\ub3c4 \uae40\ud574\uc2dc \ud638\uacc4\ub85c499\ubc88\uae38 4", "lat": "35.235150", "lng": "128.884025"}, {"statNm": "\ubc31\uc6b4\uc0b0\ud611\ub3d9\uc870\ud569 \ucea0\ud551\uc7a5", "addr": "\uacbd\uc0c1\ub0a8\ub3c4 \ud568\uc591\uad70 \ubc31\uc804\uba74 \ud568\uc591\ub0a8\uc11c\ub85c 2755", "lat": "35.588495", "lng": "127.637155"}, {"statNm": "\ube0c\ub85c\ub4dc\uc6e8\uc77442\ubc88\uac00 \ubaa8\ud154", "addr": "\uacbd\uc0c1\ub0a8\ub3c4 \uc9c4\uc8fc\uc2dc \uc9c4\uc8fc\ub300\ub85c891\ubc88\uae38 29", "lat": "35.181112", "lng": "128.088606"}, {"statNm": "\uce74\uc6cc\uc2dc180", "addr": "\uacbd\uc0c1\ub0a8\ub3c4 \uc591\uc0b0\uc2dc \uc591\uc0b0\ub300\ub85c 682", "lat": "35.332016", "lng": "129.035039"}, {"statNm": "\ub300\ud638\uace8\ud504\ud074\ub7fd", "addr": "\uacbd\uc0c1\ub0a8\ub3c4 \ud568\uc591\uad70 \ud568\uc591\uc74d \uace0\uc6b4\ub85c 306-1", "lat": "35.524022", "lng": "127.754853"}, {"statNm": "\ub3d9\uc131\ud39c\uc158", "addr": "\uacbd\uc0c1\ub0a8\ub3c4 \uace0\uc131\uad70 \ub3d9\ud574\uba74 \uc870\uc120\ud2b9\uad6c\ub85c 2157", "lat": "35.065024", "lng": "128.475147"}, {"statNm": "\uac2f\ub0b4\uc74c\uc2dd\ub2f9", "addr": "\uacbd\uc0c1\ub0a8\ub3c4 \ub0a8\ud574\uad70 \ubbf8\uc870\uba74 \ub3d9\ubd80\ub300\ub85c 37", "lat": "34.731624", "lng": "128.033071"}, {"statNm": "\uacf5\ub8e1\ubaa8\ud154", "addr": "\uacbd\uc0c1\ub0a8\ub3c4 \uace0\uc131\uad70 \uac70\ub958\uba74 \uac70\ub958\ub85c 142", "lat": "34.968355", "lng": "128.368845"}, {"statNm": "\ud574\ud50c\uc2a4 \ud31c\uc0ac\uc774\ub354\ub9ac", "addr": "\uacbd\uc0c1\ub0a8\ub3c4 \uac70\ucc3d\uad70 \uac70\ucc3d\uc74d \uac08\uc9c02\uae38 192-8", "lat": "35.713719", "lng": "127.901132"}, {"statNm": "\uc5e0\uc81c\uc774\uace8\ud504\ud074\ub7fd", "addr": "\uacbd\uc0c1\ub0a8\ub3c4 \uc9c4\uc8fc\uc2dc \ub3d9\uc9c4\ub85c 233", "lat": "35.180270", "lng": "128.116707"}, {"statNm": "\ube5b\uacfc\uc18c\uae08 \ud39c\uc158", "addr": "\uacbd\uc0c1\ub0a8\ub3c4 \ub0a8\ud574\uad70 \uc774\ub3d9\uba74 \ub0a8\ud574\ub300\ub85c1553\ubc88\uae38 9-10", "lat": "34.764630", "lng": "127.948688"}, {"statNm": "\uc0c8\ubbf8\uc2a4\ud3ec\ub809\uc2a4 \uace8\ud504\uc7a5", "addr": "\uacbd\uc0c1\ub0a8\ub3c4 \uc9c4\uc8fc\uc2dc \uc7a5\uc7ac\uc0c8\ubbf8\uae38 19", "lat": "35.208348", "lng": "128.100034"}, {"statNm": "\uc77c\uc131\ub808\uc800\uc0b0\uc5c5(\uc8fc)\ubd80\uace1\uc9c0\uc810", "addr": "\uacbd\uc0c1\ub0a8\ub3c4 \ucc3d\ub155\uad70 \ubd80\uace1\uba74 \uc628\ucc9c\ub85c 594", "lat": "35.436271", "lng": "128.588193"}, {"statNm": "\uc0ac\ucc9c\uc2dc \uc7a5\uc560\uc778\uad6d\ubbfc \uccb4\uc721\uc13c\ud130(\uc0ac\ucc9c\uc2dc\uccad)", "addr": "\uacbd\uc0c1\ub0a8\ub3c4 \uc0ac\ucc9c\uc2dc \uc6a9\ud604\uba74 \uc9c4\uc0bc\ub85c 449", "lat": "34.99666", "lng": "128.05983"}, {"statNm": "\uc0ac\ucc9c\ub18d\ud611\uc5f0\ud569\ud558\ub098\ub85c\ub9c8\ud2b8", "addr": "\uacbd\uc0c1\ub0a8\ub3c4 \uc0ac\ucc9c\uc2dc \uc0ac\ucc9c\uc74d \uad6c\uc554\ub450\ubb38\ub85c 24", "lat": "35.08633", "lng": "128.08964"}, {"statNm": "\uc0ac\ucc9c\ub18d\ud611", "addr": "\uacbd\uc0c1\ub0a8\ub3c4 \uc0ac\ucc9c\uc2dc \uc0ac\ucc9c\uc74d \uc0ac\ucc9c\uc74d\uc131\ub85c 51", "lat": "35.08567", "lng": "128.09006"}, {"statNm": "RNR\uac70\uc81c\ud1b5\uc601\uace0\uc131\ub300\ub9ac\uc810", "addr": "\uacbd\uc0c1\ub0a8\ub3c4 \uac70\uc81c\uc2dc \uc2e0\ubd80\ub85c1\uae38 30", "lat": "34.868941", "lng": "128.730561"}, {"statNm": "GS\uc218\ud37c\ub9c8\ucf13 \uc7a5\uc720\uc810", "addr": "\uacbd\uc0c1\ub0a8\ub3c4 \uae40\ud574\uc2dc \ub2a5\ub3d9\ub85c 167\ubc88\uae38 7", "lat": "35.2034470000", "lng": "128.8085529999"}, {"statNm": "\uc591\uc0b0\uc2dc \uc6c5\uc0c1 \ucd9c\uc7a5\uc18c", "addr": "\uacbd\uc0c1\ub0a8\ub3c4 \uc591\uc0b0\uc2dc \uc9c4\ub4f1\uae38 40", "lat": "35.409523", "lng": "129.169578"}, {"statNm": "\uc591\uc0b0\uc2dc \ub514\uc790\uc778\uacf5\uc6d0 \uc8fc\ucc28\uc7a5", "addr": "\uacbd\uc0c1\ub0a8\ub3c4 \uc591\uc0b0\uc2dc \ubb3c\uae08\uc74d \ubc31\ud638\ub85c 23", "lat": "35.323078", "lng": "129.000720"}, {"statNm": "\uc591\uc0b0\uc2dc \uc885\ud569 \uc6b4\ub3d9\uc7a5", "addr": "\uacbd\uc0c1\ub0a8\ub3c4 \uc591\uc0b0\uc2dc \ubd81\ubd80\ub3d9 469-14", "lat": "35.344055", "lng": "129.033731"}, {"statNm": "\uc591\uc0b0\uce5c\ud658\uacbd\ud0c0\uc6b4", "addr": "\uacbd\uc0c1\ub0a8\ub3c4 \uc591\uc0b0\uc2dc \uc6d0\ub3d9\uba74 \ud654\uc81c\ub85c 2730", "lat": "35.354907", "lng": "128.981340"}, {"statNm": "\uc758\ub839\ub18d\uc5c5\uae30\uc220\uc13c\ud130(\ub3d9\ubd80\uc18c)", "addr": "\uacbd\uc0c1\ub0a8\ub3c4 \uc758\ub839\uad70 \ubd80\ub9bc\uba74 \ud55c\uc9c0 31\uae38", "lat": "35.464289", "lng": "128.322294"}, {"statNm": "\uc591\uc0b0\uc2dc\ub18d\uc218\uc0b0\ubb3c\uc720\ud1b5\uc13c\ud130", "addr": "\uacbd\uc0c1\ub0a8\ub3c4 \uc591\uc0b0\uc2dc \ub3d9\uae08\uba74 \uae08\uc0b0\ub9ac 1480", "lat": "35.306791", "lng": "129.025179"}, {"statNm": "GS25 \uc0ac\ucc9c\ud130\ubbf8\ub110\uc810", "addr": "\uacbd\uc0c1\ub0a8\ub3c4 \uc0ac\ucc9c\uc2dc \uc0ac\ucc9c\uc74d \uc625\uc0b0\ub85c 120", "lat": "35.078744", "lng": "128.096423"}, {"statNm": "GS25 \uc9c4\ud574\uc18d\ucc9c\uc810", "addr": "\uacbd\uc0c1\ub0a8\ub3c4 \ucc3d\uc6d0\uc2dc \uc9c4\ud574\uad6c \uc9c4\ud76c\ub85c 36", "lat": "35.144168", "lng": "128.673580"}, {"statNm": "GS25 \ud569\ucc9c\uad70\uccad\uc810", "addr": "\uacbd\uc0c1\ub0a8\ub3c4 \ud569\ucc9c\uad70 \ud569\ucc9c\uc74d \ub3d9\uc11c\ub85c 141-28", "lat": "35.567442", "lng": "128.167651"}, {"statNm": "GS25 \ud569\ucc9c\ucd08\uacc4\uc810", "addr": "\uacbd\uc0c1\ub0a8\ub3c4 \ud569\ucc9c\uad70 \ucd08\uacc4\uba74 \ucd08\uacc4\uc911\uc559\ub85c 84", "lat": "35.558972", "lng": "128.269221"}, {"statNm": "\ud574\uc778\uc0ac(\ud574\uc778\uc0ac\uc2dc\uc678\ubc84\uc2a4\ud130\ubbf8\ub110 \uc606 \uacf5\uc6a9\uc8fc\ucc28\uc7a5)", "addr": "\uacbd\uc0c1\ub0a8\ub3c4 \ud569\ucc9c\uad70 \uac00\uc57c\uba74 \uac00\uc57c\uc0b0\ub85c 1808", "lat": "35.792252", "lng": "128.088974"}, {"statNm": "\ubca0\ub2c8\ud0a4\uc544\uc591\uc0b0\ud638\ud154", "addr": "\uacbd\uc0c1\ub0a8\ub3c4 \uc591\uc0b0\uc2dc \ub3d9\uba74 \uae08\uc62410\uae38 51", "lat": "35.314773", "lng": "129.025834"}, {"statNm": "\uc591\uc0b0\uc2dc \uc601\uc5b4\ub3c4\uc11c\uad00", "addr": "\uacbd\uc0c1\ub0a8\ub3c4 \uc591\uc0b0\uc2dc \ub300\ud3c9\ub4e41\uae38 9-10", "lat": "35.414437", "lng": "129.164002"}, {"statNm": "\uc591\uc0b0 \uce5c\ud658\uacbd\ud0c0\uc6b4", "addr": "\uacbd\uc0c1\ub0a8\ub3c4 \uc591\uc0b0\uc2dc \uc6d0\ub3d9\uba74 \ud654\uc81c\ub9ac 2730", "lat": "35.342027", "lng": "128.969043"}, {"statNm": "\uc591\uc0b0\uc2dc\uccad", "addr": "\uacbd\uc0c1\ub0a8\ub3c4 \uc591\uc0b0\uc2dc \uc911\uc559\ub85c 39", "lat": "35.33515", "lng": "129.03811"}, {"statNm": "\ud55c\uad6d\uc804\uae30\uc548\uc804\uacf5\uc0ac \uacbd\ub0a8\uc11c\ubd80\uc9c0\uc0ac", "addr": "\uacbd\uc0c1\ub0a8\ub3c4 \uc9c4\uc8fc\uc2dc \ub3d9\uc9c4\ub85c 255", "lat": "35.180493", "lng": "128.1190189"}, {"statNm": "\ud55c\uad6d\uc804\uae30\uc548\uc804\uacf5\uc0ac \uae40\ud574\uc591\uc0b0\uc9c0\uc0ac", "addr": "\uacbd\uc0c1\ub0a8\ub3c4 \uae40\ud574\uc2dc \uac00\uc57c\ub85c 217", "lat": "35.258404", "lng": "128.872933"}, {"statNm": "\ud55c\uad6d\uc804\uae30\uc548\uc804\uacf5\uc0ac \uacbd\ub0a8\uc9c0\uc5ed\ubcf8\ubd80", "addr": "\uacbd\uc0c1\ub0a8\ub3c4 \ucc3d\uc6d0\uc2dc \uc758\ucc3d\uad6c \uc6b0\uace1\ub85c 215", "lat": "35.239363", "lng": "128.6480199"}, {"statNm": "GS\uc218\ud37c\ub9c8\ucf13 \uac70\uc81c\uc2e0\ud604\uc810", "addr": "\uacbd\uc0c1\ub0a8\ub3c4 \uac70\uc81c\uc2dc \uc11c\ubb38\ub85c 51", "lat": "34.889621", "lng": "128.621459"}, {"statNm": "\ud55c\uad6d\uc138\ub77c\ubbf9\uae30\uc220\uc6d0", "addr": "\uacbd\uc0c1\ub0a8\ub3c4 \uc9c4\uc8fc\uc2dc \uc18c\ud638\ub85c 101", "lat": "35.1772329", "lng": "128.1345127"}, {"statNm": "\uc0b0\uccad\uad70\uccad \ubbfc\uc6d0\uc8fc\ucc28\uc7a5", "addr": "\uacbd\uc0c1\ub0a8\ub3c4 \uc0b0\uccad\uad70 \uc0b0\uccad\uc74d \uc0b0\uc5d4\uccad\ub85c1", "lat": "35.4153792015", "lng": "127.873555652"}, {"statNm": "\ub2e8\uc131\uba74 \ubb38\ud654\uacf5\uc6d0 \uc8fc\ucc28\uc7a5", "addr": "\uacbd\uc0c1\ub0a8\ub3c4 \uc0b0\uccad\uad70 \ub2e8\uc131\uba74 \uc0ac\uc9c1\ub2e8\ub85c 456-5", "lat": "35.29810496307", "lng": "127.960385267"}, {"statNm": "\uc601\uc0b0\ub300\ud559\uad50 \uc591\uc0b0\ucea0\ud37c\uc2a4", "addr": "\uacbd\uc0c1\ub0a8\ub3c4 \uc591\uc0b0\uc2dc \uc8fc\ub0a8\ub85c 288", "lat": "35.428846", "lng": "129.148227"}, {"statNm": "\uc728\ud558\uc810 \ud604\ub300\uc790\ub3d9\ucc28", "addr": "\uacbd\uc0c1\ub0a8\ub3c4 \uae40\ud574\uc2dc \uc728\ud5582\ub85c236\ubc88\uae38 8", "lat": "35.174662", "lng": "128.821686"}, {"statNm": "\uc0ac\ucc9c\uc810\ud604\ub300\uc790\ub3d9\ucc28", "addr": "\uacbd\uc0c1\ub0a8\ub3c4 \uc0ac\ucc9c\uc2dc \uc0ac\ucc9c\uc74d \ub3d9\ubb381\uae38 87", "lat": "35.085521", "lng": "128.096665"}, {"statNm": "\uae40\ud574\uae30\ub3c5\uad50\uccad\ub144\ud68c", "addr": "\uacbd\uc0c1\ub0a8\ub3c4 \uae40\ud574\uc2dc \ubd84\uc131\ub85c 277", "lat": "35.2331082", "lng": "128.876242"}, {"statNm": "\ud604\ub300\uc790\ub3d9\ucc28 \uc2e0\uc548\uc810", "addr": "\uacbd\uc0c1\ub0a8\ub3c4 \uc9c4\uc8fc\uc2dc \uc2e0\uc548\ub85c 18", "lat": "35.179915", "lng": "128.0717729"}, {"statNm": "\ud604\ub300\ube14\ub8e8\ud578\uc988 \uac70\uc81c\ud604\ub300\uc11c\ube44\uc2a4", "addr": "\uacbd\uc0c1\ub0a8\ub3c4 \uac70\uc81c\uc2dc \uc5f0\ucd08\uba74 \uc5f0\ud558\ud574\uc548\ub85c 316", "lat": "34.903931", "lng": "128.623841"}, {"statNm": "\uc2e0\ud56d\uc628\ucc9c", "addr": "\uacbd\uc0c1\ub0a8\ub3c4 \ucc3d\uc6d0\uc2dc \uc9c4\ud574\uad6c \uc2e0\ud56d\ub3d9\ub85c 121", "lat": "35.088367", "lng": "128.8149279"}, {"statNm": "\ub125\uc13c\ud0c0\uc774\uc5b4(\uc8fc)", "addr": "\uacbd\uc0c1\ub0a8\ub3c4 \ucc3d\ub155\uad70 \ub300\ud569\uba74 \ub300\ub3d9\uc6d4\ud3ec\ub85c 291", "lat": "35.625341", "lng": "128.437981"}, {"statNm": "\ucc3d\uc6d0 \uc6a9\uc804 \uc878\uc74c\uc27c\ud130", "addr": "\uacbd\uc0c1\ub0a8\ub3c4 \ucc3d\uc6d0\uc2dc \uc758\ucc3d\uad6c \ub3d9\uc74d \uc758\ucc3d\ub300\ub85c 544", "lat": "35.26909819116", "lng": "128.65371228241"}, {"statNm": "\uc5f0\uc554\uacf5\uacfc\ub300\ud559\uad50", "addr": "\uacbd\uc0c1\ub0a8\ub3c4 \uc9c4\uc8fc\uc2dc \uc9c4\uc8fc\ub300\ub85c629\ubc88\uae38 35", "lat": "35.1636266", "lng": "128.0985204"}, {"statNm": "\ub179\ucc28\ub9c8\uc744", "addr": "\uacbd\uc0c1\ub0a8\ub3c4 \ud558\ub3d9\uad70 \ud558\ub3d9\uc74d \uc0b0\ubcf52\uae38 10", "lat": "35.072223", "lng": "127.7598299"}, {"statNm": "\uc625\ud3ec\uad6d\uc81c\uc2dc\uc7a5\uacf5\uc601\uc8fc\ucc28\uc7a5", "addr": "\uacbd\uc0c1\ub0a8\ub3c4 \uac70\uc81c\uc2dc \uc625\ud3ec\ub300\ucca9\ub85c 43", "lat": "34.894096", "lng": "128.692153"}, {"statNm": "\uce74\ud398 \ubaa8\ud1a0\ub77c\ub4dc \ud569\ucc9c", "addr": "\uacbd\uc0c1\ub0a8\ub3c4 \ud569\ucc9c\uad70 \ub300\ubcd1\uba74 \ud569\ucc9c\ud638\uc218\ub85c 525", "lat": "35.54438600000", "lng": "128.05377299999"}, {"statNm": "\ube14\ub8e8\ud578\uc988 \uc5f0\ucd08\uc810", "addr": "\uacbd\uc0c1\ub0a8\ub3c4 \uac70\uc81c\uc2dc \uc5f0\ucd08\uba74 \uac70\uc81c\ub300\ub85c 4453", "lat": "34.900126", "lng": "128.64482499999"}, {"statNm": "\uc911\ud765s\ud074\ub798\uc2a4 \uc9c4\uc8fc C-3 BIL", "addr": "\uacbd\uc0c1\ub0a8\ub3c4 \uc9c4\uc8fc\uc2dc \uc5d0\ub098\ub85c175\ubc88\uae38 12", "lat": "35.172950999999", "lng": "128.1482029999"}, {"statNm": "\uc911\ud765S\ud074\ub798\uc2a4 \uc9c4\uc8fc C-2 BIL", "addr": "\uacbd\uc0c1\ub0a8\ub3c4 \uc9c4\uc8fc\uc2dc \uc5d0\ub098\ub85c 190", "lat": "35.175810000000", "lng": "128.1427399999"}, {"statNm": "\uc911\ud765s\ud074\ub798\uc2a4 \uc9c4\uc8fc C-4 BIL", "addr": "\uacbd\uc0c1\ub0a8\ub3c4 \uc9c4\uc8fc\uc2dc \uc5d0\ub098\ub85c175\ubc88\uae38 11", "lat": "35.172950999999", "lng": "128.1482029999"}, {"statNm": "\ud3ec\ub974\uc250 \ub370\uc2a4\ud2f0\ub124\uc774\uc158 \uc0ac\uc6b0\uc2a4\ucf00\uc774\ud504 \uc2a4\ud30c\ub9ac\uc870\ud2b8", "addr": "\uacbd\uc0c1\ub0a8\ub3c4 \ub0a8\ud574\uad70 \ucc3d\uc120\uba74 \ud765\uc120\ub85c 1545", "lat": "34.840628", "lng": "128.0613309"}, {"statNm": "\uc232\uc560\uc11c", "addr": "\uacbd\uc0c1\ub0a8\ub3c4 \uc591\uc0b0\uc2dc \ud0d1\uace8\uae38 248", "lat": "35.417129999999", "lng": "129.2061650000"}, {"statNm": "\uc758\ub8cc\ubc95\uc778 \uc0dd\uba85\uc0ac\ub791\uc758\ub8cc\uc7ac\ub2e8 \ubc00\uc591 \uc724\ubcd1\uc6d0", "addr": "\uacbd\uc0c1\ub0a8\ub3c4 \ubc00\uc591\uc2dc \uc0bc\ubb38\uc911\uc559\ub85c 32", "lat": "35.484637", "lng": "128.755625"}, {"statNm": "\uc9c4\ud574\uc911\uc559\uc2dc\uc7a5 \uacf5\uc601\uc8fc\ucc28\uc7a5", "addr": "\uacbd\uc0c1\ub0a8\ub3c4 \ucc3d\uc6d0\uc2dc \uc9c4\ud574\uad6c \ubc9a\uaf43\ub85c60\ubc88\uae38 12", "lat": "35.15047500000", "lng": "128.66563099999"}, {"statNm": "\uc544\uc6b0\ub514_\uc591\uc0b0 \uc11c\ube44\uc2a4\uc13c\ud130", "addr": "\uacbd\uc0c1\ub0a8\ub3c4 \uc591\uc0b0\uc2dc \uc0c1\ubd81\uba74 \uc591\uc0b0\ub300\ub85c 1222", "lat": "35.378087000000", "lng": "129.0480430000"}, {"statNm": "\uacbd\uc0c1\ub300\ud559\uad50 \uac1c\ubc29\ud615 \uc2a4\ud3ec\uce20\ucf64\ud50c\ub809\uc2a4", "addr": "\uacbd\uc0c1\ub0a8\ub3c4 \uc9c4\uc8fc\uc2dc \uc9c4\uc8fc\ub300\ub85c 501", "lat": "35.15338399", "lng": "128.0980169"},