[{"statNm": "\ub86f\ub370\ub9c8\ud2b8 \uc0bc\uacc4\uc810", "addr": "\uacbd\uc0c1\ub0a8\ub3c4 \ucc3d\uc6d0\uc2dc \ub9c8\uc0b0\ud68c\uc6d0\uad6c \ub0b4\uc11c\uc74d \uacbd\ub0a8\ub300\ub85c 927", "lat": "35.233023", "lng": "128.504094"}, {"statNm": "\ud648\ud50c\ub7ec\uc2a4 \ub9c8\uc0b0\uc810", "addr": "\uacbd\uc0c1\ub0a8\ub3c4 \ucc3d\uc6d0\uc2dc \ub9c8\uc0b0\ud68c\uc6d0\uad6c \uc0bc\ud638\ub85c 56", "lat": "35.222610", "lng": "128.585767"}, {"statNm": "\uc9c4\uc8fc\uc2dc\uccad", "addr": "\uacbd\uc0c1\ub0a8\ub3c4 \uc9c4\uc8fc\uc2dc \ub3d9\uc9c4\ub85c 155", "lat": "35.180378", "lng": "128.108884"}, {"statNm": "\uacbd\uc0c1\ub0a8\ub3c4 \uc11c\ubd80\uccad\uc0ac", "addr": "\uacbd\uc0c1\ub0a8\ub3c4 \uc9c4\uc8fc\uc2dc \uc6d4\uc544\uc0b0\ub85c 2026", "lat": "35.2129639", "lng": "128.1233299"}, {"statNm": "\uc9c4\ud574\ud574\uc591\uacf5\uc6d0", "addr": "\uacbd\uc0c1\ub0a8\ub3c4 \ucc3d\uc6d0\uc2dc \uc9c4\ud574\uad6c \uba85\ub3d9\ub85c 62", "lat": "35.092286", "lng": "128.719427"}, {"statNm": "\uc2e0\uc138\uacc4\uc885\ud569\uc815\ube44", "addr": "\uacbd\uc0c1\ub0a8\ub3c4 \ud1b5\uc601\uc2dc \uad11\ub3c4\uba74 \uc8fd\ub9bc\ub9ac 292-33", "lat": "34.8789124", "lng": "128.4133694"}, {"statNm": "\uae40\ud574\uc2dc \uc7a5\uc720\ucd9c\uc7a5\uc18c", "addr": "\uacbd\uc0c1\ub0a8\ub3c4 \uae40\ud574\uc2dc \ubd80\uace1\ub85c 57", "lat": "35.2090443", "lng": "128.798395"}, {"statNm": "\uc9c4\uc601\ubb38\ud654\uc13c\ud130", "addr": "\uacbd\uc0c1\ub0a8\ub3c4 \uae40\ud574\uc2dc \uc9c4\uc601\uc74d \uae40\ud574\ub300\ub85c 440", "lat": "35.3049134", "lng": "128.7374389"}, {"statNm": "\uac70\uc81c\ud734\uac8c\uc18c(\uac70\uc81c\ud574\uc591\ud30c\ud06c)", "addr": "\uacbd\uc0c1\ub0a8\ub3c4 \uac70\uc81c\uc2dc \uac70\uc81c\ub300\ub85c 1068", "lat": "34.9723153", "lng": "128.6938807"}, {"statNm": "\uace0\uc131\ud734\uac8c\uc18c(\ud558\ub0a8\ubc29\ud5a5)", "addr": "\uacbd\uc0c1\ub0a8\ub3c4 \uace0\uc131\uad70 \ub300\uac00\uba74 \ud1b5\uc601\ub300\uc804\uace0\uc18d\ub3c4\ub85c 32", "lat": "35.0571523", "lng": "128.2511447"}, {"statNm": "\uace0\uc131\ud734\uac8c\uc18c(\ud1b5\uc601\ubc29\ud5a5)", "addr": "\uacbd\uc0c1\ub0a8\ub3c4 \uace0\uc131\uad70 \ub300\uac00\uba74 \ud1b5\uc601\ub300\uc804\uace0\uc18d\ub3c4\ub85c 29", "lat": "35.0516247", "lng": "128.2638664"}, {"statNm": "\uc774\uc21c\uc2e0\uc21c\uad6d\uacf5\uc6d0", "addr": "\uacbd\uc0c1\ub0a8\ub3c4 \ub0a8\ud574\uad70 \uace0\ud604\uba74 \ucc28\uba74\ub9ac", "lat": "34.9105664", "lng": "127.8587754"}, {"statNm": "\ud558\ub3d9\uad70\uccad", "addr": "\uacbd\uc0c1\ub0a8\ub3c4 \ud558\ub3d9\uad70 \ud558\ub3d9\uc74d \uad70\uccad\ub85c 23", "lat": "35.0673835", "lng": "127.7511601"}, {"statNm": "\uc11d\ud48d\ud734\uac8c\uc18c", "addr": "\uacbd\uc0c1\ub0a8\ub3c4 \uc0b0\uccad\uad70 \uc2e0\uc548\uba74 \uc0b0\uccad\ub300\ub85c 1169", "lat": "35.3629543", "lng": "127.9186023"}, {"statNm": "\ud568\uc591\ud734\uac8c\uc18c(\ud558\ub0a8\ubc29\ud5a5)", "addr": "\uacbd\uc0c1\ub0a8\ub3c4 \ud568\uc591\uad70 \uc9c0\uace1\uba74 \ubcf4\uc0b0\ub9ac", "lat": "35.5518867", "lng": "127.7599314"}, {"statNm": "\ud568\uc591\ud734\uac8c\uc18c(\ud1b5\uc601\ubc29\ud5a5)", "addr": "\uacbd\uc0c1\ub0a8\ub3c4 \ud568\uc591\uad70 \uc9c0\uace1\uba74 \ubcf4\uc0b0\ub9ac", "lat": "35.5511049", "lng": "127.7586744"}, {"statNm": "\uc870\ub9dd\uacf5\uc6d0", "addr": "\uacbd\uc0c1\ub0a8\ub3c4 \ud568\uc591\uad70 \ud568\uc591\uc74d \uace0\uc6b4\ub85c 161-51", "lat": "35.5244553", "lng": "127.7438188"}, {"statNm": "\uac70\ucc3d\ud734\uac8c\uc18c(\uc625\ud3ec\ubc29\ud5a5)", "addr": "\uacbd\uc0c1\ub0a8\ub3c4 \uac70\ucc3d\uad70 \uac00\uc870\uba74 \ub3c4\ub9ac", "lat": "35.7057972", "lng": "128.0569946"}, {"statNm": "\uac70\ucc3d\ud734\uac8c\uc18c(\uace0\uc11c\ubc29\ud5a5)", "addr": "\uacbd\uc0c1\ub0a8\ub3c4 \uac70\ucc3d\uad70 \uac00\uc870\uba74 \ub3c4\ub9ac \uc0b0189-1", "lat": "35.7085155", "lng": "128.0574192"}, {"statNm": "\uac70\ucc3d\uad70\uccad", "addr": "\uacbd\uc0c1\ub0a8\ub3c4 \uac70\ucc3d\uad70 \uac70\ucc3d\uc74d \uc911\uc559\ub85c 103", "lat": "35.6869125", "lng": "127.9092271"}, {"statNm": "\ud569\ucc9c\uad70\uccad", "addr": "\uacbd\uc0c1\ub0a8\ub3c4 \ud569\ucc9c\uad70 \ud569\ucc9c\uc74d \ub3d9\uc11c\ub85c 119", "lat": "35.5666565", "lng": "128.1667084"}, {"statNm": "\ud1b5\ub3c4\uc0ac\ud734\uac8c\uc18c(\ubd80\uc0b0\ubc29\ud5a5)", "addr": "\uacbd\uc0c1\ub0a8\ub3c4 \uc591\uc0b0\uc2dc \ud558\ubd81\uba74 \uacbd\ubd80\uace0\uc18d\ub3c4\ub85c 31-1 (\uc21c\uc9c0\ub9ac)", "lat": "35.4885288", "lng": "129.0914428"}, {"statNm": "\ud1b5\ub3c4\uc0ac\ud734\uac8c\uc18c(\ubd80\uc0b0\ubc29\ud5a5)", "addr": "\uacbd\uc0c1\ub0a8\ub3c4 \uc591\uc0b0\uc2dc \ud558\ubd81\uba74 \uacbd\ubd80\uace0\uc18d\ub3c4\ub85c 31-1 (\uc21c\uc9c0\ub9ac)", "lat": "35.4885288", "lng": "129.0914428"}, {"statNm": "\ud1b5\ub3c4\uc0ac\ud734\uac8c\uc18c(\ubd80\uc0b0\ubc29\ud5a5)", "addr": "\uacbd\uc0c1\ub0a8\ub3c4 \uc591\uc0b0\uc2dc \ud558\ubd81\uba74 \uacbd\ubd80\uace0\uc18d\ub3c4\ub85c 31-1 (\uc21c\uc9c0\ub9ac)", "lat": "35.4885288", "lng": "129.0914428"}, {"statNm": "\uace0\uc131\ud734\uac8c\uc18c(\ud1b5\uc601\ubc29\ud5a5)", "addr": "\uacbd\uc0c1\ub0a8\ub3c4 \uace0\uc131\uad70 \ub300\uac00\uba74 \ud1b5\uc601\ub300\uc804\uace0\uc18d\ub3c4\ub85c 29 (\uc1a1\uacc4\ub9ac)", "lat": "35.0515247", "lng": "128.2640664"}, {"statNm": "\uace0\uc131\ud734\uac8c\uc18c(\ud558\ub0a8\ubc29\ud5a5)", "addr": "\uacbd\uc0c1\ub0a8\ub3c4 \uace0\uc131\uad70 \ub300\uac00\uba74 \ud1b5\uc601\ub300\uc804\uace0\uc18d\ub3c4\ub85c 32 (\uc2e0\uc804\ub9ac)", "lat": "35.0570523", "lng": "128.2513447"}, {"statNm": "\uc0b0\uccad\ud734\uac8c\uc18c(\ud1b5\uc601\ubc29\ud5a5)", "addr": "\uacbd\uc0c1\ub0a8\ub3c4 \uc0b0\uccad\uad70 \ub2e8\uc131\uba74 \ud1b5\uc601\ub300\uc804\uace0\uc18d\ub3c4\ub85c 77 (\ubc29\ubaa9\ub9ac)", "lat": "35.3333219", "lng": "127.9375368"}, {"statNm": "\uc0b0\uccad\ud734\uac8c\uc18c(\ud1b5\uc601\ubc29\ud5a5)", "addr": "\uacbd\uc0c1\ub0a8\ub3c4 \uc0b0\uccad\uad70 \ub2e8\uc131\uba74 \ud1b5\uc601\ub300\uc804\uace0\uc18d\ub3c4\ub85c 77 (\ubc29\ubaa9\ub9ac)", "lat": "35.3333219", "lng": "127.9375368"}, {"statNm": "\uc0b0\uccad\ud734\uac8c\uc18c(\ud558\ub0a8\ubc29\ud5a5)", "addr": "\uacbd\uc0c1\ub0a8\ub3c4 \uc0b0\uccad\uad70 \ub2e8\uc131\uba74 \ud1b5\uc601\ub300\uc804\uace0\uc18d\ub3c4\ub85c 76 (\ubc29\ubaa9\ub9ac)", "lat": "35.3340661", "lng": "127.9386829"}, {"statNm": "\uc0b0\uccad\ud734\uac8c\uc18c(\ud558\ub0a8\ubc29\ud5a5)", "addr": "\uacbd\uc0c1\ub0a8\ub3c4 \uc0b0\uccad\uad70 \ub2e8\uc131\uba74 \ud1b5\uc601\ub300\uc804\uace0\uc18d\ub3c4\ub85c 76 (\ubc29\ubaa9\ub9ac)", "lat": "35.3340661", "lng": "127.9386829"}, {"statNm": "\ud568\uc591\ud734\uac8c\uc18c(\ud1b5\uc601\ubc29\ud5a5)", "addr": "\uacbd\uc0c1\ub0a8\ub3c4 \ud568\uc591\uad70 \uc9c0\uace1\uba74 \ud6a8\uc0b0\uae38 23-31 (\ubcf4\uc0b0\ub9ac)", "lat": "35.5510049", "lng": "127.7588744"}, {"statNm": "\ud568\uc591\ud734\uac8c\uc18c(\ud558\ub0a8\ubc29\ud5a5)", "addr": "\uacbd\uc0c1\ub0a8\ub3c4 \ud568\uc591\uad70 \uc9c0\uace1\uba74 \ud6a8\uc0b0\uae38 23-11 (\ubcf4\uc0b0\ub9ac)", "lat": "35.5517867", "lng": "127.7601314"}, {"statNm": "\uc601\uc0b0\ud734\uac8c\uc18c(\ub9c8\uc0b0\ubc29\ud5a5)", "addr": "\uacbd\uc0c1\ub0a8\ub3c4 \ucc3d\ub155\uad70 \uc601\uc0b0\uba74 \uc7a5\ucc99\ud638\uc218\uae38 56-110 (\uc2e0\uc81c\ub9ac)", "lat": "35.4295445", "lng": "128.4963675"}, {"statNm": "\uc601\uc0b0\ud734\uac8c\uc18c(\ub9c8\uc0b0\ubc29\ud5a5)", "addr": "\uacbd\uc0c1\ub0a8\ub3c4 \ucc3d\ub155\uad70 \uc601\uc0b0\uba74 \uc7a5\ucc99\ud638\uc218\uae38 56-110 (\uc2e0\uc81c\ub9ac)", "lat": "35.4295445", "lng": "128.4963675"}, {"statNm": "\uce60\uc11c\ud734\uac8c\uc18c(\uc591\ud3c9\ubc29\ud5a5)", "addr": "\uacbd\uc0c1\ub0a8\ub3c4 \ud568\uc548\uad70 \uce60\uc11c\uba74 \uacc4\ub8e1\ub85c 122-1 (\uacc4\ub0b4\ub9ac)", "lat": "35.3704567", "lng": "128.4967833"}, {"statNm": "\uce60\uc11c\ud734\uac8c\uc18c(\uc591\ud3c9\ubc29\ud5a5)", "addr": "\uacbd\uc0c1\ub0a8\ub3c4 \ud568\uc548\uad70 \uce60\uc11c\uba74 \uacc4\ub8e1\ub85c 122-1 (\uacc4\ub0b4\ub9ac)", "lat": "35.3704567", "lng": "128.4967833"}, {"statNm": "\uc0ac\ucc9c\ud734\uac8c\uc18c(\ubd80\uc0b0\ubc29\ud5a5)", "addr": "\uacbd\uc0c1\ub0a8\ub3c4 \uc0ac\ucc9c\uc2dc \uace4\uc591\uba74 \uc11c\uc0bc\ub85c 619 (\ubb35\uace1\ub9ac)", "lat": "35.0732831", "lng": "128.0110198"}, {"statNm": "\uc0ac\ucc9c\ud734\uac8c\uc18c(\uc21c\ucc9c\ubc29\ud5a5)", "addr": "\uacbd\uc0c1\ub0a8\ub3c4 \uc0ac\ucc9c\uc2dc \uace4\uc591\uba74 \ubb35\uc2e4\uae38 31-11 (\ubb35\uace1\ub9ac)", "lat": "35.0748033", "lng": "128.0134007"}, {"statNm": "\ud568\uc548\ud734\uac8c\uc18c(\ubd80\uc0b0\ubc29\ud5a5)", "addr": "\uacbd\uc0c1\ub0a8\ub3c4 \ud568\uc548\uad70 \uad70\ubd81\uba74 \ud604\ud3ec\ub85c 205 (\uc720\ud604\ub9ac)", "lat": "35.2940514", "lng": "128.3473478"}, {"statNm": "\uac70\ucc3d\ud734\uac8c\uc18c(\uace0\uc11c\ubc29\ud5a5)", "addr": "\uacbd\uc0c1\ub0a8\ub3c4 \uac70\ucc3d\uad70 \uac00\uc870\uba74 \uac00\uc870\uac00\uc57c\ub85c 1523 (\ub3c4\ub9ac)", "lat": "35.7084155", "lng": "128.0576192"}, {"statNm": "\uac70\ucc3d\ud734\uac8c\uc18c(\uc625\ud3ec\ubc29\ud5a5)", "addr": "\uacbd\uc0c1\ub0a8\ub3c4 \uac70\ucc3d\uad70 \uac00\uc870\uba74 \uac00\uc870\uac00\uc57c\ub85c 1543-81 (\ub3c4\ub9ac)", "lat": "35.7056972", "lng": "128.0571946"}, {"statNm": "\uc7a5\uc720\ud734\uac8c\uc18c(\ubd80\uc0b0\ubc29\ud5a5)", "addr": "\uacbd\uc0c1\ub0a8\ub3c4 \uae40\ud574\uc2dc \uc7a5\uc720\ub85c116\ubc88\uae38 44-82 (\ubd80\uace1\ub3d9)", "lat": "35.2118159", "lng": "128.794438"}, {"statNm": "\uc7a5\uc720\ud734\uac8c\uc18c(\ubd80\uc0b0\ubc29\ud5a5)", "addr": "\uacbd\uc0c1\ub0a8\ub3c4 \uae40\ud574\uc2dc \uc7a5\uc720\ub85c116\ubc88\uae38 44-82 (\ubd80\uace1\ub3d9)", "lat": "35.2118159", "lng": "128.794438"}, {"statNm": "\ud55c\uad6d\ub3c4\ub85c\uacf5\uc0ac\ucc3d\uc6d0\uc9c0\uc0ac", "addr": "\uacbd\uc0c1\ub0a8\ub3c4 \ucc3d\uc6d0\uc2dc \uc758\ucc3d\uad6c \uc758\ucc3d\ub300\ub85c 1024", "lat": "35.2842423", "lng": "128.7006196"}, {"statNm": "\ub86f\ub370\ub9c8\ud2b8 \ub9c8\uc0b0\uc810", "addr": "\uacbd\uc0c1\ub0a8\ub3c4 \ucc3d\uc6d0\uc2dc \ub9c8\uc0b0\ud569\ud3ec\uad6c \uc2e0\ub9c8\uc0b0\uc2dc\uc7a5\uae38 33 (\ucc3d\ud3ec\ub3d93\uac00)", "lat": "35.1813836", "lng": "128.5606975"}, {"statNm": "\ub86f\ub370\ub9c8\ud2b8 \ub9c8\uc0b0\uc810", "addr": "\uacbd\uc0c1\ub0a8\ub3c4 \ucc3d\uc6d0\uc2dc \ub9c8\uc0b0\ud569\ud3ec\uad6c \uc2e0\ub9c8\uc0b0\uc2dc\uc7a5\uae38 33 (\ucc3d\ud3ec\ub3d93\uac00)", "lat": "35.1813836", "lng": "128.5606975"}, {"statNm": "\ub86f\ub370\ub9c8\ud2b8 \uc7a5\uc720\uc810", "addr": "\uacbd\uc0c1\ub0a8\ub3c4 \uae40\ud574\uc2dc \ubc88\ud6541\ub85c56\ubc88\uae38 15 \ub86f\ub370\ub9c8\ud2b8", "lat": "35.193012", "lng": "128.8013646"}, {"statNm": "\uc9c0\ub9ac\uc0b0\uad6d\ub9bd\uacf5\uc6d0 \uc911\uc0b0\ub9ac\uc8fc\ucc28\uc7a5", "addr": "\uacbd\uc0c1\ub0a8\ub3c4 \uc0b0\uccad\uad70 \uc2dc\ucc9c\uba74 \uc911\uc0b0\ub9ac 619-12", "lat": "35.304022", "lng": "127.74934"}, {"statNm": "\uc9c0\ub9ac\uc0b0\uad6d\ub9bd\uacf5\uc6d0 \uc911\uc0b0\ub9ac\uc8fc\ucc28\uc7a5", "addr": "\uacbd\uc0c1\ub0a8\ub3c4 \uc0b0\uccad\uad70 \uc2dc\ucc9c\uba74 \uc911\uc0b0\ub9ac 619-12", "lat": "35.304022", "lng": "127.74934"}, {"statNm": "\uc9c0\ub9ac\uc0b0\uad6d\ub9bd\uacf5\uc6d0 \uc30d\uacc4\uc0ac \uc8fc\ucc28\uc7a5", "addr": "\uacbd\uc0c1\ub0a8\ub3c4 \ud558\ub3d9\uad70 \ud654\uac1c\uba74 \uc6a9\uac15\ub9ac 400-5", "lat": "35.230286", "lng": "127.641776"}, {"statNm": "\uc9c0\ub9ac\uc0b0\uad6d\ub9bd\uacf5\uc6d0 \uc30d\uacc4\uc0ac \uc8fc\ucc28\uc7a5", "addr": "\uacbd\uc0c1\ub0a8\ub3c4 \ud558\ub3d9\uad70 \ud654\uac1c\uba74 \uc6a9\uac15\ub9ac 400-5", "lat": "35.230286", "lng": "127.641776"}, {"statNm": "\ud55c\ub824\ud574\uc0c1\uad6d\ub9bd\uacf5\uc6d0\uc0ac\ubb34\uc18c \ub178\ub7c9\ubd84\uc18c", "addr": "\uacbd\uc0c1\ub0a8\ub3c4 \ub0a8\ud574\uad70 \uc124\ucc9c\uba74 \ub178\ub7c9\ub9ac 410-36", "lat": "34.939704", "lng": "127.875309"}, {"statNm": "\ud55c\ub824\ud574\uc0c1\uad6d\ub9bd\uacf5\uc6d0\uc0ac\ubb34\uc18c \ub178\ub7c9\ubd84\uc18c", "addr": "\uacbd\uc0c1\ub0a8\ub3c4 \ub0a8\ud574\uad70 \uc124\ucc9c\uba74 \ub178\ub7c9\ub9ac 410-36", "lat": "34.939704", "lng": "127.875309"}, {"statNm": "\ud55c\ub824\ud574\uc0c1\uad6d\ub9bd\uacf5\uc6d0\uc0ac\ubb34\uc18c \uae08\uc0b0\ubd84\uc18c", "addr": "\uacbd\uc0c1\ub0a8\ub3c4 \ub0a8\ud574\uad70 \uc774\ub3d9\uba74 \ubcf4\ub9ac\uc554\ub85c 287", "lat": "34.773405", "lng": "127.987807"}, {"statNm": "\ud55c\ub824\ud574\uc0c1\uad6d\ub9bd\uacf5\uc6d0\uc0ac\ubb34\uc18c \uae08\uc0b0\ubd84\uc18c", "addr": "\uacbd\uc0c1\ub0a8\ub3c4 \ub0a8\ud574\uad70 \uc774\ub3d9\uba74 \ubcf4\ub9ac\uc554\ub85c 287", "lat": "34.773405", "lng": "127.987807"}, {"statNm": "\ub9cc\ud3ec\uc8fc\uc720\uc18c", "addr": "\uacbd\uc0c1\ub0a8\ub3c4 \ubc00\uc591\uc2dc \uc0bc\ub791\uc9c4\uc74d \uc0bc\ub791\uc9c4\ub85c 390", "lat": "35.39879", "lng": "128.819108"}, {"statNm": "\ud1b5\ub3c4\ud638\ud154", "addr": "\uacbd\uc0c1\ub0a8\ub3c4 \uc591\uc0b0\uc2dc \uc2e0\ud3c9\uac15\ubcc08\uae38 11", "lat": "35.493286", "lng": "129.083243"}, {"statNm": "\ud3ec\uc720\uc8fc\uc720\uc18c", "addr": "\uacbd\uc0c1\ub0a8\ub3c4 \uc591\uc0b0\uc2dc \uc5b4\uace1\ud130\ub110\ub85c40", "lat": "35.375148", "lng": "129.031419"}, {"statNm": "S-oil \ubb3c\uae08\uc8fc\uc720\uc18c", "addr": "\uacbd\uc0c1\ub0a8\ub3c4 \uc591\uc0b0\uc2dc \ubb3c\uae08\uc74d \ud669\uc0b0\ub85c501", "lat": "35.31907", "lng": "128.994332"}, {"statNm": "\uc911\uc559\uc8fc\uc720\uc18c", "addr": "\uacbd\uc0c1\ub0a8\ub3c4 \uc758\ub839\uad70 \uc758\ub839\uc74d \ubc31\uc0b0\ub85c4", "lat": "35.320263", "lng": "128.2645"}, {"statNm": "\ub9c8\uc0b0\uc758\ub8cc\uc6d0", "addr": "\uacbd\uc0c1\ub0a8\ub3c4 \ucc3d\uc6d0\uc2dc \uc7a5\uad70\ub3d94\uac00 3-6", "lat": "35.199462", "lng": "128.565332"}, {"statNm": "\ub0a8\uad11\uc11d\uc720\ud310\ub9e4", "addr": "\uacbd\uc0c1\ub0a8\ub3c4 \ucc3d\uc6d0\uc2dc \uc758\ucc3d\uad6c \ucc3d\uc6d0\ub300\ub85c314", "lat": "35.238045", "lng": "128.633719"}, {"statNm": "\uc911\uc559\ubaa8\ud130\uc2a4", "addr": "\uacbd\uc0c1\ub0a8\ub3c4 \ucc3d\uc6d0\uc2dc \uc758\ucc3d\uad6c \uc18c\uacc4\ub85c 33", "lat": "35.25481", "lng": "128.603051"}, {"statNm": "\ud569\ucc9c\uad00\uad11\ud734\uac8c\uc18c", "addr": "\uacbd\uc0c1\ub0a8\ub3c4 \ud569\ucc9c\uad70 \uc30d\ubc31\uba74 \uc30d\ubc31\uc911\uc559\ub85c162-8", "lat": "35.449674", "lng": "128.14454"}, {"statNm": "\ub86f\ub370\ub9c8\ud2b8 \uac70\uc81c\uc810", "addr": "\uacbd\uc0c1\ub0a8\ub3c4 \uac70\uc81c\uc2dc \uc11c\uac04\ub3c4\uae38 9-9 (\uc625\ud3ec\ub3d9)", "lat": "34.888448", "lng": "128.691064"}, {"statNm": "\ub86f\ub370\ub9c8\ud2b8 \uc2dc\ud2f0\uc138\ube10\uc810", "addr": "\uacbd\uc0c1\ub0a8\ub3c4 \ucc3d\uc6d0\uc2dc \uc758\ucc3d\uad6c \uc6d0\uc774\ub300\ub85c 320 (\ub450\ub300\ub3d9)", "lat": "35.240183", "lng": "128.653229"}, {"statNm": "\ub86f\ub370\ub9c8\ud2b8 \uc2dc\ud2f0\uc138\ube10\uc810", "addr": "\uacbd\uc0c1\ub0a8\ub3c4 \ucc3d\uc6d0\uc2dc \uc758\ucc3d\uad6c \uc6d0\uc774\ub300\ub85c 320 (\ub450\ub300\ub3d9)", "lat": "35.240183", "lng": "128.653229"}, {"statNm": "\ub86f\ub370\ub9c8\ud2b8 \uae40\ud574\uc810", "addr": "\uacbd\uc0c1\ub0a8\ub3c4 \uae40\ud574\uc2dc \uae40\ud574\ub300\ub85c 2330 (\ubd80\uc6d0\ub3d9)", "lat": "35.225619", "lng": "128.881964"}, {"statNm": "\ub86f\ub370\ub9c8\ud2b8 \uc591\ub355\uc810", "addr": "\uacbd\uc0c1\ub0a8\ub3c4 \ucc3d\uc6d0\uc2dc \ub9c8\uc0b0\ud68c\uc6d0\uad6c \uc0bc\ud638\ub85c 80 (\uc591\ub355\ub3d9)", "lat": "35.223311", "lng": "128.585287"}, {"statNm": "\uc0ac\ucc9c\ub9cc\ub0a8\uc758 \uad11\uc7a5", "addr": "\uacbd\uc0c1\ub0a8\ub3c4 \uc0ac\ucc9c\uc2dc \ucd95\ub3d9\uba74 \uc11c\uc0bc\ub85c 1742", "lat": "35.1090735", "lng": "128.085891"}, {"statNm": "\uc591\uc0b0\uad6d\ubbfc\uccb4\uc721\uc13c\ud130", "addr": "\uacbd\uc0c1\ub0a8\ub3c4 \uc591\uc0b0\uc2dc \ubb3c\uae08\uc74d \uac00\ucd0c\ub9ac 990, \uc548\ucabd \uc8fc\ucc28\uc7a5", "lat": "35.325638", "lng": "128.9951935"}, {"statNm": "\ub355\uacc4\ub3d9\uc8fc\ubbfc\uc13c\ud130", "addr": "\uacbd\uc0c1\ub0a8\ub3c4 \uc591\uc0b0\uc2dc \ub355\uacc4\ub3d9 1039-5", "lat": "35.3751747", "lng": "129.1497396"}, {"statNm": "\uc6c5\uc0c1\uccb4\uc721\uacf5\uc6d0", "addr": "\uacbd\uc0c1\ub0a8\ub3c4 \uc591\uc0b0\uc2dc \ud3c9\uc0b0\ub3d9 283, \ucd95\uad6c\uc7a5 \uc606", "lat": "35.3778178", "lng": "129.1434076"}, {"statNm": "\ud654\uc655\uc0b0 \uc790\uc5f0\ud734\uc591\ub9bc", "addr": "\uacbd\uc0c1\ub0a8\ub3c4 \ucc3d\ub155\uad70 \uace0\uc554\uba74 \uccad\uac04\uae38 128-126", "lat": "35.5462783", "lng": "128.5678712"}, {"statNm": "\uc0ac\ud30c\ub3d9 \ub178\uc678\uc8fc\ucc28\uc7a5", "addr": "\uacbd\uc0c1\ub0a8\ub3c4 \ucc3d\uc6d0\uc2dc \uc131\uc0b0\uad6c \uc0ac\ud30c\ub3d964-2", "lat": "35.2234373", "lng": "128.7020911"}, {"statNm": "\ud48d\ud638\ub3d9\uacf5\uc601\uc8fc\ucc28\uc7a5(\ub178\uc678\uc8fc\ucc28\uc7a5)", "addr": "\uacbd\uc0c1\ub0a8\ub3c4 \ucc3d\uc6d0\uc2dc \uc9c4\ud574\uad6c \ud48d\ud638\ub3d9 305-21", "lat": "35.1327351", "lng": "128.7041533"}, {"statNm": "\ubd80\ub9bc\uacf5\uc124\uc6b4\ub3d9\uc7a5 \uc8fc\ucc28\uc7a5", "addr": "\uacbd\uc0c1\ub0a8\ub3c4 \uc758\ub839\uad70 \ubd80\ub9bc\uba74 \uac10\uc554\ub9ac 1254", "lat": "35.4714534", "lng": "128.3227612"}, {"statNm": "\ub86f\ub370\ub9c8\ud2b8 \uc6c5\uc0c1\uc810", "addr": "\uacbd\uc0c1\ub0a8\ub3c4 \uc591\uc0b0\uc2dc \uc0bc\ud6381\uae38 34, 4\uce35 \uc8fc\ucc28\uc7a5 02", "lat": "35.4125843", "lng": "129.1671829"}, {"statNm": "\ub86f\ub370\ub9c8\ud2b8 \uc9c4\uc8fc\uc810", "addr": "\uacbd\uc0c1\ub0a8\ub3c4 \uc9c4\uc8fc\uc2dc \ub3d9\uc9c4\ub85c 440, \uc9c0\ud5582\uce35 \uc8fc\ucc28\uc7a5 C6", "lat": "35.1800924", "lng": "128.139958"}, {"statNm": "\ub86f\ub370\ub9c8\ud2b8 \ud1b5\uc601\uc810", "addr": "\uacbd\uc0c1\ub0a8\ub3c4 \ud1b5\uc601\uc2dc \ubb34\uc804\ub300\ub85c 65, 4\uce35 \uc8fc\ucc28\uc7a5", "lat": "34.8603378", "lng": "128.4287301"}, {"statNm": "\uc0bc\ucc9c\ud3ec\uc885\ud569\uc815\ube44", "addr": "\uacbd\uc0c1\ub0a8\ub3c4 \uc0ac\ucc9c\uc2dc \uc0bc\ucc9c\ud3ec\ub300\uad50\ub85c 577", "lat": "34.9493441", "lng": "128.0777738"}, {"statNm": "\uc9c4\uc8fc\ud604\ub300\uc11c\ube44\uc2a4", "addr": "\uacbd\uc0c1\ub0a8\ub3c4 \uc9c4\uc8fc\uc2dc \ub0b4\ub3d9\uba74 \ub0b4\ub3d9\ub85c 110", "lat": "35.1551221", "lng": "128.079304"}, {"statNm": "\ube44\ud559\uc5d0\ub108\uc9c0", "addr": "\uacbd\uc0c1\ub0a8\ub3c4 \uc591\uc0b0\uc2dc \uc0c1\ubd81\uba74 \uc591\uc0b0\ub300\ub85c 1510", "lat": "35.402327", "lng": "129.0565632"}, {"statNm": "\uadfc\ub85c\uc790\ubcf5\uc9c0\uacf5\ub2e8\ucc3d\uc6d0\ubcd1\uc6d0", "addr": "\uacbd\uc0c1\ub0a8\ub3c4 \ucc3d\uc6d0\uc2dc \uc131\uc0b0\uad6c \ucc3d\uc6d0\ub300\ub85c 721, \uac74\ubb3c \uc6b0\uce21", "lat": "35.2187322", "lng": "128.6722464"}, {"statNm": "\uae08\ud638\ud1b5\uc601\ub9c8\ub9ac\ub098\ub9ac\uc870\ud2b8\uc8fc\ucc28\uc7a5", "addr": "\uacbd\uc0c1\ub0a8\ub3c4 \ud1b5\uc601\uc2dc \ud070\ubc1c\uac1c 1\uae38 33, \ub9c8\ub9ac\ub098\uc694\ud2b8\ud074\ub7fd \uc55e", "lat": "34.827381", "lng": "128.439006"}, {"statNm": "\ub86f\ub370\ub9c8\ud2b8 \uc0bc\uacc4\uc810", "addr": "\uacbd\uc0c1\ub0a8\ub3c4 \ucc3d\uc6d0\uc2dc \ub9c8\uc0b0\ud68c\uc6d0\uad6c \ub0b4\uc11c\uc74d \uacbd\ub0a8\ub300\ub85c 927", "lat": "35.233023", "lng": "128.504094"}, {"statNm": "\ud648\ud50c\ub7ec\uc2a4 \ub9c8\uc0b0\uc810", "addr": "\uacbd\uc0c1\ub0a8\ub3c4 \ucc3d\uc6d0\uc2dc \ub9c8\uc0b0\ud68c\uc6d0\uad6c \uc0bc\ud638\ub85c 56", "lat": "35.222610", "lng": "128.585767"}, {"statNm": "\uc9c4\uc8fc\uc2dc\uccad", "addr": "\uacbd\uc0c1\ub0a8\ub3c4 \uc9c4\uc8fc\uc2dc \ub3d9\uc9c4\ub85c 155", "lat": "35.180378", "lng": "128.108884"}, {"statNm": "\uacbd\uc0c1\ub0a8\ub3c4 \uc11c\ubd80\uccad\uc0ac", "addr": "\uacbd\uc0c1\ub0a8\ub3c4 \uc9c4\uc8fc\uc2dc \uc6d4\uc544\uc0b0\ub85c 2026", "lat": "35.2129639", "lng": "128.1233299"}, {"statNm": "\uc9c4\ud574\ud574\uc591\uacf5\uc6d0", "addr": "\uacbd\uc0c1\ub0a8\ub3c4 \ucc3d\uc6d0\uc2dc \uc9c4\ud574\uad6c \uba85\ub3d9\ub85c 62", "lat": "35.092286", "lng": "128.719427"}, {"statNm": "\uc2e0\uc138\uacc4\uc885\ud569\uc815\ube44", "addr": "\uacbd\uc0c1\ub0a8\ub3c4 \ud1b5\uc601\uc2dc \uad11\ub3c4\uba74 \uc8fd\ub9bc\ub9ac 292-33", "lat": "34.8789124", "lng": "128.4133694"}, {"statNm": "\uae40\ud574\uc2dc \uc7a5\uc720\ucd9c\uc7a5\uc18c", "addr": "\uacbd\uc0c1\ub0a8\ub3c4 \uae40\ud574\uc2dc \ubd80\uace1\ub85c 57", "lat": "35.2090443", "lng": "128.798395"}, {"statNm": "\uc9c4\uc601\ubb38\ud654\uc13c\ud130", "addr": "\uacbd\uc0c1\ub0a8\ub3c4 \uae40\ud574\uc2dc \uc9c4\uc601\uc74d \uae40\ud574\ub300\ub85c 440", "lat": "35.3049134", "lng": "128.7374389"}, {"statNm": "\uac70\uc81c\ud734\uac8c\uc18c(\uac70\uc81c\ud574\uc591\ud30c\ud06c)", "addr": "\uacbd\uc0c1\ub0a8\ub3c4 \uac70\uc81c\uc2dc \uac70\uc81c\ub300\ub85c 1068", "lat": "34.9723153", "lng": "128.6938807"}, {"statNm": "\uace0\uc131\ud734\uac8c\uc18c(\ud558\ub0a8\ubc29\ud5a5)", "addr": "\uacbd\uc0c1\ub0a8\ub3c4 \uace0\uc131\uad70 \ub300\uac00\uba74 \ud1b5\uc601\ub300\uc804\uace0\uc18d\ub3c4\ub85c 32", "lat": "35.0571523", "lng": "128.2511447"}, {"statNm": "\uace0\uc131\ud734\uac8c\uc18c(\ud1b5\uc601\ubc29\ud5a5)", "addr": "\uacbd\uc0c1\ub0a8\ub3c4 \uace0\uc131\uad70 \ub300\uac00\uba74 \ud1b5\uc601\ub300\uc804\uace0\uc18d\ub3c4\ub85c 29", "lat": "35.0516247", "lng": "128.2638664"}, {"statNm": "\uc774\uc21c\uc2e0\uc21c\uad6d\uacf5\uc6d0", "addr": "\uacbd\uc0c1\ub0a8\ub3c4 \ub0a8\ud574\uad70 \uace0\ud604\uba74 \ucc28\uba74\ub9ac", "lat": "34.9105664", "lng": "127.8587754"}, {"statNm": "\ud558\ub3d9\uad70\uccad", "addr": "\uacbd\uc0c1\ub0a8\ub3c4 \ud558\ub3d9\uad70 \ud558\ub3d9\uc74d \uad70\uccad\ub85c 23", "lat": "35.0673835", "lng": "127.7511601"}, {"statNm": "\uc11d\ud48d\ud734\uac8c\uc18c", "addr": "\uacbd\uc0c1\ub0a8\ub3c4 \uc0b0\uccad\uad70 \uc2e0\uc548\uba74 \uc0b0\uccad\ub300\ub85c 1169", "lat": "35.3629543", "lng": "127.9186023"}, {"statNm": "\ud568\uc591\ud734\uac8c\uc18c(\ud558\ub0a8\ubc29\ud5a5)", "addr": "\uacbd\uc0c1\ub0a8\ub3c4 \ud568\uc591\uad70 \uc9c0\uace1\uba74 \ubcf4\uc0b0\ub9ac", "lat": "35.5518867", "lng": "127.7599314"}, {"statNm": "\ud568\uc591\ud734\uac8c\uc18c(\ud1b5\uc601\ubc29\ud5a5)", "addr": "\uacbd\uc0c1\ub0a8\ub3c4 \ud568\uc591\uad70 \uc9c0\uace1\uba74 \ubcf4\uc0b0\ub9ac", "lat": "35.5511049", "lng": "127.7586744"}, {"statNm": "\uc870\ub9dd\uacf5\uc6d0", "addr": "\uacbd\uc0c1\ub0a8\ub3c4 \ud568\uc591\uad70 \ud568\uc591\uc74d \uace0\uc6b4\ub85c 161-51", "lat": "35.5244553", "lng": "127.7438188"}, {"statNm": "\uac70\ucc3d\ud734\uac8c\uc18c(\uc625\ud3ec\ubc29\ud5a5)", "addr": "\uacbd\uc0c1\ub0a8\ub3c4 \uac70\ucc3d\uad70 \uac00\uc870\uba74 \ub3c4\ub9ac", "lat": "35.7057972", "lng": "128.0569946"}, {"statNm": "\uac70\ucc3d\ud734\uac8c\uc18c(\uace0\uc11c\ubc29\ud5a5)", "addr": "\uacbd\uc0c1\ub0a8\ub3c4 \uac70\ucc3d\uad70 \uac00\uc870\uba74 \ub3c4\ub9ac \uc0b0189-1", "lat": "35.7085155", "lng": "128.0574192"}, {"statNm": "\uac70\ucc3d\uad70\uccad", "addr": "\uacbd\uc0c1\ub0a8\ub3c4 \uac70\ucc3d\uad70 \uac70\ucc3d\uc74d \uc911\uc559\ub85c 103", "lat": "35.6869125", "lng": "127.9092271"}, {"statNm": "\ud569\ucc9c\uad70\uccad", "addr": "\uacbd\uc0c1\ub0a8\ub3c4 \ud569\ucc9c\uad70 \ud569\ucc9c\uc74d \ub3d9\uc11c\ub85c 119", "lat": "35.5666565", "lng": "128.1667084"}, {"statNm": "\ud1b5\ub3c4\uc0ac\ud734\uac8c\uc18c(\ubd80\uc0b0\ubc29\ud5a5)", "addr": "\uacbd\uc0c1\ub0a8\ub3c4 \uc591\uc0b0\uc2dc \ud558\ubd81\uba74 \uacbd\ubd80\uace0\uc18d\ub3c4\ub85c 31-1 (\uc21c\uc9c0\ub9ac)", "lat": "35.4885288", "lng": "129.0914428"}, {"statNm": "\ud1b5\ub3c4\uc0ac\ud734\uac8c\uc18c(\ubd80\uc0b0\ubc29\ud5a5)", "addr": "\uacbd\uc0c1\ub0a8\ub3c4 \uc591\uc0b0\uc2dc \ud558\ubd81\uba74 \uacbd\ubd80\uace0\uc18d\ub3c4\ub85c 31-1 (\uc21c\uc9c0\ub9ac)", "lat": "35.4885288", "lng": "129.0914428"}, {"statNm": "\ud1b5\ub3c4\uc0ac\ud734\uac8c\uc18c(\ubd80\uc0b0\ubc29\ud5a5)", "addr": "\uacbd\uc0c1\ub0a8\ub3c4 \uc591\uc0b0\uc2dc \ud558\ubd81\uba74 \uacbd\ubd80\uace0\uc18d\ub3c4\ub85c 31-1 (\uc21c\uc9c0\ub9ac)", "lat": "35.4885288", "lng": "129.0914428"}, {"statNm": "\uace0\uc131\ud734\uac8c\uc18c(\ud1b5\uc601\ubc29\ud5a5)", "addr": "\uacbd\uc0c1\ub0a8\ub3c4 \uace0\uc131\uad70 \ub300\uac00\uba74 \ud1b5\uc601\ub300\uc804\uace0\uc18d\ub3c4\ub85c 29 (\uc1a1\uacc4\ub9ac)", "lat": "35.0515247", "lng": "128.2640664"}, {"statNm": "\uace0\uc131\ud734\uac8c\uc18c(\ud558\ub0a8\ubc29\ud5a5)", "addr": "\uacbd\uc0c1\ub0a8\ub3c4 \uace0\uc131\uad70 \ub300\uac00\uba74 \ud1b5\uc601\ub300\uc804\uace0\uc18d\ub3c4\ub85c 32 (\uc2e0\uc804\ub9ac)", "lat": "35.0570523", "lng": "128.2513447"}, {"statNm": "\uc0b0\uccad\ud734\uac8c\uc18c(\ud1b5\uc601\ubc29\ud5a5)", "addr": "\uacbd\uc0c1\ub0a8\ub3c4 \uc0b0\uccad\uad70 \ub2e8\uc131\uba74 \ud1b5\uc601\ub300\uc804\uace0\uc18d\ub3c4\ub85c 77 (\ubc29\ubaa9\ub9ac)", "lat": "35.3333219", "lng": "127.9375368"}, {"statNm": "\uc0b0\uccad\ud734\uac8c\uc18c(\ud1b5\uc601\ubc29\ud5a5)", "addr": "\uacbd\uc0c1\ub0a8\ub3c4 \uc0b0\uccad\uad70 \ub2e8\uc131\uba74 \ud1b5\uc601\ub300\uc804\uace0\uc18d\ub3c4\ub85c 77 (\ubc29\ubaa9\ub9ac)", "lat": "35.3333219", "lng": "127.9375368"}, {"statNm": "\uc0b0\uccad\ud734\uac8c\uc18c(\ud558\ub0a8\ubc29\ud5a5)", "addr": "\uacbd\uc0c1\ub0a8\ub3c4 \uc0b0\uccad\uad70 \ub2e8\uc131\uba74 \ud1b5\uc601\ub300\uc804\uace0\uc18d\ub3c4\ub85c 76 (\ubc29\ubaa9\ub9ac)", "lat": "35.3340661", "lng": "127.9386829"}, {"statNm": "\uc0b0\uccad\ud734\uac8c\uc18c(\ud558\ub0a8\ubc29\ud5a5)", "addr": "\uacbd\uc0c1\ub0a8\ub3c4 \uc0b0\uccad\uad70 \ub2e8\uc131\uba74 \ud1b5\uc601\ub300\uc804\uace0\uc18d\ub3c4\ub85c 76 (\ubc29\ubaa9\ub9ac)", "lat": "35.3340661", "lng": "127.9386829"}, {"statNm": "\ud568\uc591\ud734\uac8c\uc18c(\ud1b5\uc601\ubc29\ud5a5)", "addr": "\uacbd\uc0c1\ub0a8\ub3c4 \ud568\uc591\uad70 \uc9c0\uace1\uba74 \ud6a8\uc0b0\uae38 23-31 (\ubcf4\uc0b0\ub9ac)", "lat": "35.5510049", "lng": "127.7588744"}, {"statNm": "\ud568\uc591\ud734\uac8c\uc18c(\ud558\ub0a8\ubc29\ud5a5)", "addr": "\uacbd\uc0c1\ub0a8\ub3c4 \ud568\uc591\uad70 \uc9c0\uace1\uba74 \ud6a8\uc0b0\uae38 23-11 (\ubcf4\uc0b0\ub9ac)", "lat": "35.5517867", "lng": "127.7601314"}, {"statNm": "\uc601\uc0b0\ud734\uac8c\uc18c(\ub9c8\uc0b0\ubc29\ud5a5)", "addr": "\uacbd\uc0c1\ub0a8\ub3c4 \ucc3d\ub155\uad70 \uc601\uc0b0\uba74 \uc7a5\ucc99\ud638\uc218\uae38 56-110 (\uc2e0\uc81c\ub9ac)", "lat": "35.4295445", "lng": "128.4963675"}, {"statNm": "\uc601\uc0b0\ud734\uac8c\uc18c(\ub9c8\uc0b0\ubc29\ud5a5)", "addr": "\uacbd\uc0c1\ub0a8\ub3c4 \ucc3d\ub155\uad70 \uc601\uc0b0\uba74 \uc7a5\ucc99\ud638\uc218\uae38 56-110 (\uc2e0\uc81c\ub9ac)", "lat": "35.4295445", "lng": "128.4963675"}, {"statNm": "\uce60\uc11c\ud734\uac8c\uc18c(\uc591\ud3c9\ubc29\ud5a5)", "addr": "\uacbd\uc0c1\ub0a8\ub3c4 \ud568\uc548\uad70 \uce60\uc11c\uba74 \uacc4\ub8e1\ub85c 122-1 (\uacc4\ub0b4\ub9ac)", "lat": "35.3704567", "lng": "128.4967833"}, {"statNm": "\uce60\uc11c\ud734\uac8c\uc18c(\uc591\ud3c9\ubc29\ud5a5)", "addr": "\uacbd\uc0c1\ub0a8\ub3c4 \ud568\uc548\uad70 \uce60\uc11c\uba74 \uacc4\ub8e1\ub85c 122-1 (\uacc4\ub0b4\ub9ac)", "lat": "35.3704567", "lng": "128.4967833"}, {"statNm": "\uc0ac\ucc9c\ud734\uac8c\uc18c(\ubd80\uc0b0\ubc29\ud5a5)", "addr": "\uacbd\uc0c1\ub0a8\ub3c4 \uc0ac\ucc9c\uc2dc \uace4\uc591\uba74 \uc11c\uc0bc\ub85c 619 (\ubb35\uace1\ub9ac)", "lat": "35.0732831", "lng": "128.0110198"}, {"statNm": "\uc0ac\ucc9c\ud734\uac8c\uc18c(\uc21c\ucc9c\ubc29\ud5a5)", "addr": "\uacbd\uc0c1\ub0a8\ub3c4 \uc0ac\ucc9c\uc2dc \uace4\uc591\uba74 \ubb35\uc2e4\uae38 31-11 (\ubb35\uace1\ub9ac)", "lat": "35.0748033", "lng": "128.0134007"}, {"statNm": "\ud568\uc548\ud734\uac8c\uc18c(\ubd80\uc0b0\ubc29\ud5a5)", "addr": "\uacbd\uc0c1\ub0a8\ub3c4 \ud568\uc548\uad70 \uad70\ubd81\uba74 \ud604\ud3ec\ub85c 205 (\uc720\ud604\ub9ac)", "lat": "35.2940514", "lng": "128.3473478"}, {"statNm": "\uac70\ucc3d\ud734\uac8c\uc18c(\uace0\uc11c\ubc29\ud5a5)", "addr": "\uacbd\uc0c1\ub0a8\ub3c4 \uac70\ucc3d\uad70 \uac00\uc870\uba74 \uac00\uc870\uac00\uc57c\ub85c 1523 (\ub3c4\ub9ac)", "lat": "35.7084155", "lng": "128.0576192"}, {"statNm": "\uac70\ucc3d\ud734\uac8c\uc18c(\uc625\ud3ec\ubc29\ud5a5)", "addr": "\uacbd\uc0c1\ub0a8\ub3c4 \uac70\ucc3d\uad70 \uac00\uc870\uba74 \uac00\uc870\uac00\uc57c\ub85c 1543-81 (\ub3c4\ub9ac)", "lat": "35.7056972", "lng": "128.0571946"}, {"statNm": "\uc7a5\uc720\ud734\uac8c\uc18c(\ubd80\uc0b0\ubc29\ud5a5)", "addr": "\uacbd\uc0c1\ub0a8\ub3c4 \uae40\ud574\uc2dc \uc7a5\uc720\ub85c116\ubc88\uae38 44-82 (\ubd80\uace1\ub3d9)", "lat": "35.2118159", "lng": "128.794438"}, {"statNm": "\uc7a5\uc720\ud734\uac8c\uc18c(\ubd80\uc0b0\ubc29\ud5a5)", "addr": "\uacbd\uc0c1\ub0a8\ub3c4 \uae40\ud574\uc2dc \uc7a5\uc720\ub85c116\ubc88\uae38 44-82 (\ubd80\uace1\ub3d9)", "lat": "35.2118159", "lng": "128.794438"}, {"statNm": "\ud55c\uad6d\ub3c4\ub85c\uacf5\uc0ac\ucc3d\uc6d0\uc9c0\uc0ac", "addr": "\uacbd\uc0c1\ub0a8\ub3c4 \ucc3d\uc6d0\uc2dc \uc758\ucc3d\uad6c \uc758\ucc3d\ub300\ub85c 1024", "lat": "35.2842423", "lng": "128.7006196"}, {"statNm": "\ub86f\ub370\ub9c8\ud2b8 \ub9c8\uc0b0\uc810", "addr": "\uacbd\uc0c1\ub0a8\ub3c4 \ucc3d\uc6d0\uc2dc \ub9c8\uc0b0\ud569\ud3ec\uad6c \uc2e0\ub9c8\uc0b0\uc2dc\uc7a5\uae38 33 (\ucc3d\ud3ec\ub3d93\uac00)", "lat": "35.1813836", "lng": "128.5606975"}, {"statNm": "\ub86f\ub370\ub9c8\ud2b8 \ub9c8\uc0b0\uc810", "addr": "\uacbd\uc0c1\ub0a8\ub3c4 \ucc3d\uc6d0\uc2dc \ub9c8\uc0b0\ud569\ud3ec\uad6c \uc2e0\ub9c8\uc0b0\uc2dc\uc7a5\uae38 33 (\ucc3d\ud3ec\ub3d93\uac00)", "lat": "35.1813836", "lng": "128.5606975"}, {"statNm": "\ub86f\ub370\ub9c8\ud2b8 \uc7a5\uc720\uc810", "addr": "\uacbd\uc0c1\ub0a8\ub3c4 \uae40\ud574\uc2dc \ubc88\ud6541\ub85c56\ubc88\uae38 15 \ub86f\ub370\ub9c8\ud2b8", "lat": "35.193012", "lng": "128.8013646"}, {"statNm": "\uc9c0\ub9ac\uc0b0\uad6d\ub9bd\uacf5\uc6d0 \uc911\uc0b0\ub9ac\uc8fc\ucc28\uc7a5", "addr": "\uacbd\uc0c1\ub0a8\ub3c4 \uc0b0\uccad\uad70 \uc2dc\ucc9c\uba74 \uc911\uc0b0\ub9ac 619-12", "lat": "35.304022", "lng": "127.74934"}, {"statNm": "\uc9c0\ub9ac\uc0b0\uad6d\ub9bd\uacf5\uc6d0 \uc911\uc0b0\ub9ac\uc8fc\ucc28\uc7a5", "addr": "\uacbd\uc0c1\ub0a8\ub3c4 \uc0b0\uccad\uad70 \uc2dc\ucc9c\uba74 \uc911\uc0b0\ub9ac 619-12", "lat": "35.304022", "lng": "127.74934"}, {"statNm": "\uc9c0\ub9ac\uc0b0\uad6d\ub9bd\uacf5\uc6d0 \uc30d\uacc4\uc0ac \uc8fc\ucc28\uc7a5", "addr": "\uacbd\uc0c1\ub0a8\ub3c4 \ud558\ub3d9\uad70 \ud654\uac1c\uba74 \uc6a9\uac15\ub9ac 400-5", "lat": "35.230286", "lng": "127.641776"}, {"statNm": "\uc9c0\ub9ac\uc0b0\uad6d\ub9bd\uacf5\uc6d0 \uc30d\uacc4\uc0ac \uc8fc\ucc28\uc7a5", "addr": "\uacbd\uc0c1\ub0a8\ub3c4 \ud558\ub3d9\uad70 \ud654\uac1c\uba74 \uc6a9\uac15\ub9ac 400-5", "lat": "35.230286", "lng": "127.641776"}, {"statNm": "\ud55c\ub824\ud574\uc0c1\uad6d\ub9bd\uacf5\uc6d0\uc0ac\ubb34\uc18c \ub178\ub7c9\ubd84\uc18c", "addr": "\uacbd\uc0c1\ub0a8\ub3c4 \ub0a8\ud574\uad70 \uc124\ucc9c\uba74 \ub178\ub7c9\ub9ac 410-36", "lat": "34.939704", "lng": "127.875309"}, {"statNm": "\ud55c\ub824\ud574\uc0c1\uad6d\ub9bd\uacf5\uc6d0\uc0ac\ubb34\uc18c \ub178\ub7c9\ubd84\uc18c", "addr": "\uacbd\uc0c1\ub0a8\ub3c4 \ub0a8\ud574\uad70 \uc124\ucc9c\uba74 \ub178\ub7c9\ub9ac 410-36", "lat": "34.939704", "lng": "127.875309"}, {"statNm": "\ud55c\ub824\ud574\uc0c1\uad6d\ub9bd\uacf5\uc6d0\uc0ac\ubb34\uc18c \uae08\uc0b0\ubd84\uc18c", "addr": "\uacbd\uc0c1\ub0a8\ub3c4 \ub0a8\ud574\uad70 \uc774\ub3d9\uba74 \ubcf4\ub9ac\uc554\ub85c 287", "lat": "34.773405", "lng": "127.987807"}, {"statNm": "\ud55c\ub824\ud574\uc0c1\uad6d\ub9bd\uacf5\uc6d0\uc0ac\ubb34\uc18c \uae08\uc0b0\ubd84\uc18c", "addr": "\uacbd\uc0c1\ub0a8\ub3c4 \ub0a8\ud574\uad70 \uc774\ub3d9\uba74 \ubcf4\ub9ac\uc554\ub85c 287", "lat": "34.773405", "lng": "127.987807"}, {"statNm": "\ub9cc\ud3ec\uc8fc\uc720\uc18c", "addr": "\uacbd\uc0c1\ub0a8\ub3c4 \ubc00\uc591\uc2dc \uc0bc\ub791\uc9c4\uc74d \uc0bc\ub791\uc9c4\ub85c 390", "lat": "35.39879", "lng": "128.819108"}, {"statNm": "\ud1b5\ub3c4\ud638\ud154", "addr": "\uacbd\uc0c1\ub0a8\ub3c4 \uc591\uc0b0\uc2dc \uc2e0\ud3c9\uac15\ubcc08\uae38 11", "lat": "35.493286", "lng": "129.083243"}, {"statNm": "\ud3ec\uc720\uc8fc\uc720\uc18c", "addr": "\uacbd\uc0c1\ub0a8\ub3c4 \uc591\uc0b0\uc2dc \uc5b4\uace1\ud130\ub110\ub85c40", "lat": "35.375148", "lng": "129.031419"}, {"statNm": "S-oil \ubb3c\uae08\uc8fc\uc720\uc18c", "addr": "\uacbd\uc0c1\ub0a8\ub3c4 \uc591\uc0b0\uc2dc \ubb3c\uae08\uc74d \ud669\uc0b0\ub85c501", "lat": "35.31907", "lng": "128.994332"}, {"statNm": "\uc911\uc559\uc8fc\uc720\uc18c", "addr": "\uacbd\uc0c1\ub0a8\ub3c4 \uc758\ub839\uad70 \uc758\ub839\uc74d \ubc31\uc0b0\ub85c4", "lat": "35.320263", "lng": "128.2645"}, {"statNm": "\ub9c8\uc0b0\uc758\ub8cc\uc6d0", "addr": "\uacbd\uc0c1\ub0a8\ub3c4 \ucc3d\uc6d0\uc2dc \uc7a5\uad70\ub3d94\uac00 3-6", "lat": "35.199462", "lng": "128.565332"}, {"statNm": "\ub0a8\uad11\uc11d\uc720\ud310\ub9e4", "addr": "\uacbd\uc0c1\ub0a8\ub3c4 \ucc3d\uc6d0\uc2dc \uc758\ucc3d\uad6c \ucc3d\uc6d0\ub300\ub85c314", "lat": "35.238045", "lng": "128.633719"}, {"statNm": "\uc911\uc559\ubaa8\ud130\uc2a4", "addr": "\uacbd\uc0c1\ub0a8\ub3c4 \ucc3d\uc6d0\uc2dc \uc758\ucc3d\uad6c \uc18c\uacc4\ub85c 33", "lat": "35.25481", "lng": "128.603051"}, {"statNm": "\ud569\ucc9c\uad00\uad11\ud734\uac8c\uc18c", "addr": "\uacbd\uc0c1\ub0a8\ub3c4 \ud569\ucc9c\uad70 \uc30d\ubc31\uba74 \uc30d\ubc31\uc911\uc559\ub85c162-8", "lat": "35.449674", "lng": "128.14454"}, {"statNm": "\ub86f\ub370\ub9c8\ud2b8 \uac70\uc81c\uc810", "addr": "\uacbd\uc0c1\ub0a8\ub3c4 \uac70\uc81c\uc2dc \uc11c\uac04\ub3c4\uae38 9-9 (\uc625\ud3ec\ub3d9)", "lat": "34.888448", "lng": "128.691064"}, {"statNm": "\ub86f\ub370\ub9c8\ud2b8 \uc2dc\ud2f0\uc138\ube10\uc810", "addr": "\uacbd\uc0c1\ub0a8\ub3c4 \ucc3d\uc6d0\uc2dc \uc758\ucc3d\uad6c \uc6d0\uc774\ub300\ub85c 320 (\ub450\ub300\ub3d9)", "lat": "35.240183", "lng": "128.653229"}, {"statNm": "\ub86f\ub370\ub9c8\ud2b8 \uc2dc\ud2f0\uc138\ube10\uc810", "addr": "\uacbd\uc0c1\ub0a8\ub3c4 \ucc3d\uc6d0\uc2dc \uc758\ucc3d\uad6c \uc6d0\uc774\ub300\ub85c 320 (\ub450\ub300\ub3d9)", "lat": "35.240183", "lng": "128.653229"}, {"statNm": "\ub86f\ub370\ub9c8\ud2b8 \uae40\ud574\uc810", "addr": "\uacbd\uc0c1\ub0a8\ub3c4 \uae40\ud574\uc2dc \uae40\ud574\ub300\ub85c 2330 (\ubd80\uc6d0\ub3d9)", "lat": "35.225619", "lng": "128.881964"}, {"statNm": "\ub86f\ub370\ub9c8\ud2b8 \uc591\ub355\uc810", "addr": "\uacbd\uc0c1\ub0a8\ub3c4 \ucc3d\uc6d0\uc2dc \ub9c8\uc0b0\ud68c\uc6d0\uad6c \uc0bc\ud638\ub85c 80 (\uc591\ub355\ub3d9)", "lat": "35.223311", "lng": "128.585287"}, {"statNm": "\uc0ac\ucc9c\ub9cc\ub0a8\uc758 \uad11\uc7a5", "addr": "\uacbd\uc0c1\ub0a8\ub3c4 \uc0ac\ucc9c\uc2dc \ucd95\ub3d9\uba74 \uc11c\uc0bc\ub85c 1742", "lat": "35.1090735", "lng": "128.085891"}, {"statNm": "\uc591\uc0b0\uad6d\ubbfc\uccb4\uc721\uc13c\ud130", "addr": "\uacbd\uc0c1\ub0a8\ub3c4 \uc591\uc0b0\uc2dc \ubb3c\uae08\uc74d \uac00\ucd0c\ub9ac 990, \uc548\ucabd \uc8fc\ucc28\uc7a5", "lat": "35.325638", "lng": "128.9951935"}, {"statNm": "\ub355\uacc4\ub3d9\uc8fc\ubbfc\uc13c\ud130", "addr": "\uacbd\uc0c1\ub0a8\ub3c4 \uc591\uc0b0\uc2dc \ub355\uacc4\ub3d9 1039-5", "lat": "35.3751747", "lng": "129.1497396"}, {"statNm": "\uc6c5\uc0c1\uccb4\uc721\uacf5\uc6d0", "addr": "\uacbd\uc0c1\ub0a8\ub3c4 \uc591\uc0b0\uc2dc \ud3c9\uc0b0\ub3d9 283, \ucd95\uad6c\uc7a5 \uc606", "lat": "35.3778178", "lng": "129.1434076"}, {"statNm": "\ud654\uc655\uc0b0 \uc790\uc5f0\ud734\uc591\ub9bc", "addr": "\uacbd\uc0c1\ub0a8\ub3c4 \ucc3d\ub155\uad70 \uace0\uc554\uba74 \uccad\uac04\uae38 128-126", "lat": "35.5462783", "lng": "128.5678712"}, {"statNm": "\uc0ac\ud30c\ub3d9 \ub178\uc678\uc8fc\ucc28\uc7a5", "addr": "\uacbd\uc0c1\ub0a8\ub3c4 \ucc3d\uc6d0\uc2dc \uc131\uc0b0\uad6c \uc0ac\ud30c\ub3d964-2", "lat": "35.2234373", "lng": "128.7020911"}, {"statNm": "\ud48d\ud638\ub3d9\uacf5\uc601\uc8fc\ucc28\uc7a5(\ub178\uc678\uc8fc\ucc28\uc7a5)", "addr": "\uacbd\uc0c1\ub0a8\ub3c4 \ucc3d\uc6d0\uc2dc \uc9c4\ud574\uad6c \ud48d\ud638\ub3d9 305-21", "lat": "35.1327351", "lng": "128.7041533"}, {"statNm": "\ubd80\ub9bc\uacf5\uc124\uc6b4\ub3d9\uc7a5 \uc8fc\ucc28\uc7a5", "addr": "\uacbd\uc0c1\ub0a8\ub3c4 \uc758\ub839\uad70 \ubd80\ub9bc\uba74 \uac10\uc554\ub9ac 1254", "lat": "35.4714534", "lng": "128.3227612"}, {"statNm": "\ub86f\ub370\ub9c8\ud2b8 \uc6c5\uc0c1\uc810", "addr": "\uacbd\uc0c1\ub0a8\ub3c4 \uc591\uc0b0\uc2dc \uc0bc\ud6381\uae38 34, 4\uce35 \uc8fc\ucc28\uc7a5 02", "lat": "35.4125843", "lng": "129.1671829"}, {"statNm": "\ub86f\ub370\ub9c8\ud2b8 \uc9c4\uc8fc\uc810", "addr": "\uacbd\uc0c1\ub0a8\ub3c4 \uc9c4\uc8fc\uc2dc \ub3d9\uc9c4\ub85c 440, \uc9c0\ud5582\uce35 \uc8fc\ucc28\uc7a5 C6", "lat": "35.1800924", "lng": "128.139958"}, {"statNm": "\ub86f\ub370\ub9c8\ud2b8 \ud1b5\uc601\uc810", "addr": "\uacbd\uc0c1\ub0a8\ub3c4 \ud1b5\uc601\uc2dc \ubb34\uc804\ub300\ub85c 65, 4\uce35 \uc8fc\ucc28\uc7a5", "lat": "34.8603378", "lng": "128.4287301"}, {"statNm": "\uc0bc\ucc9c\ud3ec\uc885\ud569\uc815\ube44", "addr": "\uacbd\uc0c1\ub0a8\ub3c4 \uc0ac\ucc9c\uc2dc \uc0bc\ucc9c\ud3ec\ub300\uad50\ub85c 577", "lat": "34.9493441", "lng": "128.0777738"}, {"statNm": "\uc9c4\uc8fc\ud604\ub300\uc11c\ube44\uc2a4", "addr": "\uacbd\uc0c1\ub0a8\ub3c4 \uc9c4\uc8fc\uc2dc \ub0b4\ub3d9\uba74 \ub0b4\ub3d9\ub85c 110", "lat": "35.1551221", "lng": "128.079304"}, {"statNm": "\ube44\ud559\uc5d0\ub108\uc9c0", "addr": "\uacbd\uc0c1\ub0a8\ub3c4 \uc591\uc0b0\uc2dc \uc0c1\ubd81\uba74 \uc591\uc0b0\ub300\ub85c 1510", "lat": "35.402327", "lng": "129.0565632"}, {"statNm": "\uadfc\ub85c\uc790\ubcf5\uc9c0\uacf5\ub2e8\ucc3d\uc6d0\ubcd1\uc6d0", "addr": "\uacbd\uc0c1\ub0a8\ub3c4 \ucc3d\uc6d0\uc2dc \uc131\uc0b0\uad6c \ucc3d\uc6d0\ub300\ub85c 721, \uac74\ubb3c \uc6b0\uce21", "lat": "35.2187322", "lng": "128.6722464"}, {"statNm": "\uae08\ud638\ud1b5\uc601\ub9c8\ub9ac\ub098\ub9ac\uc870\ud2b8\uc8fc\ucc28\uc7a5", "addr": "\uacbd\uc0c1\ub0a8\ub3c4 \ud1b5\uc601\uc2dc \ud070\ubc1c\uac1c 1\uae38 33, \ub9c8\ub9ac\ub098\uc694\ud2b8\ud074\ub7fd \uc55e", "lat": "34.827381", "lng": "128.439006"}, {"statNm": "\ub86f\ub370\ub9c8\ud2b8 \uc0bc\uacc4\uc810", "addr": "\uacbd\uc0c1\ub0a8\ub3c4 \ucc3d\uc6d0\uc2dc \ub9c8\uc0b0\ud68c\uc6d0\uad6c \ub0b4\uc11c\uc74d \uacbd\ub0a8\ub300\ub85c 927", "lat": "35.233023", "lng": "128.504094"}, {"statNm": "\ud648\ud50c\ub7ec\uc2a4 \ub9c8\uc0b0\uc810", "addr": "\uacbd\uc0c1\ub0a8\ub3c4 \ucc3d\uc6d0\uc2dc \ub9c8\uc0b0\ud68c\uc6d0\uad6c \uc0bc\ud638\ub85c 56", "lat": "35.222610", "lng": "128.585767"}, {"statNm": "\uc9c4\uc8fc\uc2dc\uccad", "addr": "\uacbd\uc0c1\ub0a8\ub3c4 \uc9c4\uc8fc\uc2dc \ub3d9\uc9c4\ub85c 155", "lat": "35.180378", "lng": "128.108884"}, {"statNm": "\uacbd\uc0c1\ub0a8\ub3c4 \uc11c\ubd80\uccad\uc0ac", "addr": "\uacbd\uc0c1\ub0a8\ub3c4 \uc9c4\uc8fc\uc2dc \uc6d4\uc544\uc0b0\ub85c 2026", "lat": "35.2129639", "lng": "128.1233299"}, {"statNm": "\uc9c4\ud574\ud574\uc591\uacf5\uc6d0", "addr": "\uacbd\uc0c1\ub0a8\ub3c4 \ucc3d\uc6d0\uc2dc \uc9c4\ud574\uad6c \uba85\ub3d9\ub85c 62", "lat": "35.092286", "lng": "128.719427"}, {"statNm": "\uc2e0\uc138\uacc4\uc885\ud569\uc815\ube44", "addr": "\uacbd\uc0c1\ub0a8\ub3c4 \ud1b5\uc601\uc2dc \uad11\ub3c4\uba74 \uc8fd\ub9bc\ub9ac 292-33", "lat": "34.8789124", "lng": "128.4133694"}, {"statNm": "\uae40\ud574\uc2dc \uc7a5\uc720\ucd9c\uc7a5\uc18c", "addr": "\uacbd\uc0c1\ub0a8\ub3c4 \uae40\ud574\uc2dc \ubd80\uace1\ub85c 57", "lat": "35.2090443", "lng": "128.798395"}, {"statNm": "\uc9c4\uc601\ubb38\ud654\uc13c\ud130", "addr": "\uacbd\uc0c1\ub0a8\ub3c4 \uae40\ud574\uc2dc \uc9c4\uc601\uc74d \uae40\ud574\ub300\ub85c 440", "lat": "35.3049134", "lng": "128.7374389"}, {"statNm": "\uac70\uc81c\ud734\uac8c\uc18c(\uac70\uc81c\ud574\uc591\ud30c\ud06c)", "addr": "\uacbd\uc0c1\ub0a8\ub3c4 \uac70\uc81c\uc2dc \uac70\uc81c\ub300\ub85c 1068", "lat": "34.9723153", "lng": "128.6938807"}, {"statNm": "\uace0\uc131\ud734\uac8c\uc18c(\ud558\ub0a8\ubc29\ud5a5)", "addr": "\uacbd\uc0c1\ub0a8\ub3c4 \uace0\uc131\uad70 \ub300\uac00\uba74 \ud1b5\uc601\ub300\uc804\uace0\uc18d\ub3c4\ub85c 32", "lat": "35.0571523", "lng": "128.2511447"}, {"statNm": "\uace0\uc131\ud734\uac8c\uc18c(\ud1b5\uc601\ubc29\ud5a5)", "addr": "\uacbd\uc0c1\ub0a8\ub3c4 \uace0\uc131\uad70 \ub300\uac00\uba74 \ud1b5\uc601\ub300\uc804\uace0\uc18d\ub3c4\ub85c 29", "lat": "35.0516247", "lng": "128.2638664"}, {"statNm": "\uc774\uc21c\uc2e0\uc21c\uad6d\uacf5\uc6d0", "addr": "\uacbd\uc0c1\ub0a8\ub3c4 \ub0a8\ud574\uad70 \uace0\ud604\uba74 \ucc28\uba74\ub9ac", "lat": "34.9105664", "lng": "127.8587754"}, {"statNm": "\ud558\ub3d9\uad70\uccad", "addr": "\uacbd\uc0c1\ub0a8\ub3c4 \ud558\ub3d9\uad70 \ud558\ub3d9\uc74d \uad70\uccad\ub85c 23", "lat": "35.0673835", "lng": "127.7511601"}, {"statNm": "\uc11d\ud48d\ud734\uac8c\uc18c", "addr": "\uacbd\uc0c1\ub0a8\ub3c4 \uc0b0\uccad\uad70 \uc2e0\uc548\uba74 \uc0b0\uccad\ub300\ub85c 1169", "lat": "35.3629543", "lng": "127.9186023"}, {"statNm": "\ud568\uc591\ud734\uac8c\uc18c(\ud558\ub0a8\ubc29\ud5a5)", "addr": "\uacbd\uc0c1\ub0a8\ub3c4 \ud568\uc591\uad70 \uc9c0\uace1\uba74 \ubcf4\uc0b0\ub9ac", "lat": "35.5518867", "lng": "127.7599314"}, {"statNm": "\ud568\uc591\ud734\uac8c\uc18c(\ud1b5\uc601\ubc29\ud5a5)", "addr": "\uacbd\uc0c1\ub0a8\ub3c4 \ud568\uc591\uad70 \uc9c0\uace1\uba74 \ubcf4\uc0b0\ub9ac", "lat": "35.5511049", "lng": "127.7586744"}, {"statNm": "\uc870\ub9dd\uacf5\uc6d0", "addr": "\uacbd\uc0c1\ub0a8\ub3c4 \ud568\uc591\uad70 \ud568\uc591\uc74d \uace0\uc6b4\ub85c 161-51", "lat": "35.5244553", "lng": "127.7438188"}, {"statNm": "\uac70\ucc3d\ud734\uac8c\uc18c(\uc625\ud3ec\ubc29\ud5a5)", "addr": "\uacbd\uc0c1\ub0a8\ub3c4 \uac70\ucc3d\uad70 \uac00\uc870\uba74 \ub3c4\ub9ac", "lat": "35.7057972", "lng": "128.0569946"}, {"statNm": "\uac70\ucc3d\ud734\uac8c\uc18c(\uace0\uc11c\ubc29\ud5a5)", "addr": "\uacbd\uc0c1\ub0a8\ub3c4 \uac70\ucc3d\uad70 \uac00\uc870\uba74 \ub3c4\ub9ac \uc0b0189-1", "lat": "35.7085155", "lng": "128.0574192"}, {"statNm": "\uac70\ucc3d\uad70\uccad", "addr": "\uacbd\uc0c1\ub0a8\ub3c4 \uac70\ucc3d\uad70 \uac70\ucc3d\uc74d \uc911\uc559\ub85c 103", "lat": "35.6869125", "lng": "127.9092271"}, {"statNm": "\ud569\ucc9c\uad70\uccad", "addr": "\uacbd\uc0c1\ub0a8\ub3c4 \ud569\ucc9c\uad70 \ud569\ucc9c\uc74d \ub3d9\uc11c\ub85c 119", "lat": "35.5666565", "lng": "128.1667084"}, {"statNm": "\ud1b5\ub3c4\uc0ac\ud734\uac8c\uc18c(\ubd80\uc0b0\ubc29\ud5a5)", "addr": "\uacbd\uc0c1\ub0a8\ub3c4 \uc591\uc0b0\uc2dc \ud558\ubd81\uba74 \uacbd\ubd80\uace0\uc18d\ub3c4\ub85c 31-1 (\uc21c\uc9c0\ub9ac)", "lat": "35.4885288", "lng": "129.0914428"}, {"statNm": "\ud1b5\ub3c4\uc0ac\ud734\uac8c\uc18c(\ubd80\uc0b0\ubc29\ud5a5)", "addr": "\uacbd\uc0c1\ub0a8\ub3c4 \uc591\uc0b0\uc2dc \ud558\ubd81\uba74 \uacbd\ubd80\uace0\uc18d\ub3c4\ub85c 31-1 (\uc21c\uc9c0\ub9ac)", "lat": "35.4885288", "lng": "129.0914428"}, {"statNm": "\ud1b5\ub3c4\uc0ac\ud734\uac8c\uc18c(\ubd80\uc0b0\ubc29\ud5a5)", "addr": "\uacbd\uc0c1\ub0a8\ub3c4 \uc591\uc0b0\uc2dc \ud558\ubd81\uba74 \uacbd\ubd80\uace0\uc18d\ub3c4\ub85c 31-1 (\uc21c\uc9c0\ub9ac)", "lat": "35.4885288", "lng": "129.0914428"}, {"statNm": "\uace0\uc131\ud734\uac8c\uc18c(\ud1b5\uc601\ubc29\ud5a5)", "addr": "\uacbd\uc0c1\ub0a8\ub3c4 \uace0\uc131\uad70 \ub300\uac00\uba74 \ud1b5\uc601\ub300\uc804\uace0\uc18d\ub3c4\ub85c 29 (\uc1a1\uacc4\ub9ac)", "lat": "35.0515247", "lng": "128.2640664"}, {"statNm": "\uace0\uc131\ud734\uac8c\uc18c(\ud558\ub0a8\ubc29\ud5a5)", "addr": "\uacbd\uc0c1\ub0a8\ub3c4 \uace0\uc131\uad70 \ub300\uac00\uba74 \ud1b5\uc601\ub300\uc804\uace0\uc18d\ub3c4\ub85c 32 (\uc2e0\uc804\ub9ac)", "lat": "35.0570523", "lng": "128.2513447"}, {"statNm": "\uc0b0\uccad\ud734\uac8c\uc18c(\ud1b5\uc601\ubc29\ud5a5)", "addr": "\uacbd\uc0c1\ub0a8\ub3c4 \uc0b0\uccad\uad70 \ub2e8\uc131\uba74 \ud1b5\uc601\ub300\uc804\uace0\uc18d\ub3c4\ub85c 77 (\ubc29\ubaa9\ub9ac)", "lat": "35.3333219", "lng": "127.9375368"}, {"statNm": "\uc0b0\uccad\ud734\uac8c\uc18c(\ud1b5\uc601\ubc29\ud5a5)", "addr": "\uacbd\uc0c1\ub0a8\ub3c4 \uc0b0\uccad\uad70 \ub2e8\uc131\uba74 \ud1b5\uc601\ub300\uc804\uace0\uc18d\ub3c4\ub85c 77 (\ubc29\ubaa9\ub9ac)", "lat": "35.3333219", "lng": "127.9375368"}, {"statNm": "\uc0b0\uccad\ud734\uac8c\uc18c(\ud558\ub0a8\ubc29\ud5a5)", "addr": "\uacbd\uc0c1\ub0a8\ub3c4 \uc0b0\uccad\uad70 \ub2e8\uc131\uba74 \ud1b5\uc601\ub300\uc804\uace0\uc18d\ub3c4\ub85c 76 (\ubc29\ubaa9\ub9ac)", "lat": "35.3340661", "lng": "127.9386829"}, {"statNm": "\uc0b0\uccad\ud734\uac8c\uc18c(\ud558\ub0a8\ubc29\ud5a5)", "addr": "\uacbd\uc0c1\ub0a8\ub3c4 \uc0b0\uccad\uad70 \ub2e8\uc131\uba74 \ud1b5\uc601\ub300\uc804\uace0\uc18d\ub3c4\ub85c 76 (\ubc29\ubaa9\ub9ac)", "lat": "35.3340661", "lng": "127.9386829"}, {"statNm": "\ud568\uc591\ud734\uac8c\uc18c(\ud1b5\uc601\ubc29\ud5a5)", "addr": "\uacbd\uc0c1\ub0a8\ub3c4 \ud568\uc591\uad70 \uc9c0\uace1\uba74 \ud6a8\uc0b0\uae38 23-31 (\ubcf4\uc0b0\ub9ac)", "lat": "35.5510049", "lng": "127.7588744"}, {"statNm": "\ud568\uc591\ud734\uac8c\uc18c(\ud558\ub0a8\ubc29\ud5a5)", "addr": "\uacbd\uc0c1\ub0a8\ub3c4 \ud568\uc591\uad70 \uc9c0\uace1\uba74 \ud6a8\uc0b0\uae38 23-11 (\ubcf4\uc0b0\ub9ac)", "lat": "35.5517867", "lng": "127.7601314"}, {"statNm": "\uc601\uc0b0\ud734\uac8c\uc18c(\ub9c8\uc0b0\ubc29\ud5a5)", "addr": "\uacbd\uc0c1\ub0a8\ub3c4 \ucc3d\ub155\uad70 \uc601\uc0b0\uba74 \uc7a5\ucc99\ud638\uc218\uae38 56-110 (\uc2e0\uc81c\ub9ac)", "lat": "35.4295445", "lng": "128.4963675"}, {"statNm": "\uc601\uc0b0\ud734\uac8c\uc18c(\ub9c8\uc0b0\ubc29\ud5a5)", "addr": "\uacbd\uc0c1\ub0a8\ub3c4 \ucc3d\ub155\uad70 \uc601\uc0b0\uba74 \uc7a5\ucc99\ud638\uc218\uae38 56-110 (\uc2e0\uc81c\ub9ac)", "lat": "35.4295445", "lng": "128.4963675"}, {"statNm": "\uce60\uc11c\ud734\uac8c\uc18c(\uc591\ud3c9\ubc29\ud5a5)", "addr": "\uacbd\uc0c1\ub0a8\ub3c4 \ud568\uc548\uad70 \uce60\uc11c\uba74 \uacc4\ub8e1\ub85c 122-1 (\uacc4\ub0b4\ub9ac)", "lat": "35.3704567", "lng": "128.4967833"}, {"statNm": "\uce60\uc11c\ud734\uac8c\uc18c(\uc591\ud3c9\ubc29\ud5a5)", "addr": "\uacbd\uc0c1\ub0a8\ub3c4 \ud568\uc548\uad70 \uce60\uc11c\uba74 \uacc4\ub8e1\ub85c 122-1 (\uacc4\ub0b4\ub9ac)", "lat": "35.3704567", "lng": "128.4967833"}, {"statNm": "\uc0ac\ucc9c\ud734\uac8c\uc18c(\ubd80\uc0b0\ubc29\ud5a5)", "addr": "\uacbd\uc0c1\ub0a8\ub3c4 \uc0ac\ucc9c\uc2dc \uace4\uc591\uba74 \uc11c\uc0bc\ub85c 619 (\ubb35\uace1\ub9ac)", "lat": "35.0732831", "lng": "128.0110198"}, {"statNm": "\uc0ac\ucc9c\ud734\uac8c\uc18c(\uc21c\ucc9c\ubc29\ud5a5)", "addr": "\uacbd\uc0c1\ub0a8\ub3c4 \uc0ac\ucc9c\uc2dc \uace4\uc591\uba74 \ubb35\uc2e4\uae38 31-11 (\ubb35\uace1\ub9ac)", "lat": "35.0748033", "lng": "128.0134007"}, {"statNm": "\ud568\uc548\ud734\uac8c\uc18c(\ubd80\uc0b0\ubc29\ud5a5)", "addr": "\uacbd\uc0c1\ub0a8\ub3c4 \ud568\uc548\uad70 \uad70\ubd81\uba74 \ud604\ud3ec\ub85c 205 (\uc720\ud604\ub9ac)", "lat": "35.2940514", "lng": "128.3473478"}, {"statNm": "\uac70\ucc3d\ud734\uac8c\uc18c(\uace0\uc11c\ubc29\ud5a5)", "addr": "\uacbd\uc0c1\ub0a8\ub3c4 \uac70\ucc3d\uad70 \uac00\uc870\uba74 \uac00\uc870\uac00\uc57c\ub85c 1523 (\ub3c4\ub9ac)", "lat": "35.7084155", "lng": "128.0576192"}, {"statNm": "\uac70\ucc3d\ud734\uac8c\uc18c(\uc625\ud3ec\ubc29\ud5a5)", "addr": "\uacbd\uc0c1\ub0a8\ub3c4 \uac70\ucc3d\uad70 \uac00\uc870\uba74 \uac00\uc870\uac00\uc57c\ub85c 1543-81 (\ub3c4\ub9ac)", "lat": "35.7056972", "lng": "128.0571946"}, {"statNm": "\uc7a5\uc720\ud734\uac8c\uc18c(\ubd80\uc0b0\ubc29\ud5a5)", "addr": "\uacbd\uc0c1\ub0a8\ub3c4 \uae40\ud574\uc2dc \uc7a5\uc720\ub85c116\ubc88\uae38 44-82 (\ubd80\uace1\ub3d9)", "lat": "35.2118159", "lng": "128.794438"}, {"statNm": "\uc7a5\uc720\ud734\uac8c\uc18c(\ubd80\uc0b0\ubc29\ud5a5)", "addr": "\uacbd\uc0c1\ub0a8\ub3c4 \uae40\ud574\uc2dc \uc7a5\uc720\ub85c116\ubc88\uae38 44-82 (\ubd80\uace1\ub3d9)", "lat": "35.2118159", "lng": "128.794438"}, {"statNm": "\ud55c\uad6d\ub3c4\ub85c\uacf5\uc0ac\ucc3d\uc6d0\uc9c0\uc0ac", "addr": "\uacbd\uc0c1\ub0a8\ub3c4 \ucc3d\uc6d0\uc2dc \uc758\ucc3d\uad6c \uc758\ucc3d\ub300\ub85c 1024", "lat": "35.2842423", "lng": "128.7006196"}, {"statNm": "\ub86f\ub370\ub9c8\ud2b8 \ub9c8\uc0b0\uc810", "addr": "\uacbd\uc0c1\ub0a8\ub3c4 \ucc3d\uc6d0\uc2dc \ub9c8\uc0b0\ud569\ud3ec\uad6c \uc2e0\ub9c8\uc0b0\uc2dc\uc7a5\uae38 33 (\ucc3d\ud3ec\ub3d93\uac00)", "lat": "35.1813836", "lng": "128.5606975"}, {"statNm": "\ub86f\ub370\ub9c8\ud2b8 \ub9c8\uc0b0\uc810", "addr": "\uacbd\uc0c1\ub0a8\ub3c4 \ucc3d\uc6d0\uc2dc \ub9c8\uc0b0\ud569\ud3ec\uad6c \uc2e0\ub9c8\uc0b0\uc2dc\uc7a5\uae38 33 (\ucc3d\ud3ec\ub3d93\uac00)", "lat": "35.1813836", "lng": "128.5606975"}, {"statNm": "\ub86f\ub370\ub9c8\ud2b8 \uc7a5\uc720\uc810", "addr": "\uacbd\uc0c1\ub0a8\ub3c4 \uae40\ud574\uc2dc \ubc88\ud6541\ub85c56\ubc88\uae38 15 \ub86f\ub370\ub9c8\ud2b8", "lat": "35.193012", "lng": "128.8013646"}, {"statNm": "\uc9c0\ub9ac\uc0b0\uad6d\ub9bd\uacf5\uc6d0 \uc911\uc0b0\ub9ac\uc8fc\ucc28\uc7a5", "addr": "\uacbd\uc0c1\ub0a8\ub3c4 \uc0b0\uccad\uad70 \uc2dc\ucc9c\uba74 \uc911\uc0b0\ub9ac 619-12", "lat": "35.304022", "lng": "127.74934"}, {"statNm": "\uc9c0\ub9ac\uc0b0\uad6d\ub9bd\uacf5\uc6d0 \uc911\uc0b0\ub9ac\uc8fc\ucc28\uc7a5", "addr": "\uacbd\uc0c1\ub0a8\ub3c4 \uc0b0\uccad\uad70 \uc2dc\ucc9c\uba74 \uc911\uc0b0\ub9ac 619-12", "lat": "35.304022", "lng": "127.74934"}, {"statNm": "\uc9c0\ub9ac\uc0b0\uad6d\ub9bd\uacf5\uc6d0 \uc30d\uacc4\uc0ac \uc8fc\ucc28\uc7a5", "addr": "\uacbd\uc0c1\ub0a8\ub3c4 \ud558\ub3d9\uad70 \ud654\uac1c\uba74 \uc6a9\uac15\ub9ac 400-5", "lat": "35.230286", "lng": "127.641776"}, {"statNm": "\uc9c0\ub9ac\uc0b0\uad6d\ub9bd\uacf5\uc6d0 \uc30d\uacc4\uc0ac \uc8fc\ucc28\uc7a5", "addr": "\uacbd\uc0c1\ub0a8\ub3c4 \ud558\ub3d9\uad70 \ud654\uac1c\uba74 \uc6a9\uac15\ub9ac 400-5", "lat": "35.230286", "lng": "127.641776"}, {"statNm": "\ud55c\ub824\ud574\uc0c1\uad6d\ub9bd\uacf5\uc6d0\uc0ac\ubb34\uc18c \ub178\ub7c9\ubd84\uc18c", "addr": "\uacbd\uc0c1\ub0a8\ub3c4 \ub0a8\ud574\uad70 \uc124\ucc9c\uba74 \ub178\ub7c9\ub9ac 410-36", "lat": "34.939704", "lng": "127.875309"}, {"statNm": "\ud55c\ub824\ud574\uc0c1\uad6d\ub9bd\uacf5\uc6d0\uc0ac\ubb34\uc18c \ub178\ub7c9\ubd84\uc18c", "addr": "\uacbd\uc0c1\ub0a8\ub3c4 \ub0a8\ud574\uad70 \uc124\ucc9c\uba74 \ub178\ub7c9\ub9ac 410-36", "lat": "34.939704", "lng": "127.875309"}, {"statNm": "\ud55c\ub824\ud574\uc0c1\uad6d\ub9bd\uacf5\uc6d0\uc0ac\ubb34\uc18c \uae08\uc0b0\ubd84\uc18c", "addr": "\uacbd\uc0c1\ub0a8\ub3c4 \ub0a8\ud574\uad70 \uc774\ub3d9\uba74 \ubcf4\ub9ac\uc554\ub85c 287", "lat": "34.773405", "lng": "127.987807"}, {"statNm": "\ud55c\ub824\ud574\uc0c1\uad6d\ub9bd\uacf5\uc6d0\uc0ac\ubb34\uc18c \uae08\uc0b0\ubd84\uc18c", "addr": "\uacbd\uc0c1\ub0a8\ub3c4 \ub0a8\ud574\uad70 \uc774\ub3d9\uba74 \ubcf4\ub9ac\uc554\ub85c 287", "lat": "34.773405", "lng": "127.987807"}, {"statNm": "\ub9cc\ud3ec\uc8fc\uc720\uc18c", "addr": "\uacbd\uc0c1\ub0a8\ub3c4 \ubc00\uc591\uc2dc \uc0bc\ub791\uc9c4\uc74d \uc0bc\ub791\uc9c4\ub85c 390", "lat": "35.39879", "lng": "128.819108"}, {"statNm": "\ud1b5\ub3c4\ud638\ud154", "addr": "\uacbd\uc0c1\ub0a8\ub3c4 \uc591\uc0b0\uc2dc \uc2e0\ud3c9\uac15\ubcc08\uae38 11", "lat": "35.493286", "lng": "129.083243"}, {"statNm": "\ud3ec\uc720\uc8fc\uc720\uc18c", "addr": "\uacbd\uc0c1\ub0a8\ub3c4 \uc591\uc0b0\uc2dc \uc5b4\uace1\ud130\ub110\ub85c40", "lat": "35.375148", "lng": "129.031419"}, {"statNm": "S-oil \ubb3c\uae08\uc8fc\uc720\uc18c", "addr": "\uacbd\uc0c1\ub0a8\ub3c4 \uc591\uc0b0\uc2dc \ubb3c\uae08\uc74d \ud669\uc0b0\ub85c501", "lat": "35.31907", "lng": "128.994332"}, {"statNm": "\uc911\uc559\uc8fc\uc720\uc18c", "addr": "\uacbd\uc0c1\ub0a8\ub3c4 \uc758\ub839\uad70 \uc758\ub839\uc74d \ubc31\uc0b0\ub85c4", "lat": "35.320263", "lng": "128.2645"}, {"statNm": "\ub9c8\uc0b0\uc758\ub8cc\uc6d0", "addr": "\uacbd\uc0c1\ub0a8\ub3c4 \ucc3d\uc6d0\uc2dc \uc7a5\uad70\ub3d94\uac00 3-6", "lat": "35.199462", "lng": "128.565332"}, {"statNm": "\ub0a8\uad11\uc11d\uc720\ud310\ub9e4", "addr": "\uacbd\uc0c1\ub0a8\ub3c4 \ucc3d\uc6d0\uc2dc \uc758\ucc3d\uad6c \ucc3d\uc6d0\ub300\ub85c314", "lat": "35.238045", "lng": "128.633719"}, {"statNm": "\uc911\uc559\ubaa8\ud130\uc2a4", "addr": "\uacbd\uc0c1\ub0a8\ub3c4 \ucc3d\uc6d0\uc2dc \uc758\ucc3d\uad6c \uc18c\uacc4\ub85c 33", "lat": "35.25481", "lng": "128.603051"}, {"statNm": "\ud569\ucc9c\uad00\uad11\ud734\uac8c\uc18c", "addr": "\uacbd\uc0c1\ub0a8\ub3c4 \ud569\ucc9c\uad70 \uc30d\ubc31\uba74 \uc30d\ubc31\uc911\uc559\ub85c162-8", "lat": "35.449674", "lng": "128.14454"}, {"statNm": "\ub86f\ub370\ub9c8\ud2b8 \uac70\uc81c\uc810", "addr": "\uacbd\uc0c1\ub0a8\ub3c4 \uac70\uc81c\uc2dc \uc11c\uac04\ub3c4\uae38 9-9 (\uc625\ud3ec\ub3d9)", "lat": "34.888448", "lng": "128.691064"}, {"statNm": "\ub86f\ub370\ub9c8\ud2b8 \uc2dc\ud2f0\uc138\ube10\uc810", "addr": "\uacbd\uc0c1\ub0a8\ub3c4 \ucc3d\uc6d0\uc2dc \uc758\ucc3d\uad6c \uc6d0\uc774\ub300\ub85c 320 (\ub450\ub300\ub3d9)", "lat": "35.240183", "lng": "128.653229"}, {"statNm": "\ub86f\ub370\ub9c8\ud2b8 \uc2dc\ud2f0\uc138\ube10\uc810", "addr": "\uacbd\uc0c1\ub0a8\ub3c4 \ucc3d\uc6d0\uc2dc \uc758\ucc3d\uad6c \uc6d0\uc774\ub300\ub85c 320 (\ub450\ub300\ub3d9)", "lat": "35.240183", "lng": "128.653229"}, {"statNm": "\ub86f\ub370\ub9c8\ud2b8 \uae40\ud574\uc810", "addr": "\uacbd\uc0c1\ub0a8\ub3c4 \uae40\ud574\uc2dc \uae40\ud574\ub300\ub85c 2330 (\ubd80\uc6d0\ub3d9)", "lat": "35.225619", "lng": "128.881964"}, {"statNm": "\ub86f\ub370\ub9c8\ud2b8 \uc591\ub355\uc810", "addr": "\uacbd\uc0c1\ub0a8\ub3c4 \ucc3d\uc6d0\uc2dc \ub9c8\uc0b0\ud68c\uc6d0\uad6c \uc0bc\ud638\ub85c 80 (\uc591\ub355\ub3d9)", "lat": "35.223311", "lng": "128.585287"}, {"statNm": "\uc0ac\ucc9c\ub9cc\ub0a8\uc758 \uad11\uc7a5", "addr": "\uacbd\uc0c1\ub0a8\ub3c4 \uc0ac\ucc9c\uc2dc \ucd95\ub3d9\uba74 \uc11c\uc0bc\ub85c 1742", "lat": "35.1090735", "lng": "128.085891"}, {"statNm": "\uc591\uc0b0\uad6d\ubbfc\uccb4\uc721\uc13c\ud130", "addr": "\uacbd\uc0c1\ub0a8\ub3c4 \uc591\uc0b0\uc2dc \ubb3c\uae08\uc74d \uac00\ucd0c\ub9ac 990, \uc548\ucabd \uc8fc\ucc28\uc7a5", "lat": "35.325638", "lng": "128.9951935"}, {"statNm": "\ub355\uacc4\ub3d9\uc8fc\ubbfc\uc13c\ud130", "addr": "\uacbd\uc0c1\ub0a8\ub3c4 \uc591\uc0b0\uc2dc \ub355\uacc4\ub3d9 1039-5", "lat": "35.3751747", "lng": "129.1497396"}, {"statNm": "\uc6c5\uc0c1\uccb4\uc721\uacf5\uc6d0", "addr": "\uacbd\uc0c1\ub0a8\ub3c4 \uc591\uc0b0\uc2dc \ud3c9\uc0b0\ub3d9 283, \ucd95\uad6c\uc7a5 \uc606", "lat": "35.3778178", "lng": "129.1434076"}, {"statNm": "\ud654\uc655\uc0b0 \uc790\uc5f0\ud734\uc591\ub9bc", "addr": "\uacbd\uc0c1\ub0a8\ub3c4 \ucc3d\ub155\uad70 \uace0\uc554\uba74 \uccad\uac04\uae38 128-126", "lat": "35.5462783", "lng": "128.5678712"}, {"statNm": "\uc0ac\ud30c\ub3d9 \ub178\uc678\uc8fc\ucc28\uc7a5", "addr": "\uacbd\uc0c1\ub0a8\ub3c4 \ucc3d\uc6d0\uc2dc \uc131\uc0b0\uad6c \uc0ac\ud30c\ub3d964-2", "lat": "35.2234373", "lng": "128.7020911"}, {"statNm": "\ud48d\ud638\ub3d9\uacf5\uc601\uc8fc\ucc28\uc7a5(\ub178\uc678\uc8fc\ucc28\uc7a5)", "addr": "\uacbd\uc0c1\ub0a8\ub3c4 \ucc3d\uc6d0\uc2dc \uc9c4\ud574\uad6c \ud48d\ud638\ub3d9 305-21", "lat": "35.1327351", "lng": "128.7041533"}, {"statNm": "\ubd80\ub9bc\uacf5\uc124\uc6b4\ub3d9\uc7a5 \uc8fc\ucc28\uc7a5", "addr": "\uacbd\uc0c1\ub0a8\ub3c4 \uc758\ub839\uad70 \ubd80\ub9bc\uba74 \uac10\uc554\ub9ac 1254", "lat": "35.4714534", "lng": "128.3227612"}, {"statNm": "\ub86f\ub370\ub9c8\ud2b8 \uc6c5\uc0c1\uc810", "addr": "\uacbd\uc0c1\ub0a8\ub3c4 \uc591\uc0b0\uc2dc \uc0bc\ud6381\uae38 34, 4\uce35 \uc8fc\ucc28\uc7a5 02", "lat": "35.4125843", "lng": "129.1671829"}, {"statNm": "\ub86f\ub370\ub9c8\ud2b8 \uc9c4\uc8fc\uc810", "addr": "\uacbd\uc0c1\ub0a8\ub3c4 \uc9c4\uc8fc\uc2dc \ub3d9\uc9c4\ub85c 440, \uc9c0\ud5582\uce35 \uc8fc\ucc28\uc7a5 C6", "lat": "35.1800924", "lng": "128.139958"}, {"statNm": "\ub86f\ub370\ub9c8\ud2b8 \ud1b5\uc601\uc810", "addr": "\uacbd\uc0c1\ub0a8\ub3c4 \ud1b5\uc601\uc2dc \ubb34\uc804\ub300\ub85c 65, 4\uce35 \uc8fc\ucc28\uc7a5", "lat": "34.8603378", "lng": "128.4287301"}, {"statNm": "\uc0bc\ucc9c\ud3ec\uc885\ud569\uc815\ube44", "addr": "\uacbd\uc0c1\ub0a8\ub3c4 \uc0ac\ucc9c\uc2dc \uc0bc\ucc9c\ud3ec\ub300\uad50\ub85c 577", "lat": "34.9493441", "lng": "128.0777738"}, {"statNm": "\uc9c4\uc8fc\ud604\ub300\uc11c\ube44\uc2a4", "addr": "\uacbd\uc0c1\ub0a8\ub3c4 \uc9c4\uc8fc\uc2dc \ub0b4\ub3d9\uba74 \ub0b4\ub3d9\ub85c 110", "lat": "35.1551221", "lng": "128.079304"}, {"statNm": "\ube44\ud559\uc5d0\ub108\uc9c0", "addr": "\uacbd\uc0c1\ub0a8\ub3c4 \uc591\uc0b0\uc2dc \uc0c1\ubd81\uba74 \uc591\uc0b0\ub300\ub85c 1510", "lat": "35.402327", "lng": "129.0565632"}, {"statNm": "\uadfc\ub85c\uc790\ubcf5\uc9c0\uacf5\ub2e8\ucc3d\uc6d0\ubcd1\uc6d0", "addr": "\uacbd\uc0c1\ub0a8\ub3c4 \ucc3d\uc6d0\uc2dc \uc131\uc0b0\uad6c \ucc3d\uc6d0\ub300\ub85c 721, \uac74\ubb3c \uc6b0\uce21", "lat": "35.2187322", "lng": "128.6722464"}, {"statNm": "\uae08\ud638\ud1b5\uc601\ub9c8\ub9ac\ub098\ub9ac\uc870\ud2b8\uc8fc\ucc28\uc7a5", "addr": "\uacbd\uc0c1\ub0a8\ub3c4 \ud1b5\uc601\uc2dc \ud070\ubc1c\uac1c 1\uae38 33, \ub9c8\ub9ac\ub098\uc694\ud2b8\ud074\ub7fd \uc55e", "lat": "34.827381", "lng": "128.439006"}, {"statNm": "\ub86f\ub370\ub9c8\ud2b8 \uc0bc\uacc4\uc810", "addr": "\uacbd\uc0c1\ub0a8\ub3c4 \ucc3d\uc6d0\uc2dc \ub9c8\uc0b0\ud68c\uc6d0\uad6c \ub0b4\uc11c\uc74d \uacbd\ub0a8\ub300\ub85c 927", "lat": "35.233023", "lng": "128.504094"}, {"statNm": "\ud648\ud50c\ub7ec\uc2a4 \ub9c8\uc0b0\uc810", "addr": "\uacbd\uc0c1\ub0a8\ub3c4 \ucc3d\uc6d0\uc2dc \ub9c8\uc0b0\ud68c\uc6d0\uad6c \uc0bc\ud638\ub85c 56", "lat": "35.222610", "lng": "128.585767"}, {"statNm": "\uc9c4\uc8fc\uc2dc\uccad", "addr": "\uacbd\uc0c1\ub0a8\ub3c4 \uc9c4\uc8fc\uc2dc \ub3d9\uc9c4\ub85c 155", "lat": "35.180378", "lng": "128.108884"}, {"statNm": "\uacbd\uc0c1\ub0a8\ub3c4 \uc11c\ubd80\uccad\uc0ac", "addr": "\uacbd\uc0c1\ub0a8\ub3c4 \uc9c4\uc8fc\uc2dc \uc6d4\uc544\uc0b0\ub85c 2026", "lat": "35.2129639", "lng": "128.1233299"}, {"statNm": "\uc9c4\ud574\ud574\uc591\uacf5\uc6d0", "addr": "\uacbd\uc0c1\ub0a8\ub3c4 \ucc3d\uc6d0\uc2dc \uc9c4\ud574\uad6c \uba85\ub3d9\ub85c 62", "lat": "35.092286", "lng": "128.719427"}, {"statNm": "\uc2e0\uc138\uacc4\uc885\ud569\uc815\ube44", "addr": "\uacbd\uc0c1\ub0a8\ub3c4 \ud1b5\uc601\uc2dc \uad11\ub3c4\uba74 \uc8fd\ub9bc\ub9ac 292-33", "lat": "34.8789124", "lng": "128.4133694"}, {"statNm": "\uae40\ud574\uc2dc \uc7a5\uc720\ucd9c\uc7a5\uc18c", "addr": "\uacbd\uc0c1\ub0a8\ub3c4 \uae40\ud574\uc2dc \ubd80\uace1\ub85c 57", "lat": "35.2090443", "lng": "128.798395"}, {"statNm": "\uc9c4\uc601\ubb38\ud654\uc13c\ud130", "addr": "\uacbd\uc0c1\ub0a8\ub3c4 \uae40\ud574\uc2dc \uc9c4\uc601\uc74d \uae40\ud574\ub300\ub85c 440", "lat": "35.3049134", "lng": "128.7374389"}, {"statNm": "\uac70\uc81c\ud734\uac8c\uc18c(\uac70\uc81c\ud574\uc591\ud30c\ud06c)", "addr": "\uacbd\uc0c1\ub0a8\ub3c4 \uac70\uc81c\uc2dc \uac70\uc81c\ub300\ub85c 1068", "lat": "34.9723153", "lng": "128.6938807"}, {"statNm": "\uace0\uc131\ud734\uac8c\uc18c(\ud558\ub0a8\ubc29\ud5a5)", "addr": "\uacbd\uc0c1\ub0a8\ub3c4 \uace0\uc131\uad70 \ub300\uac00\uba74 \ud1b5\uc601\ub300\uc804\uace0\uc18d\ub3c4\ub85c 32", "lat": "35.0571523", "lng": "128.2511447"}, {"statNm": "\uace0\uc131\ud734\uac8c\uc18c(\ud1b5\uc601\ubc29\ud5a5)", "addr": "\uacbd\uc0c1\ub0a8\ub3c4 \uace0\uc131\uad70 \ub300\uac00\uba74 \ud1b5\uc601\ub300\uc804\uace0\uc18d\ub3c4\ub85c 29", "lat": "35.0516247", "lng": "128.2638664"}, {"statNm": "\uc774\uc21c\uc2e0\uc21c\uad6d\uacf5\uc6d0", "addr": "\uacbd\uc0c1\ub0a8\ub3c4 \ub0a8\ud574\uad70 \uace0\ud604\uba74 \ucc28\uba74\ub9ac", "lat": "34.9105664", "lng": "127.8587754"}, {"statNm": "\ud558\ub3d9\uad70\uccad", "addr": "\uacbd\uc0c1\ub0a8\ub3c4 \ud558\ub3d9\uad70 \ud558\ub3d9\uc74d \uad70\uccad\ub85c 23", "lat": "35.0673835", "lng": "127.7511601"}, {"statNm": "\uc11d\ud48d\ud734\uac8c\uc18c", "addr": "\uacbd\uc0c1\ub0a8\ub3c4 \uc0b0\uccad\uad70 \uc2e0\uc548\uba74 \uc0b0\uccad\ub300\ub85c 1169", "lat": "35.3629543", "lng": "127.9186023"}, {"statNm": "\ud568\uc591\ud734\uac8c\uc18c(\ud558\ub0a8\ubc29\ud5a5)", "addr": "\uacbd\uc0c1\ub0a8\ub3c4 \ud568\uc591\uad70 \uc9c0\uace1\uba74 \ubcf4\uc0b0\ub9ac", "lat": "35.5518867", "lng": "127.7599314"}, {"statNm": "\ud568\uc591\ud734\uac8c\uc18c(\ud1b5\uc601\ubc29\ud5a5)", "addr": "\uacbd\uc0c1\ub0a8\ub3c4 \ud568\uc591\uad70 \uc9c0\uace1\uba74 \ubcf4\uc0b0\ub9ac", "lat": "35.5511049", "lng": "127.7586744"}, {"statNm": "\uc870\ub9dd\uacf5\uc6d0", "addr": "\uacbd\uc0c1\ub0a8\ub3c4 \ud568\uc591\uad70 \ud568\uc591\uc74d \uace0\uc6b4\ub85c 161-51", "lat": "35.5244553", "lng": "127.7438188"}, {"statNm": "\uac70\ucc3d\ud734\uac8c\uc18c(\uc625\ud3ec\ubc29\ud5a5)", "addr": "\uacbd\uc0c1\ub0a8\ub3c4 \uac70\ucc3d\uad70 \uac00\uc870\uba74 \ub3c4\ub9ac", "lat": "35.7057972", "lng": "128.0569946"}, {"statNm": "\uac70\ucc3d\ud734\uac8c\uc18c(\uace0\uc11c\ubc29\ud5a5)", "addr": "\uacbd\uc0c1\ub0a8\ub3c4 \uac70\ucc3d\uad70 \uac00\uc870\uba74 \ub3c4\ub9ac \uc0b0189-1", "lat": "35.7085155", "lng": "128.0574192"}, {"statNm": "\uac70\ucc3d\uad70\uccad", "addr": "\uacbd\uc0c1\ub0a8\ub3c4 \uac70\ucc3d\uad70 \uac70\ucc3d\uc74d \uc911\uc559\ub85c 103", "lat": "35.6869125", "lng": "127.9092271"}, {"statNm": "\ud569\ucc9c\uad70\uccad", "addr": "\uacbd\uc0c1\ub0a8\ub3c4 \ud569\ucc9c\uad70 \ud569\ucc9c\uc74d \ub3d9\uc11c\ub85c 119", "lat": "35.5666565", "lng": "128.1667084"}, {"statNm": "\ud1b5\ub3c4\uc0ac\ud734\uac8c\uc18c(\ubd80\uc0b0\ubc29\ud5a5)", "addr": "\uacbd\uc0c1\ub0a8\ub3c4 \uc591\uc0b0\uc2dc \ud558\ubd81\uba74 \uacbd\ubd80\uace0\uc18d\ub3c4\ub85c 31-1 (\uc21c\uc9c0\ub9ac)", "lat": "35.4885288", "lng": "129.0914428"}, {"statNm": "\ud1b5\ub3c4\uc0ac\ud734\uac8c\uc18c(\ubd80\uc0b0\ubc29\ud5a5)", "addr": "\uacbd\uc0c1\ub0a8\ub3c4 \uc591\uc0b0\uc2dc \ud558\ubd81\uba74 \uacbd\ubd80\uace0\uc18d\ub3c4\ub85c 31-1 (\uc21c\uc9c0\ub9ac)", "lat": "35.4885288", "lng": "129.0914428"}, {"statNm": "\ud1b5\ub3c4\uc0ac\ud734\uac8c\uc18c(\ubd80\uc0b0\ubc29\ud5a5)", "addr": "\uacbd\uc0c1\ub0a8\ub3c4 \uc591\uc0b0\uc2dc \ud558\ubd81\uba74 \uacbd\ubd80\uace0\uc18d\ub3c4\ub85c 31-1 (\uc21c\uc9c0\ub9ac)", "lat": "35.4885288", "lng": "129.0914428"}, {"statNm": "\uace0\uc131\ud734\uac8c\uc18c(\ud1b5\uc601\ubc29\ud5a5)", "addr": "\uacbd\uc0c1\ub0a8\ub3c4 \uace0\uc131\uad70 \ub300\uac00\uba74 \ud1b5\uc601\ub300\uc804\uace0\uc18d\ub3c4\ub85c 29 (\uc1a1\uacc4\ub9ac)", "lat": "35.0515247", "lng": "128.2640664"}, {"statNm": "\uace0\uc131\ud734\uac8c\uc18c(\ud558\ub0a8\ubc29\ud5a5)", "addr": "\uacbd\uc0c1\ub0a8\ub3c4 \uace0\uc131\uad70 \ub300\uac00\uba74 \ud1b5\uc601\ub300\uc804\uace0\uc18d\ub3c4\ub85c 32 (\uc2e0\uc804\ub9ac)", "lat": "35.0570523", "lng": "128.2513447"}, {"statNm": "\uc0b0\uccad\ud734\uac8c\uc18c(\ud1b5\uc601\ubc29\ud5a5)", "addr": "\uacbd\uc0c1\ub0a8\ub3c4 \uc0b0\uccad\uad70 \ub2e8\uc131\uba74 \ud1b5\uc601\ub300\uc804\uace0\uc18d\ub3c4\ub85c 77 (\ubc29\ubaa9\ub9ac)", "lat": "35.3333219", "lng": "127.9375368"}, {"statNm": "\uc0b0\uccad\ud734\uac8c\uc18c(\ud1b5\uc601\ubc29\ud5a5)", "addr": "\uacbd\uc0c1\ub0a8\ub3c4 \uc0b0\uccad\uad70 \ub2e8\uc131\uba74 \ud1b5\uc601\ub300\uc804\uace0\uc18d\ub3c4\ub85c 77 (\ubc29\ubaa9\ub9ac)", "lat": "35.3333219", "lng": "127.9375368"}, {"statNm": "\uc0b0\uccad\ud734\uac8c\uc18c(\ud558\ub0a8\ubc29\ud5a5)", "addr": "\uacbd\uc0c1\ub0a8\ub3c4 \uc0b0\uccad\uad70 \ub2e8\uc131\uba74 \ud1b5\uc601\ub300\uc804\uace0\uc18d\ub3c4\ub85c 76 (\ubc29\ubaa9\ub9ac)", "lat": "35.3340661", "lng": "127.9386829"}, {"statNm": "\uc0b0\uccad\ud734\uac8c\uc18c(\ud558\ub0a8\ubc29\ud5a5)", "addr": "\uacbd\uc0c1\ub0a8\ub3c4 \uc0b0\uccad\uad70 \ub2e8\uc131\uba74 \ud1b5\uc601\ub300\uc804\uace0\uc18d\ub3c4\ub85c 76 (\ubc29\ubaa9\ub9ac)", "lat": "35.3340661", "lng": "127.9386829"}, {"statNm": "\ud568\uc591\ud734\uac8c\uc18c(\ud1b5\uc601\ubc29\ud5a5)", "addr": "\uacbd\uc0c1\ub0a8\ub3c4 \ud568\uc591\uad70 \uc9c0\uace1\uba74 \ud6a8\uc0b0\uae38 23-31 (\ubcf4\uc0b0\ub9ac)", "lat": "35.5510049", "lng": "127.7588744"}, {"statNm": "\ud568\uc591\ud734\uac8c\uc18c(\ud558\ub0a8\ubc29\ud5a5)", "addr": "\uacbd\uc0c1\ub0a8\ub3c4 \ud568\uc591\uad70 \uc9c0\uace1\uba74 \ud6a8\uc0b0\uae38 23-11 (\ubcf4\uc0b0\ub9ac)", "lat": "35.5517867", "lng": "127.7601314"}, {"statNm": "\uc601\uc0b0\ud734\uac8c\uc18c(\ub9c8\uc0b0\ubc29\ud5a5)", "addr": "\uacbd\uc0c1\ub0a8\ub3c4 \ucc3d\ub155\uad70 \uc601\uc0b0\uba74 \uc7a5\ucc99\ud638\uc218\uae38 56-110 (\uc2e0\uc81c\ub9ac)", "lat": "35.4295445", "lng": "128.4963675"}, {"statNm": "\uc601\uc0b0\ud734\uac8c\uc18c(\ub9c8\uc0b0\ubc29\ud5a5)", "addr": "\uacbd\uc0c1\ub0a8\ub3c4 \ucc3d\ub155\uad70 \uc601\uc0b0\uba74 \uc7a5\ucc99\ud638\uc218\uae38 56-110 (\uc2e0\uc81c\ub9ac)", "lat": "35.4295445", "lng": "128.4963675"}, {"statNm": "\uce60\uc11c\ud734\uac8c\uc18c(\uc591\ud3c9\ubc29\ud5a5)", "addr": "\uacbd\uc0c1\ub0a8\ub3c4 \ud568\uc548\uad70 \uce60\uc11c\uba74 \uacc4\ub8e1\ub85c 122-1 (\uacc4\ub0b4\ub9ac)", "lat": "35.3704567", "lng": "128.4967833"}, {"statNm": "\uce60\uc11c\ud734\uac8c\uc18c(\uc591\ud3c9\ubc29\ud5a5)", "addr": "\uacbd\uc0c1\ub0a8\ub3c4 \ud568\uc548\uad70 \uce60\uc11c\uba74 \uacc4\ub8e1\ub85c 122-1 (\uacc4\ub0b4\ub9ac)", "lat": "35.3704567", "lng": "128.4967833"}, {"statNm": "\uc0ac\ucc9c\ud734\uac8c\uc18c(\ubd80\uc0b0\ubc29\ud5a5)", "addr": "\uacbd\uc0c1\ub0a8\ub3c4 \uc0ac\ucc9c\uc2dc \uace4\uc591\uba74 \uc11c\uc0bc\ub85c 619 (\ubb35\uace1\ub9ac)", "lat": "35.0732831", "lng": "128.0110198"}, {"statNm": "\uc0ac\ucc9c\ud734\uac8c\uc18c(\uc21c\ucc9c\ubc29\ud5a5)", "addr": "\uacbd\uc0c1\ub0a8\ub3c4 \uc0ac\ucc9c\uc2dc \uace4\uc591\uba74 \ubb35\uc2e4\uae38 31-11 (\ubb35\uace1\ub9ac)", "lat": "35.0748033", "lng": "128.0134007"}, {"statNm": "\ud568\uc548\ud734\uac8c\uc18c(\ubd80\uc0b0\ubc29\ud5a5)", "addr": "\uacbd\uc0c1\ub0a8\ub3c4 \ud568\uc548\uad70 \uad70\ubd81\uba74 \ud604\ud3ec\ub85c 205 (\uc720\ud604\ub9ac)", "lat": "35.2940514", "lng": "128.3473478"}, {"statNm": "\uac70\ucc3d\ud734\uac8c\uc18c(\uace0\uc11c\ubc29\ud5a5)", "addr": "\uacbd\uc0c1\ub0a8\ub3c4 \uac70\ucc3d\uad70 \uac00\uc870\uba74 \uac00\uc870\uac00\uc57c\ub85c 1523 (\ub3c4\ub9ac)", "lat": "35.7084155", "lng": "128.0576192"}, {"statNm": "\uac70\ucc3d\ud734\uac8c\uc18c(\uc625\ud3ec\ubc29\ud5a5)", "addr": "\uacbd\uc0c1\ub0a8\ub3c4 \uac70\ucc3d\uad70 \uac00\uc870\uba74 \uac00\uc870\uac00\uc57c\ub85c 1543-81 (\ub3c4\ub9ac)", "lat": "35.7056972", "lng": "128.0571946"}, {"statNm": "\uc7a5\uc720\ud734\uac8c\uc18c(\ubd80\uc0b0\ubc29\ud5a5)", "addr": "\uacbd\uc0c1\ub0a8\ub3c4 \uae40\ud574\uc2dc \uc7a5\uc720\ub85c116\ubc88\uae38 44-82 (\ubd80\uace1\ub3d9)", "lat": "35.2118159", "lng": "128.794438"}, {"statNm": "\uc7a5\uc720\ud734\uac8c\uc18c(\ubd80\uc0b0\ubc29\ud5a5)", "addr": "\uacbd\uc0c1\ub0a8\ub3c4 \uae40\ud574\uc2dc \uc7a5\uc720\ub85c116\ubc88\uae38 44-82 (\ubd80\uace1\ub3d9)", "lat": "35.2118159", "lng": "128.794438"}, {"statNm": "\ud55c\uad6d\ub3c4\ub85c\uacf5\uc0ac\ucc3d\uc6d0\uc9c0\uc0ac", "addr": "\uacbd\uc0c1\ub0a8\ub3c4 \ucc3d\uc6d0\uc2dc \uc758\ucc3d\uad6c \uc758\ucc3d\ub300\ub85c 1024", "lat": "35.2842423", "lng": "128.7006196"}, {"statNm": "\ub86f\ub370\ub9c8\ud2b8 \ub9c8\uc0b0\uc810", "addr": "\uacbd\uc0c1\ub0a8\ub3c4 \ucc3d\uc6d0\uc2dc \ub9c8\uc0b0\ud569\ud3ec\uad6c \uc2e0\ub9c8\uc0b0\uc2dc\uc7a5\uae38 33 (\ucc3d\ud3ec\ub3d93\uac00)", "lat": "35.1813836", "lng": "128.5606975"}, {"statNm": "\ub86f\ub370\ub9c8\ud2b8 \ub9c8\uc0b0\uc810", "addr": "\uacbd\uc0c1\ub0a8\ub3c4 \ucc3d\uc6d0\uc2dc \ub9c8\uc0b0\ud569\ud3ec\uad6c \uc2e0\ub9c8\uc0b0\uc2dc\uc7a5\uae38 33 (\ucc3d\ud3ec\ub3d93\uac00)", "lat": "35.1813836", "lng": "128.5606975"}, {"statNm": "\ub86f\ub370\ub9c8\ud2b8 \uc7a5\uc720\uc810", "addr": "\uacbd\uc0c1\ub0a8\ub3c4 \uae40\ud574\uc2dc \ubc88\ud6541\ub85c56\ubc88\uae38 15 \ub86f\ub370\ub9c8\ud2b8", "lat": "35.193012", "lng": "128.8013646"}, {"statNm": "\uc9c0\ub9ac\uc0b0\uad6d\ub9bd\uacf5\uc6d0 \uc911\uc0b0\ub9ac\uc8fc\ucc28\uc7a5", "addr": "\uacbd\uc0c1\ub0a8\ub3c4 \uc0b0\uccad\uad70 \uc2dc\ucc9c\uba74 \uc911\uc0b0\ub9ac 619-12", "lat": "35.304022", "lng": "127.74934"}, {"statNm": "\uc9c0\ub9ac\uc0b0\uad6d\ub9bd\uacf5\uc6d0 \uc911\uc0b0\ub9ac\uc8fc\ucc28\uc7a5", "addr": "\uacbd\uc0c1\ub0a8\ub3c4 \uc0b0\uccad\uad70 \uc2dc\ucc9c\uba74 \uc911\uc0b0\ub9ac 619-12", "lat": "35.304022", "lng": "127.74934"}, {"statNm": "\uc9c0\ub9ac\uc0b0\uad6d\ub9bd\uacf5\uc6d0 \uc30d\uacc4\uc0ac \uc8fc\ucc28\uc7a5", "addr": "\uacbd\uc0c1\ub0a8\ub3c4 \ud558\ub3d9\uad70 \ud654\uac1c\uba74 \uc6a9\uac15\ub9ac 400-5", "lat": "35.230286", "lng": "127.641776"}, {"statNm": "\uc9c0\ub9ac\uc0b0\uad6d\ub9bd\uacf5\uc6d0 \uc30d\uacc4\uc0ac \uc8fc\ucc28\uc7a5", "addr": "\uacbd\uc0c1\ub0a8\ub3c4 \ud558\ub3d9\uad70 \ud654\uac1c\uba74 \uc6a9\uac15\ub9ac 400-5", "lat": "35.230286", "lng": "127.641776"}, {"statNm": "\ud55c\ub824\ud574\uc0c1\uad6d\ub9bd\uacf5\uc6d0\uc0ac\ubb34\uc18c \ub178\ub7c9\ubd84\uc18c", "addr": "\uacbd\uc0c1\ub0a8\ub3c4 \ub0a8\ud574\uad70 \uc124\ucc9c\uba74 \ub178\ub7c9\ub9ac 410-36", "lat": "34.939704", "lng": "127.875309"}, {"statNm": "\ud55c\ub824\ud574\uc0c1\uad6d\ub9bd\uacf5\uc6d0\uc0ac\ubb34\uc18c \ub178\ub7c9\ubd84\uc18c", "addr": "\uacbd\uc0c1\ub0a8\ub3c4 \ub0a8\ud574\uad70 \uc124\ucc9c\uba74 \ub178\ub7c9\ub9ac 410-36", "lat": "34.939704", "lng": "127.875309"}, {"statNm": "\ud55c\ub824\ud574\uc0c1\uad6d\ub9bd\uacf5\uc6d0\uc0ac\ubb34\uc18c \uae08\uc0b0\ubd84\uc18c", "addr": "\uacbd\uc0c1\ub0a8\ub3c4 \ub0a8\ud574\uad70 \uc774\ub3d9\uba74 \ubcf4\ub9ac\uc554\ub85c 287", "lat": "34.773405", "lng": "127.987807"}, {"statNm": "\ud55c\ub824\ud574\uc0c1\uad6d\ub9bd\uacf5\uc6d0\uc0ac\ubb34\uc18c \uae08\uc0b0\ubd84\uc18c", "addr": "\uacbd\uc0c1\ub0a8\ub3c4 \ub0a8\ud574\uad70 \uc774\ub3d9\uba74 \ubcf4\ub9ac\uc554\ub85c 287", "lat": "34.773405", "lng": "127.987807"}, {"statNm": "\ub9cc\ud3ec\uc8fc\uc720\uc18c", "addr": "\uacbd\uc0c1\ub0a8\ub3c4 \ubc00\uc591\uc2dc \uc0bc\ub791\uc9c4\uc74d \uc0bc\ub791\uc9c4\ub85c 390", "lat": "35.39879", "lng": "128.819108"}, {"statNm": "\ud1b5\ub3c4\ud638\ud154", "addr": "\uacbd\uc0c1\ub0a8\ub3c4 \uc591\uc0b0\uc2dc \uc2e0\ud3c9\uac15\ubcc08\uae38 11", "lat": "35.493286", "lng": "129.083243"}, {"statNm": "\ud3ec\uc720\uc8fc\uc720\uc18c", "addr": "\uacbd\uc0c1\ub0a8\ub3c4 \uc591\uc0b0\uc2dc \uc5b4\uace1\ud130\ub110\ub85c40", "lat": "35.375148", "lng": "129.031419"}, {"statNm": "S-oil \ubb3c\uae08\uc8fc\uc720\uc18c", "addr": "\uacbd\uc0c1\ub0a8\ub3c4 \uc591\uc0b0\uc2dc \ubb3c\uae08\uc74d \ud669\uc0b0\ub85c501", "lat": "35.31907", "lng": "128.994332"}, {"statNm": "\uc911\uc559\uc8fc\uc720\uc18c", "addr": "\uacbd\uc0c1\ub0a8\ub3c4 \uc758\ub839\uad70 \uc758\ub839\uc74d \ubc31\uc0b0\ub85c4", "lat": "35.320263", "lng": "128.2645"}, {"statNm": "\ub9c8\uc0b0\uc758\ub8cc\uc6d0", "addr": "\uacbd\uc0c1\ub0a8\ub3c4 \ucc3d\uc6d0\uc2dc \uc7a5\uad70\ub3d94\uac00 3-6", "lat": "35.199462", "lng": "128.565332"}, {"statNm": "\ub0a8\uad11\uc11d\uc720\ud310\ub9e4", "addr": "\uacbd\uc0c1\ub0a8\ub3c4 \ucc3d\uc6d0\uc2dc \uc758\ucc3d\uad6c \ucc3d\uc6d0\ub300\ub85c314", "lat": "35.238045", "lng": "128.633719"}, {"statNm": "\uc911\uc559\ubaa8\ud130\uc2a4", "addr": "\uacbd\uc0c1\ub0a8\ub3c4 \ucc3d\uc6d0\uc2dc \uc758\ucc3d\uad6c \uc18c\uacc4\ub85c 33", "lat": "35.25481", "lng": "128.603051"}, {"statNm": "\ud569\ucc9c\uad00\uad11\ud734\uac8c\uc18c", "addr": "\uacbd\uc0c1\ub0a8\ub3c4 \ud569\ucc9c\uad70 \uc30d\ubc31\uba74 \uc30d\ubc31\uc911\uc559\ub85c162-8", "lat": "35.449674", "lng": "128.14454"}, {"statNm": "\ub86f\ub370\ub9c8\ud2b8 \uac70\uc81c\uc810", "addr": "\uacbd\uc0c1\ub0a8\ub3c4 \uac70\uc81c\uc2dc \uc11c\uac04\ub3c4\uae38 9-9 (\uc625\ud3ec\ub3d9)", "lat": "34.888448", "lng": "128.691064"}, {"statNm": "\ub86f\ub370\ub9c8\ud2b8 \uc2dc\ud2f0\uc138\ube10\uc810", "addr": "\uacbd\uc0c1\ub0a8\ub3c4 \ucc3d\uc6d0\uc2dc \uc758\ucc3d\uad6c \uc6d0\uc774\ub300\ub85c 320 (\ub450\ub300\ub3d9)", "lat": "35.240183", "lng": "128.653229"}, {"statNm": "\ub86f\ub370\ub9c8\ud2b8 \uc2dc\ud2f0\uc138\ube10\uc810", "addr": "\uacbd\uc0c1\ub0a8\ub3c4 \ucc3d\uc6d0\uc2dc \uc758\ucc3d\uad6c \uc6d0\uc774\ub300\ub85c 320 (\ub450\ub300\ub3d9)", "lat": "35.240183", "lng": "128.653229"}, {"statNm": "\ub86f\ub370\ub9c8\ud2b8 \uae40\ud574\uc810", "addr": "\uacbd\uc0c1\ub0a8\ub3c4 \uae40\ud574\uc2dc \uae40\ud574\ub300\ub85c 2330 (\ubd80\uc6d0\ub3d9)", "lat": "35.225619", "lng": "128.881964"}, {"statNm": "\ub86f\ub370\ub9c8\ud2b8 \uc591\ub355\uc810", "addr": "\uacbd\uc0c1\ub0a8\ub3c4 \ucc3d\uc6d0\uc2dc \ub9c8\uc0b0\ud68c\uc6d0\uad6c \uc0bc\ud638\ub85c 80 (\uc591\ub355\ub3d9)", "lat": "35.223311", "lng": "128.585287"}, {"statNm": "\uc0ac\ucc9c\ub9cc\ub0a8\uc758 \uad11\uc7a5", "addr": "\uacbd\uc0c1\ub0a8\ub3c4 \uc0ac\ucc9c\uc2dc \ucd95\ub3d9\uba74 \uc11c\uc0bc\ub85c 1742", "lat": "35.1090735", "lng": "128.085891"}, {"statNm": "\uc591\uc0b0\uad6d\ubbfc\uccb4\uc721\uc13c\ud130", "addr": "\uacbd\uc0c1\ub0a8\ub3c4 \uc591\uc0b0\uc2dc \ubb3c\uae08\uc74d \uac00\ucd0c\ub9ac 990, \uc548\ucabd \uc8fc\ucc28\uc7a5", "lat": "35.325638", "lng": "128.9951935"}, {"statNm": "\ub355\uacc4\ub3d9\uc8fc\ubbfc\uc13c\ud130", "addr": "\uacbd\uc0c1\ub0a8\ub3c4 \uc591\uc0b0\uc2dc \ub355\uacc4\ub3d9 1039-5", "lat": "35.3751747", "lng": "129.1497396"}, {"statNm": "\uc6c5\uc0c1\uccb4\uc721\uacf5\uc6d0", "addr": "\uacbd\uc0c1\ub0a8\ub3c4 \uc591\uc0b0\uc2dc \ud3c9\uc0b0\ub3d9 283, \ucd95\uad6c\uc7a5 \uc606", "lat": "35.3778178", "lng": "129.1434076"}, {"statNm": "\ud654\uc655\uc0b0 \uc790\uc5f0\ud734\uc591\ub9bc", "addr": "\uacbd\uc0c1\ub0a8\ub3c4 \ucc3d\ub155\uad70 \uace0\uc554\uba74 \uccad\uac04\uae38 128-126", "lat": "35.5462783", "lng": "128.5678712"}, {"statNm": "\uc0ac\ud30c\ub3d9 \ub178\uc678\uc8fc\ucc28\uc7a5", "addr": "\uacbd\uc0c1\ub0a8\ub3c4 \ucc3d\uc6d0\uc2dc \uc131\uc0b0\uad6c \uc0ac\ud30c\ub3d964-2", "lat": "35.2234373", "lng": "128.7020911"}, {"statNm": "\ud48d\ud638\ub3d9\uacf5\uc601\uc8fc\ucc28\uc7a5(\ub178\uc678\uc8fc\ucc28\uc7a5)", "addr": "\uacbd\uc0c1\ub0a8\ub3c4 \ucc3d\uc6d0\uc2dc \uc9c4\ud574\uad6c \ud48d\ud638\ub3d9 305-21", "lat": "35.1327351", "lng": "128.7041533"}, {"statNm": "\ubd80\ub9bc\uacf5\uc124\uc6b4\ub3d9\uc7a5 \uc8fc\ucc28\uc7a5", "addr": "\uacbd\uc0c1\ub0a8\ub3c4 \uc758\ub839\uad70 \ubd80\ub9bc\uba74 \uac10\uc554\ub9ac 1254", "lat": "35.4714534", "lng": "128.3227612"}, {"statNm": "\ub86f\ub370\ub9c8\ud2b8 \uc6c5\uc0c1\uc810", "addr": "\uacbd\uc0c1\ub0a8\ub3c4 \uc591\uc0b0\uc2dc \uc0bc\ud6381\uae38 34, 4\uce35 \uc8fc\ucc28\uc7a5 02", "lat": "35.4125843", "lng": "129.1671829"}, {"statNm": "\ub86f\ub370\ub9c8\ud2b8 \uc9c4\uc8fc\uc810", "addr": "\uacbd\uc0c1\ub0a8\ub3c4 \uc9c4\uc8fc\uc2dc \ub3d9\uc9c4\ub85c 440, \uc9c0\ud5582\uce35 \uc8fc\ucc28\uc7a5 C6", "lat": "35.1800924", "lng": "128.139958"}, {"statNm": "\ub86f\ub370\ub9c8\ud2b8 \ud1b5\uc601\uc810", "addr": "\uacbd\uc0c1\ub0a8\ub3c4 \ud1b5\uc601\uc2dc \ubb34\uc804\ub300\ub85c 65, 4\uce35 \uc8fc\ucc28\uc7a5", "lat": "34.8603378", "lng": "128.4287301"}, {"statNm": "\uc0bc\ucc9c\ud3ec\uc885\ud569\uc815\ube44", "addr": "\uacbd\uc0c1\ub0a8\ub3c4 \uc0ac\ucc9c\uc2dc \uc0bc\ucc9c\ud3ec\ub300\uad50\ub85c 577", "lat": "34.9493441", "lng": "128.0777738"}, {"statNm": "\uc9c4\uc8fc\ud604\ub300\uc11c\ube44\uc2a4", "addr": "\uacbd\uc0c1\ub0a8\ub3c4 \uc9c4\uc8fc\uc2dc \ub0b4\ub3d9\uba74 \ub0b4\ub3d9\ub85c 110", "lat": "35.1551221", "lng": "128.079304"}, {"statNm": "\ube44\ud559\uc5d0\ub108\uc9c0", "addr": "\uacbd\uc0c1\ub0a8\ub3c4 \uc591\uc0b0\uc2dc \uc0c1\ubd81\uba74 \uc591\uc0b0\ub300\ub85c 1510", "lat": "35.402327", "lng": "129.0565632"}, {"statNm": "\uadfc\ub85c\uc790\ubcf5\uc9c0\uacf5\ub2e8\ucc3d\uc6d0\ubcd1\uc6d0", "addr": "\uacbd\uc0c1\ub0a8\ub3c4 \ucc3d\uc6d0\uc2dc \uc131\uc0b0\uad6c \ucc3d\uc6d0\ub300\ub85c 721, \uac74\ubb3c \uc6b0\uce21", "lat": "35.2187322", "lng": "128.6722464"}, {"statNm": "\uae08\ud638\ud1b5\uc601\ub9c8\ub9ac\ub098\ub9ac\uc870\ud2b8\uc8fc\ucc28\uc7a5", "addr": "\uacbd\uc0c1\ub0a8\ub3c4 \ud1b5\uc601\uc2dc \ud070\ubc1c\uac1c 1\uae38 33, \ub9c8\ub9ac\ub098\uc694\ud2b8\ud074\ub7fd \uc55e", "lat": "34.827381", "lng": "128.439006"}, {"statNm": "\ub86f\ub370\ub9c8\ud2b8 \uc0bc\uacc4\uc810", "addr": "\uacbd\uc0c1\ub0a8\ub3c4 \ucc3d\uc6d0\uc2dc \ub9c8\uc0b0\ud68c\uc6d0\uad6c \ub0b4\uc11c\uc74d \uacbd\ub0a8\ub300\ub85c 927", "lat": "35.233023", "lng": "128.504094"}, {"statNm": "\ud648\ud50c\ub7ec\uc2a4 \ub9c8\uc0b0\uc810", "addr": "\uacbd\uc0c1\ub0a8\ub3c4 \ucc3d\uc6d0\uc2dc \ub9c8\uc0b0\ud68c\uc6d0\uad6c \uc0bc\ud638\ub85c 56", "lat": "35.222610", "lng": "128.585767"}, {"statNm": "\uc9c4\uc8fc\uc2dc\uccad", "addr": "\uacbd\uc0c1\ub0a8\ub3c4 \uc9c4\uc8fc\uc2dc \ub3d9\uc9c4\ub85c 155", "lat": "35.180378", "lng": "128.108884"}, {"statNm": "\uacbd\uc0c1\ub0a8\ub3c4 \uc11c\ubd80\uccad\uc0ac", "addr": "\uacbd\uc0c1\ub0a8\ub3c4 \uc9c4\uc8fc\uc2dc \uc6d4\uc544\uc0b0\ub85c 2026", "lat": "35.2129639", "lng": "128.1233299"}, {"statNm": "\uc9c4\ud574\ud574\uc591\uacf5\uc6d0", "addr": "\uacbd\uc0c1\ub0a8\ub3c4 \ucc3d\uc6d0\uc2dc \uc9c4\ud574\uad6c \uba85\ub3d9\ub85c 62", "lat": "35.092286", "lng": "128.719427"}, {"statNm": "\uc2e0\uc138\uacc4\uc885\ud569\uc815\ube44", "addr": "\uacbd\uc0c1\ub0a8\ub3c4 \ud1b5\uc601\uc2dc \uad11\ub3c4\uba74 \uc8fd\ub9bc\ub9ac 292-33", "lat": "34.8789124", "lng": "128.4133694"}, {"statNm": "\uae40\ud574\uc2dc \uc7a5\uc720\ucd9c\uc7a5\uc18c", "addr": "\uacbd\uc0c1\ub0a8\ub3c4 \uae40\ud574\uc2dc \ubd80\uace1\ub85c 57", "lat": "35.2090443", "lng": "128.798395"}, {"statNm": "\uc9c4\uc601\ubb38\ud654\uc13c\ud130", "addr": "\uacbd\uc0c1\ub0a8\ub3c4 \uae40\ud574\uc2dc \uc9c4\uc601\uc74d \uae40\ud574\ub300\ub85c 440", "lat": "35.3049134", "lng": "128.7374389"}, {"statNm": "\uac70\uc81c\ud734\uac8c\uc18c(\uac70\uc81c\ud574\uc591\ud30c\ud06c)", "addr": "\uacbd\uc0c1\ub0a8\ub3c4 \uac70\uc81c\uc2dc \uac70\uc81c\ub300\ub85c 1068", "lat": "34.9723153", "lng": "128.6938807"}, {"statNm": "\uace0\uc131\ud734\uac8c\uc18c(\ud558\ub0a8\ubc29\ud5a5)", "addr": "\uacbd\uc0c1\ub0a8\ub3c4 \uace0\uc131\uad70 \ub300\uac00\uba74 \ud1b5\uc601\ub300\uc804\uace0\uc18d\ub3c4\ub85c 32", "lat": "35.0571523", "lng": "128.2511447"}, {"statNm": "\uace0\uc131\ud734\uac8c\uc18c(\ud1b5\uc601\ubc29\ud5a5)", "addr": "\uacbd\uc0c1\ub0a8\ub3c4 \uace0\uc131\uad70 \ub300\uac00\uba74 \ud1b5\uc601\ub300\uc804\uace0\uc18d\ub3c4\ub85c 29", "lat": "35.0516247", "lng": "128.2638664"}, {"statNm": "\uc774\uc21c\uc2e0\uc21c\uad6d\uacf5\uc6d0", "addr": "\uacbd\uc0c1\ub0a8\ub3c4 \ub0a8\ud574\uad70 \uace0\ud604\uba74 \ucc28\uba74\ub9ac", "lat": "34.9105664", "lng": "127.8587754"}, {"statNm": "\ud558\ub3d9\uad70\uccad", "addr": "\uacbd\uc0c1\ub0a8\ub3c4 \ud558\ub3d9\uad70 \ud558\ub3d9\uc74d \uad70\uccad\ub85c 23", "lat": "35.0673835", "lng": "127.7511601"}, {"statNm": "\uc11d\ud48d\ud734\uac8c\uc18c", "addr": "\uacbd\uc0c1\ub0a8\ub3c4 \uc0b0\uccad\uad70 \uc2e0\uc548\uba74 \uc0b0\uccad\ub300\ub85c 1169", "lat": "35.3629543", "lng": "127.9186023"}, {"statNm": "\ud568\uc591\ud734\uac8c\uc18c(\ud558\ub0a8\ubc29\ud5a5)", "addr": "\uacbd\uc0c1\ub0a8\ub3c4 \ud568\uc591\uad70 \uc9c0\uace1\uba74 \ubcf4\uc0b0\ub9ac", "lat": "35.5518867", "lng": "127.7599314"}, {"statNm": "\ud568\uc591\ud734\uac8c\uc18c(\ud1b5\uc601\ubc29\ud5a5)", "addr": "\uacbd\uc0c1\ub0a8\ub3c4 \ud568\uc591\uad70 \uc9c0\uace1\uba74 \ubcf4\uc0b0\ub9ac", "lat": "35.5511049", "lng": "127.7586744"}, {"statNm": "\uc870\ub9dd\uacf5\uc6d0", "addr": "\uacbd\uc0c1\ub0a8\ub3c4 \ud568\uc591\uad70 \ud568\uc591\uc74d \uace0\uc6b4\ub85c 161-51", "lat": "35.5244553", "lng": "127.7438188"}, {"statNm": "\uac70\ucc3d\ud734\uac8c\uc18c(\uc625\ud3ec\ubc29\ud5a5)", "addr": "\uacbd\uc0c1\ub0a8\ub3c4 \uac70\ucc3d\uad70 \uac00\uc870\uba74 \ub3c4\ub9ac", "lat": "35.7057972", "lng": "128.0569946"}, {"statNm": "\uac70\ucc3d\ud734\uac8c\uc18c(\uace0\uc11c\ubc29\ud5a5)", "addr": "\uacbd\uc0c1\ub0a8\ub3c4 \uac70\ucc3d\uad70 \uac00\uc870\uba74 \ub3c4\ub9ac \uc0b0189-1", "lat": "35.7085155", "lng": "128.0574192"}, {"statNm": "\uac70\ucc3d\uad70\uccad", "addr": "\uacbd\uc0c1\ub0a8\ub3c4 \uac70\ucc3d\uad70 \uac70\ucc3d\uc74d \uc911\uc559\ub85c 103", "lat": "35.6869125", "lng": "127.9092271"}, {"statNm": "\ud569\ucc9c\uad70\uccad", "addr": "\uacbd\uc0c1\ub0a8\ub3c4 \ud569\ucc9c\uad70 \ud569\ucc9c\uc74d \ub3d9\uc11c\ub85c 119", "lat": "35.5666565", "lng": "128.1667084"}, {"statNm": "\ud1b5\ub3c4\uc0ac\ud734\uac8c\uc18c(\ubd80\uc0b0\ubc29\ud5a5)", "addr": "\uacbd\uc0c1\ub0a8\ub3c4 \uc591\uc0b0\uc2dc \ud558\ubd81\uba74 \uacbd\ubd80\uace0\uc18d\ub3c4\ub85c 31-1 (\uc21c\uc9c0\ub9ac)", "lat": "35.4885288", "lng": "129.0914428"}, {"statNm": "\ud1b5\ub3c4\uc0ac\ud734\uac8c\uc18c(\ubd80\uc0b0\ubc29\ud5a5)", "addr": "\uacbd\uc0c1\ub0a8\ub3c4 \uc591\uc0b0\uc2dc \ud558\ubd81\uba74 \uacbd\ubd80\uace0\uc18d\ub3c4\ub85c 31-1 (\uc21c\uc9c0\ub9ac)", "lat": "35.4885288", "lng": "129.0914428"}, {"statNm": "\ud1b5\ub3c4\uc0ac\ud734\uac8c\uc18c(\ubd80\uc0b0\ubc29\ud5a5)", "addr": "\uacbd\uc0c1\ub0a8\ub3c4 \uc591\uc0b0\uc2dc \ud558\ubd81\uba74 \uacbd\ubd80\uace0\uc18d\ub3c4\ub85c 31-1 (\uc21c\uc9c0\ub9ac)", "lat": "35.4885288", "lng": "129.0914428"}, {"statNm": "\uace0\uc131\ud734\uac8c\uc18c(\ud1b5\uc601\ubc29\ud5a5)", "addr": "\uacbd\uc0c1\ub0a8\ub3c4 \uace0\uc131\uad70 \ub300\uac00\uba74 \ud1b5\uc601\ub300\uc804\uace0\uc18d\ub3c4\ub85c 29 (\uc1a1\uacc4\ub9ac)", "lat": "35.0515247", "lng": "128.2640664"}, {"statNm": "\uace0\uc131\ud734\uac8c\uc18c(\ud558\ub0a8\ubc29\ud5a5)", "addr": "\uacbd\uc0c1\ub0a8\ub3c4 \uace0\uc131\uad70 \ub300\uac00\uba74 \ud1b5\uc601\ub300\uc804\uace0\uc18d\ub3c4\ub85c 32 (\uc2e0\uc804\ub9ac)", "lat": "35.0570523", "lng": "128.2513447"}, {"statNm": "\uc0b0\uccad\ud734\uac8c\uc18c(\ud1b5\uc601\ubc29\ud5a5)", "addr": "\uacbd\uc0c1\ub0a8\ub3c4 \uc0b0\uccad\uad70 \ub2e8\uc131\uba74 \ud1b5\uc601\ub300\uc804\uace0\uc18d\ub3c4\ub85c 77 (\ubc29\ubaa9\ub9ac)", "lat": "35.3333219", "lng": "127.9375368"}, {"statNm": "\uc0b0\uccad\ud734\uac8c\uc18c(\ud1b5\uc601\ubc29\ud5a5)", "addr": "\uacbd\uc0c1\ub0a8\ub3c4 \uc0b0\uccad\uad70 \ub2e8\uc131\uba74 \ud1b5\uc601\ub300\uc804\uace0\uc18d\ub3c4\ub85c 77 (\ubc29\ubaa9\ub9ac)", "lat": "35.3333219", "lng": "127.9375368"}, {"statNm": "\uc0b0\uccad\ud734\uac8c\uc18c(\ud558\ub0a8\ubc29\ud5a5)", "addr": "\uacbd\uc0c1\ub0a8\ub3c4 \uc0b0\uccad\uad70 \ub2e8\uc131\uba74 \ud1b5\uc601\ub300\uc804\uace0\uc18d\ub3c4\ub85c 76 (\ubc29\ubaa9\ub9ac)", "lat": "35.3340661", "lng": "127.9386829"}, {"statNm": "\uc0b0\uccad\ud734\uac8c\uc18c(\ud558\ub0a8\ubc29\ud5a5)", "addr": "\uacbd\uc0c1\ub0a8\ub3c4 \uc0b0\uccad\uad70 \ub2e8\uc131\uba74 \ud1b5\uc601\ub300\uc804\uace0\uc18d\ub3c4\ub85c 76 (\ubc29\ubaa9\ub9ac)", "lat": "35.3340661", "lng": "127.9386829"}, {"statNm": "\ud568\uc591\ud734\uac8c\uc18c(\ud1b5\uc601\ubc29\ud5a5)", "addr": "\uacbd\uc0c1\ub0a8\ub3c4 \ud568\uc591\uad70 \uc9c0\uace1\uba74 \ud6a8\uc0b0\uae38 23-31 (\ubcf4\uc0b0\ub9ac)", "lat": "35.5510049", "lng": "127.7588744"}, {"statNm": "\ud568\uc591\ud734\uac8c\uc18c(\ud558\ub0a8\ubc29\ud5a5)", "addr": "\uacbd\uc0c1\ub0a8\ub3c4 \ud568\uc591\uad70 \uc9c0\uace1\uba74 \ud6a8\uc0b0\uae38 23-11 (\ubcf4\uc0b0\ub9ac)", "lat": "35.5517867", "lng": "127.7601314"}, {"statNm": "\uc601\uc0b0\ud734\uac8c\uc18c(\ub9c8\uc0b0\ubc29\ud5a5)", "addr": "\uacbd\uc0c1\ub0a8\ub3c4 \ucc3d\ub155\uad70 \uc601\uc0b0\uba74 \uc7a5\ucc99\ud638\uc218\uae38 56-110 (\uc2e0\uc81c\ub9ac)", "lat": "35.4295445", "lng": "128.4963675"}, {"statNm": "\uc601\uc0b0\ud734\uac8c\uc18c(\ub9c8\uc0b0\ubc29\ud5a5)", "addr": "\uacbd\uc0c1\ub0a8\ub3c4 \ucc3d\ub155\uad70 \uc601\uc0b0\uba74 \uc7a5\ucc99\ud638\uc218\uae38 56-110 (\uc2e0\uc81c\ub9ac)", "lat": "35.4295445", "lng": "128.4963675"}, {"statNm": "\uce60\uc11c\ud734\uac8c\uc18c(\uc591\ud3c9\ubc29\ud5a5)", "addr": "\uacbd\uc0c1\ub0a8\ub3c4 \ud568\uc548\uad70 \uce60\uc11c\uba74 \uacc4\ub8e1\ub85c 122-1 (\uacc4\ub0b4\ub9ac)", "lat": "35.3704567", "lng": "128.4967833"}, {"statNm": "\uce60\uc11c\ud734\uac8c\uc18c(\uc591\ud3c9\ubc29\ud5a5)", "addr": "\uacbd\uc0c1\ub0a8\ub3c4 \ud568\uc548\uad70 \uce60\uc11c\uba74 \uacc4\ub8e1\ub85c 122-1 (\uacc4\ub0b4\ub9ac)", "lat": "35.3704567", "lng": "128.4967833"}, {"statNm": "\uc0ac\ucc9c\ud734\uac8c\uc18c(\ubd80\uc0b0\ubc29\ud5a5)", "addr": "\uacbd\uc0c1\ub0a8\ub3c4 \uc0ac\ucc9c\uc2dc \uace4\uc591\uba74 \uc11c\uc0bc\ub85c 619 (\ubb35\uace1\ub9ac)", "lat": "35.0732831", "lng": "128.0110198"}, {"statNm": "\uc0ac\ucc9c\ud734\uac8c\uc18c(\uc21c\ucc9c\ubc29\ud5a5)", "addr": "\uacbd\uc0c1\ub0a8\ub3c4 \uc0ac\ucc9c\uc2dc \uace4\uc591\uba74 \ubb35\uc2e4\uae38 31-11 (\ubb35\uace1\ub9ac)", "lat": "35.0748033", "lng": "128.0134007"}, {"statNm": "\ud568\uc548\ud734\uac8c\uc18c(\ubd80\uc0b0\ubc29\ud5a5)", "addr": "\uacbd\uc0c1\ub0a8\ub3c4 \ud568\uc548\uad70 \uad70\ubd81\uba74 \ud604\ud3ec\ub85c 205 (\uc720\ud604\ub9ac)", "lat": "35.2940514", "lng": "128.3473478"}, {"statNm": "\uac70\ucc3d\ud734\uac8c\uc18c(\uace0\uc11c\ubc29\ud5a5)", "addr": "\uacbd\uc0c1\ub0a8\ub3c4 \uac70\ucc3d\uad70 \uac00\uc870\uba74 \uac00\uc870\uac00\uc57c\ub85c 1523 (\ub3c4\ub9ac)", "lat": "35.7084155", "lng": "128.0576192"}, {"statNm": "\uac70\ucc3d\ud734\uac8c\uc18c(\uc625\ud3ec\ubc29\ud5a5)", "addr": "\uacbd\uc0c1\ub0a8\ub3c4 \uac70\ucc3d\uad70 \uac00\uc870\uba74 \uac00\uc870\uac00\uc57c\ub85c 1543-81 (\ub3c4\ub9ac)", "lat": "35.7056972", "lng": "128.0571946"}, {"statNm": "\uc7a5\uc720\ud734\uac8c\uc18c(\ubd80\uc0b0\ubc29\ud5a5)", "addr": "\uacbd\uc0c1\ub0a8\ub3c4 \uae40\ud574\uc2dc \uc7a5\uc720\ub85c116\ubc88\uae38 44-82 (\ubd80\uace1\ub3d9)", "lat": "35.2118159", "lng": "128.794438"}, {"statNm": "\uc7a5\uc720\ud734\uac8c\uc18c(\ubd80\uc0b0\ubc29\ud5a5)", "addr": "\uacbd\uc0c1\ub0a8\ub3c4 \uae40\ud574\uc2dc \uc7a5\uc720\ub85c116\ubc88\uae38 44-82 (\ubd80\uace1\ub3d9)", "lat": "35.2118159", "lng": "128.794438"}, {"statNm": "\ud55c\uad6d\ub3c4\ub85c\uacf5\uc0ac\ucc3d\uc6d0\uc9c0\uc0ac", "addr": "\uacbd\uc0c1\ub0a8\ub3c4 \ucc3d\uc6d0\uc2dc \uc758\ucc3d\uad6c \uc758\ucc3d\ub300\ub85c 1024", "lat": "35.2842423", "lng": "128.7006196"}, {"statNm": "\ub86f\ub370\ub9c8\ud2b8 \ub9c8\uc0b0\uc810", "addr": "\uacbd\uc0c1\ub0a8\ub3c4 \ucc3d\uc6d0\uc2dc \ub9c8\uc0b0\ud569\ud3ec\uad6c \uc2e0\ub9c8\uc0b0\uc2dc\uc7a5\uae38 33 (\ucc3d\ud3ec\ub3d93\uac00)", "lat": "35.1813836", "lng": "128.5606975"}, {"statNm": "\ub86f\ub370\ub9c8\ud2b8 \ub9c8\uc0b0\uc810", "addr": "\uacbd\uc0c1\ub0a8\ub3c4 \ucc3d\uc6d0\uc2dc \ub9c8\uc0b0\ud569\ud3ec\uad6c \uc2e0\ub9c8\uc0b0\uc2dc\uc7a5\uae38 33 (\ucc3d\ud3ec\ub3d93\uac00)", "lat": "35.1813836", "lng": "128.5606975"}, {"statNm": "\ub86f\ub370\ub9c8\ud2b8 \uc7a5\uc720\uc810", "addr": "\uacbd\uc0c1\ub0a8\ub3c4 \uae40\ud574\uc2dc \ubc88\ud6541\ub85c56\ubc88\uae38 15 \ub86f\ub370\ub9c8\ud2b8", "lat": "35.193012", "lng": "128.8013646"}, {"statNm": "\uc9c0\ub9ac\uc0b0\uad6d\ub9bd\uacf5\uc6d0 \uc911\uc0b0\ub9ac\uc8fc\ucc28\uc7a5", "addr": "\uacbd\uc0c1\ub0a8\ub3c4 \uc0b0\uccad\uad70 \uc2dc\ucc9c\uba74 \uc911\uc0b0\ub9ac 619-12", "lat": "35.304022", "lng": "127.74934"}, {"statNm": "\uc9c0\ub9ac\uc0b0\uad6d\ub9bd\uacf5\uc6d0 \uc911\uc0b0\ub9ac\uc8fc\ucc28\uc7a5", "addr": "\uacbd\uc0c1\ub0a8\ub3c4 \uc0b0\uccad\uad70 \uc2dc\ucc9c\uba74 \uc911\uc0b0\ub9ac 619-12", "lat": "35.304022", "lng": "127.74934"}, {"statNm": "\uc9c0\ub9ac\uc0b0\uad6d\ub9bd\uacf5\uc6d0 \uc30d\uacc4\uc0ac \uc8fc\ucc28\uc7a5", "addr": "\uacbd\uc0c1\ub0a8\ub3c4 \ud558\ub3d9\uad70 \ud654\uac1c\uba74 \uc6a9\uac15\ub9ac 400-5", "lat": "35.230286", "lng": "127.641776"}, {"statNm": "\uc9c0\ub9ac\uc0b0\uad6d\ub9bd\uacf5\uc6d0 \uc30d\uacc4\uc0ac \uc8fc\ucc28\uc7a5", "addr": "\uacbd\uc0c1\ub0a8\ub3c4 \ud558\ub3d9\uad70 \ud654\uac1c\uba74 \uc6a9\uac15\ub9ac 400-5", "lat": "35.230286", "lng": "127.641776"}, {"statNm": "\ud55c\ub824\ud574\uc0c1\uad6d\ub9bd\uacf5\uc6d0\uc0ac\ubb34\uc18c \ub178\ub7c9\ubd84\uc18c", "addr": "\uacbd\uc0c1\ub0a8\ub3c4 \ub0a8\ud574\uad70 \uc124\ucc9c\uba74 \ub178\ub7c9\ub9ac 410-36", "lat": "34.939704", "lng": "127.875309"}, {"statNm": "\ud55c\ub824\ud574\uc0c1\uad6d\ub9bd\uacf5\uc6d0\uc0ac\ubb34\uc18c \ub178\ub7c9\ubd84\uc18c", "addr": "\uacbd\uc0c1\ub0a8\ub3c4 \ub0a8\ud574\uad70 \uc124\ucc9c\uba74 \ub178\ub7c9\ub9ac 410-36", "lat": "34.939704", "lng": "127.875309"}, {"statNm": "\ud55c\ub824\ud574\uc0c1\uad6d\ub9bd\uacf5\uc6d0\uc0ac\ubb34\uc18c \uae08\uc0b0\ubd84\uc18c", "addr": "\uacbd\uc0c1\ub0a8\ub3c4 \ub0a8\ud574\uad70 \uc774\ub3d9\uba74 \ubcf4\ub9ac\uc554\ub85c 287", "lat": "34.773405", "lng": "127.987807"}, {"statNm": "\ud55c\ub824\ud574\uc0c1\uad6d\ub9bd\uacf5\uc6d0\uc0ac\ubb34\uc18c \uae08\uc0b0\ubd84\uc18c", "addr": "\uacbd\uc0c1\ub0a8\ub3c4 \ub0a8\ud574\uad70 \uc774\ub3d9\uba74 \ubcf4\ub9ac\uc554\ub85c 287", "lat": "34.773405", "lng": "127.987807"}, {"statNm": "\ub9cc\ud3ec\uc8fc\uc720\uc18c", "addr": "\uacbd\uc0c1\ub0a8\ub3c4 \ubc00\uc591\uc2dc \uc0bc\ub791\uc9c4\uc74d \uc0bc\ub791\uc9c4\ub85c 390", "lat": "35.39879", "lng": "128.819108"}, {"statNm": "\ud1b5\ub3c4\ud638\ud154", "addr": "\uacbd\uc0c1\ub0a8\ub3c4 \uc591\uc0b0\uc2dc \uc2e0\ud3c9\uac15\ubcc08\uae38 11", "lat": "35.493286", "lng": "129.083243"}, {"statNm": "\ud3ec\uc720\uc8fc\uc720\uc18c", "addr": "\uacbd\uc0c1\ub0a8\ub3c4 \uc591\uc0b0\uc2dc \uc5b4\uace1\ud130\ub110\ub85c40", "lat": "35.375148", "lng": "129.031419"}, {"statNm": "S-oil \ubb3c\uae08\uc8fc\uc720\uc18c", "addr": "\uacbd\uc0c1\ub0a8\ub3c4 \uc591\uc0b0\uc2dc \ubb3c\uae08\uc74d \ud669\uc0b0\ub85c501", "lat": "35.31907", "lng": "128.994332"}, {"statNm": "\uc911\uc559\uc8fc\uc720\uc18c", "addr": "\uacbd\uc0c1\ub0a8\ub3c4 \uc758\ub839\uad70 \uc758\ub839\uc74d \ubc31\uc0b0\ub85c4", "lat": "35.320263", "lng": "128.2645"}, {"statNm": "\ub9c8\uc0b0\uc758\ub8cc\uc6d0", "addr": "\uacbd\uc0c1\ub0a8\ub3c4 \ucc3d\uc6d0\uc2dc \uc7a5\uad70\ub3d94\uac00 3-6", "lat": "35.199462", "lng": "128.565332"}, {"statNm": "\ub0a8\uad11\uc11d\uc720\ud310\ub9e4", "addr": "\uacbd\uc0c1\ub0a8\ub3c4 \ucc3d\uc6d0\uc2dc \uc758\ucc3d\uad6c \ucc3d\uc6d0\ub300\ub85c314", "lat": "35.238045", "lng": "128.633719"}, {"statNm": "\uc911\uc559\ubaa8\ud130\uc2a4", "addr": "\uacbd\uc0c1\ub0a8\ub3c4 \ucc3d\uc6d0\uc2dc \uc758\ucc3d\uad6c \uc18c\uacc4\ub85c 33", "lat": "35.25481", "lng": "128.603051"}, {"statNm": "\ud569\ucc9c\uad00\uad11\ud734\uac8c\uc18c", "addr": "\uacbd\uc0c1\ub0a8\ub3c4 \ud569\ucc9c\uad70 \uc30d\ubc31\uba74 \uc30d\ubc31\uc911\uc559\ub85c162-8", "lat": "35.449674", "lng": "128.14454"}, {"statNm": "\ub86f\ub370\ub9c8\ud2b8 \uac70\uc81c\uc810", "addr": "\uacbd\uc0c1\ub0a8\ub3c4 \uac70\uc81c\uc2dc \uc11c\uac04\ub3c4\uae38 9-9 (\uc625\ud3ec\ub3d9)", "lat": "34.888448", "lng": "128.691064"}, {"statNm": "\ub86f\ub370\ub9c8\ud2b8 \uc2dc\ud2f0\uc138\ube10\uc810", "addr": "\uacbd\uc0c1\ub0a8\ub3c4 \ucc3d\uc6d0\uc2dc \uc758\ucc3d\uad6c \uc6d0\uc774\ub300\ub85c 320 (\ub450\ub300\ub3d9)", "lat": "35.240183", "lng": "128.653229"}, {"statNm": "\ub86f\ub370\ub9c8\ud2b8 \uc2dc\ud2f0\uc138\ube10\uc810", "addr": "\uacbd\uc0c1\ub0a8\ub3c4 \ucc3d\uc6d0\uc2dc \uc758\ucc3d\uad6c \uc6d0\uc774\ub300\ub85c 320 (\ub450\ub300\ub3d9)", "lat": "35.240183", "lng": "128.653229"}, {"statNm": "\ub86f\ub370\ub9c8\ud2b8 \uae40\ud574\uc810", "addr": "\uacbd\uc0c1\ub0a8\ub3c4 \uae40\ud574\uc2dc \uae40\ud574\ub300\ub85c 2330 (\ubd80\uc6d0\ub3d9)", "lat": "35.225619", "lng": "128.881964"}, {"statNm": "\ub86f\ub370\ub9c8\ud2b8 \uc591\ub355\uc810", "addr": "\uacbd\uc0c1\ub0a8\ub3c4 \ucc3d\uc6d0\uc2dc \ub9c8\uc0b0\ud68c\uc6d0\uad6c \uc0bc\ud638\ub85c 80 (\uc591\ub355\ub3d9)", "lat": "35.223311", "lng": "128.585287"}, {"statNm": "\uc0ac\ucc9c\ub9cc\ub0a8\uc758 \uad11\uc7a5", "addr": "\uacbd\uc0c1\ub0a8\ub3c4 \uc0ac\ucc9c\uc2dc \ucd95\ub3d9\uba74 \uc11c\uc0bc\ub85c 1742", "lat": "35.1090735", "lng": "128.085891"}, {"statNm": "\uc591\uc0b0\uad6d\ubbfc\uccb4\uc721\uc13c\ud130", "addr": "\uacbd\uc0c1\ub0a8\ub3c4 \uc591\uc0b0\uc2dc \ubb3c\uae08\uc74d \uac00\ucd0c\ub9ac 990, \uc548\ucabd \uc8fc\ucc28\uc7a5", "lat": "35.325638", "lng": "128.9951935"}, {"statNm": "\ub355\uacc4\ub3d9\uc8fc\ubbfc\uc13c\ud130", "addr": "\uacbd\uc0c1\ub0a8\ub3c4 \uc591\uc0b0\uc2dc \ub355\uacc4\ub3d9 1039-5", "lat": "35.3751747", "lng": "129.1497396"}, {"statNm": "\uc6c5\uc0c1\uccb4\uc721\uacf5\uc6d0", "addr": "\uacbd\uc0c1\ub0a8\ub3c4 \uc591\uc0b0\uc2dc \ud3c9\uc0b0\ub3d9 283, \ucd95\uad6c\uc7a5 \uc606", "lat": "35.3778178", "lng": "129.1434076"}, {"statNm": "\ud654\uc655\uc0b0 \uc790\uc5f0\ud734\uc591\ub9bc", "addr": "\uacbd\uc0c1\ub0a8\ub3c4 \ucc3d\ub155\uad70 \uace0\uc554\uba74 \uccad\uac04\uae38 128-126", "lat": "35.5462783", "lng": "128.5678712"}, {"statNm": "\uc0ac\ud30c\ub3d9 \ub178\uc678\uc8fc\ucc28\uc7a5", "addr": "\uacbd\uc0c1\ub0a8\ub3c4 \ucc3d\uc6d0\uc2dc \uc131\uc0b0\uad6c \uc0ac\ud30c\ub3d964-2", "lat": "35.2234373", "lng": "128.7020911"}, {"statNm": "\ud48d\ud638\ub3d9\uacf5\uc601\uc8fc\ucc28\uc7a5(\ub178\uc678\uc8fc\ucc28\uc7a5)", "addr": "\uacbd\uc0c1\ub0a8\ub3c4 \ucc3d\uc6d0\uc2dc \uc9c4\ud574\uad6c \ud48d\ud638\ub3d9 305-21", "lat": "35.1327351", "lng": "128.7041533"}, {"statNm": "\ubd80\ub9bc\uacf5\uc124\uc6b4\ub3d9\uc7a5 \uc8fc\ucc28\uc7a5", "addr": "\uacbd\uc0c1\ub0a8\ub3c4 \uc758\ub839\uad70 \ubd80\ub9bc\uba74 \uac10\uc554\ub9ac 1254", "lat": "35.4714534", "lng": "128.3227612"}, {"statNm": "\ub86f\ub370\ub9c8\ud2b8 \uc6c5\uc0c1\uc810", "addr": "\uacbd\uc0c1\ub0a8\ub3c4 \uc591\uc0b0\uc2dc \uc0bc\ud6381\uae38 34, 4\uce35 \uc8fc\ucc28\uc7a5 02", "lat": "35.4125843", "lng": "129.1671829"}, {"statNm": "\ub86f\ub370\ub9c8\ud2b8 \uc9c4\uc8fc\uc810", "addr": "\uacbd\uc0c1\ub0a8\ub3c4 \uc9c4\uc8fc\uc2dc \ub3d9\uc9c4\ub85c 440, \uc9c0\ud5582\uce35 \uc8fc\ucc28\uc7a5 C6", "lat": "35.1800924", "lng": "128.139958"}, {"statNm": "\ub86f\ub370\ub9c8\ud2b8 \ud1b5\uc601\uc810", "addr": "\uacbd\uc0c1\ub0a8\ub3c4 \ud1b5\uc601\uc2dc \ubb34\uc804\ub300\ub85c 65, 4\uce35 \uc8fc\ucc28\uc7a5", "lat": "34.8603378", "lng": "128.4287301"}, {"statNm": "\uc0bc\ucc9c\ud3ec\uc885\ud569\uc815\ube44", "addr": "\uacbd\uc0c1\ub0a8\ub3c4 \uc0ac\ucc9c\uc2dc \uc0bc\ucc9c\ud3ec\ub300\uad50\ub85c 577", "lat": "34.9493441", "lng": "128.0777738"}, {"statNm": "\uc9c4\uc8fc\ud604\ub300\uc11c\ube44\uc2a4", "addr": "\uacbd\uc0c1\ub0a8\ub3c4 \uc9c4\uc8fc\uc2dc \ub0b4\ub3d9\uba74 \ub0b4\ub3d9\ub85c 110", "lat": "35.1551221", "lng": "128.079304"}, {"statNm": "\ube44\ud559\uc5d0\ub108\uc9c0", "addr": "\uacbd\uc0c1\ub0a8\ub3c4 \uc591\uc0b0\uc2dc \uc0c1\ubd81\uba74 \uc591\uc0b0\ub300\ub85c 1510", "lat": "35.402327", "lng": "129.0565632"}, {"statNm": "\uadfc\ub85c\uc790\ubcf5\uc9c0\uacf5\ub2e8\ucc3d\uc6d0\ubcd1\uc6d0", "addr": "\uacbd\uc0c1\ub0a8\ub3c4 \ucc3d\uc6d0\uc2dc \uc131\uc0b0\uad6c \ucc3d\uc6d0\ub300\ub85c 721, \uac74\ubb3c \uc6b0\uce21", "lat": "35.2187322", "lng": "128.6722464"}, {"statNm": "\uae08\ud638\ud1b5\uc601\ub9c8\ub9ac\ub098\ub9ac\uc870\ud2b8\uc8fc\ucc28\uc7a5", "addr": "\uacbd\uc0c1\ub0a8\ub3c4 \ud1b5\uc601\uc2dc \ud070\ubc1c\uac1c 1\uae38 33, \ub9c8\ub9ac\ub098\uc694\ud2b8\ud074\ub7fd \uc55e", "lat": "34.827381", "lng": "128.439006"}, {"statNm": "\ub86f\ub370\ub9c8\ud2b8 \uc0bc\uacc4\uc810", "addr": "\uacbd\uc0c1\ub0a8\ub3c4 \ucc3d\uc6d0\uc2dc \ub9c8\uc0b0\ud68c\uc6d0\uad6c \ub0b4\uc11c\uc74d \uacbd\ub0a8\ub300\ub85c 927", "lat": "35.233023", "lng": "128.504094"}, {"statNm": "\ud648\ud50c\ub7ec\uc2a4 \ub9c8\uc0b0\uc810", "addr": "\uacbd\uc0c1\ub0a8\ub3c4 \ucc3d\uc6d0\uc2dc \ub9c8\uc0b0\ud68c\uc6d0\uad6c \uc0bc\ud638\ub85c 56", "lat": "35.222610", "lng": "128.585767"}, {"statNm": "\uc9c4\uc8fc\uc2dc\uccad", "addr": "\uacbd\uc0c1\ub0a8\ub3c4 \uc9c4\uc8fc\uc2dc \ub3d9\uc9c4\ub85c 155", "lat": "35.180378", "lng": "128.108884"}, {"statNm": "\uacbd\uc0c1\ub0a8\ub3c4 \uc11c\ubd80\uccad\uc0ac", "addr": "\uacbd\uc0c1\ub0a8\ub3c4 \uc9c4\uc8fc\uc2dc \uc6d4\uc544\uc0b0\ub85c 2026", "lat": "35.2129639", "lng": "128.1233299"}, {"statNm": "\uc9c4\ud574\ud574\uc591\uacf5\uc6d0", "addr": "\uacbd\uc0c1\ub0a8\ub3c4 \ucc3d\uc6d0\uc2dc \uc9c4\ud574\uad6c \uba85\ub3d9\ub85c 62", "lat": "35.092286", "lng": "128.719427"}, {"statNm": "\uc2e0\uc138\uacc4\uc885\ud569\uc815\ube44", "addr": "\uacbd\uc0c1\ub0a8\ub3c4 \ud1b5\uc601\uc2dc \uad11\ub3c4\uba74 \uc8fd\ub9bc\ub9ac 292-33", "lat": "34.8789124", "lng": "128.4133694"}, {"statNm": "\uae40\ud574\uc2dc \uc7a5\uc720\ucd9c\uc7a5\uc18c", "addr": "\uacbd\uc0c1\ub0a8\ub3c4 \uae40\ud574\uc2dc \ubd80\uace1\ub85c 57", "lat": "35.2090443", "lng": "128.798395"}, {"statNm": "\uc9c4\uc601\ubb38\ud654\uc13c\ud130", "addr": "\uacbd\uc0c1\ub0a8\ub3c4 \uae40\ud574\uc2dc \uc9c4\uc601\uc74d \uae40\ud574\ub300\ub85c 440", "lat": "35.3049134", "lng": "128.7374389"}, {"statNm": "\uac70\uc81c\ud734\uac8c\uc18c(\uac70\uc81c\ud574\uc591\ud30c\ud06c)", "addr": "\uacbd\uc0c1\ub0a8\ub3c4 \uac70\uc81c\uc2dc \uac70\uc81c\ub300\ub85c 1068", "lat": "34.9723153", "lng": "128.6938807"}, {"statNm": "\uace0\uc131\ud734\uac8c\uc18c(\ud558\ub0a8\ubc29\ud5a5)", "addr": "\uacbd\uc0c1\ub0a8\ub3c4 \uace0\uc131\uad70 \ub300\uac00\uba74 \ud1b5\uc601\ub300\uc804\uace0\uc18d\ub3c4\ub85c 32", "lat": "35.0571523", "lng": "128.2511447"}, {"statNm": "\uace0\uc131\ud734\uac8c\uc18c(\ud1b5\uc601\ubc29\ud5a5)", "addr": "\uacbd\uc0c1\ub0a8\ub3c4 \uace0\uc131\uad70 \ub300\uac00\uba74 \ud1b5\uc601\ub300\uc804\uace0\uc18d\ub3c4\ub85c 29", "lat": "35.0516247", "lng": "128.2638664"}, {"statNm": "\uc774\uc21c\uc2e0\uc21c\uad6d\uacf5\uc6d0", "addr": "\uacbd\uc0c1\ub0a8\ub3c4 \ub0a8\ud574\uad70 \uace0\ud604\uba74 \ucc28\uba74\ub9ac", "lat": "34.9105664", "lng": "127.8587754"}, {"statNm": "\ud558\ub3d9\uad70\uccad", "addr": "\uacbd\uc0c1\ub0a8\ub3c4 \ud558\ub3d9\uad70 \ud558\ub3d9\uc74d \uad70\uccad\ub85c 23", "lat": "35.0673835", "lng": "127.7511601"}, {"statNm": "\uc11d\ud48d\ud734\uac8c\uc18c", "addr": "\uacbd\uc0c1\ub0a8\ub3c4 \uc0b0\uccad\uad70 \uc2e0\uc548\uba74 \uc0b0\uccad\ub300\ub85c 1169", "lat": "35.3629543", "lng": "127.9186023"}, {"statNm": "\ud568\uc591\ud734\uac8c\uc18c(\ud558\ub0a8\ubc29\ud5a5)", "addr": "\uacbd\uc0c1\ub0a8\ub3c4 \ud568\uc591\uad70 \uc9c0\uace1\uba74 \ubcf4\uc0b0\ub9ac", "lat": "35.5518867", "lng": "127.7599314"}, {"statNm": "\ud568\uc591\ud734\uac8c\uc18c(\ud1b5\uc601\ubc29\ud5a5)", "addr": "\uacbd\uc0c1\ub0a8\ub3c4 \ud568\uc591\uad70 \uc9c0\uace1\uba74 \ubcf4\uc0b0\ub9ac", "lat": "35.5511049", "lng": "127.7586744"}, {"statNm": "\uc870\ub9dd\uacf5\uc6d0", "addr": "\uacbd\uc0c1\ub0a8\ub3c4 \ud568\uc591\uad70 \ud568\uc591\uc74d \uace0\uc6b4\ub85c 161-51", "lat": "35.5244553", "lng": "127.7438188"}, {"statNm": "\uac70\ucc3d\ud734\uac8c\uc18c(\uc625\ud3ec\ubc29\ud5a5)", "addr": "\uacbd\uc0c1\ub0a8\ub3c4 \uac70\ucc3d\uad70 \uac00\uc870\uba74 \ub3c4\ub9ac", "lat": "35.7057972", "lng": "128.0569946"}, {"statNm": "\uac70\ucc3d\ud734\uac8c\uc18c(\uace0\uc11c\ubc29\ud5a5)", "addr": "\uacbd\uc0c1\ub0a8\ub3c4 \uac70\ucc3d\uad70 \uac00\uc870\uba74 \ub3c4\ub9ac \uc0b0189-1", "lat": "35.7085155", "lng": "128.0574192"}, {"statNm": "\uac70\ucc3d\uad70\uccad", "addr": "\uacbd\uc0c1\ub0a8\ub3c4 \uac70\ucc3d\uad70 \uac70\ucc3d\uc74d \uc911\uc559\ub85c 103", "lat": "35.6869125", "lng": "127.9092271"}, {"statNm": "\ud569\ucc9c\uad70\uccad", "addr": "\uacbd\uc0c1\ub0a8\ub3c4 \ud569\ucc9c\uad70 \ud569\ucc9c\uc74d \ub3d9\uc11c\ub85c 119", "lat": "35.5666565", "lng": "128.1667084"}, {"statNm": "\ud1b5\ub3c4\uc0ac\ud734\uac8c\uc18c(\ubd80\uc0b0\ubc29\ud5a5)", "addr": "\uacbd\uc0c1\ub0a8\ub3c4 \uc591\uc0b0\uc2dc \ud558\ubd81\uba74 \uacbd\ubd80\uace0\uc18d\ub3c4\ub85c 31-1 (\uc21c\uc9c0\ub9ac)", "lat": "35.4885288", "lng": "129.0914428"}, {"statNm": "\ud1b5\ub3c4\uc0ac\ud734\uac8c\uc18c(\ubd80\uc0b0\ubc29\ud5a5)", "addr": "\uacbd\uc0c1\ub0a8\ub3c4 \uc591\uc0b0\uc2dc \ud558\ubd81\uba74 \uacbd\ubd80\uace0\uc18d\ub3c4\ub85c 31-1 (\uc21c\uc9c0\ub9ac)", "lat": "35.4885288", "lng": "129.0914428"}, {"statNm": "\ud1b5\ub3c4\uc0ac\ud734\uac8c\uc18c(\ubd80\uc0b0\ubc29\ud5a5)", "addr": "\uacbd\uc0c1\ub0a8\ub3c4 \uc591\uc0b0\uc2dc \ud558\ubd81\uba74 \uacbd\ubd80\uace0\uc18d\ub3c4\ub85c 31-1 (\uc21c\uc9c0\ub9ac)", "lat": "35.4885288", "lng": "129.0914428"}, {"statNm": "\uace0\uc131\ud734\uac8c\uc18c(\ud1b5\uc601\ubc29\ud5a5)", "addr": "\uacbd\uc0c1\ub0a8\ub3c4 \uace0\uc131\uad70 \ub300\uac00\uba74 \ud1b5\uc601\ub300\uc804\uace0\uc18d\ub3c4\ub85c 29 (\uc1a1\uacc4\ub9ac)", "lat": "35.0515247", "lng": "128.2640664"}, {"statNm": "\uace0\uc131\ud734\uac8c\uc18c(\ud558\ub0a8\ubc29\ud5a5)", "addr": "\uacbd\uc0c1\ub0a8\ub3c4 \uace0\uc131\uad70 \ub300\uac00\uba74 \ud1b5\uc601\ub300\uc804\uace0\uc18d\ub3c4\ub85c 32 (\uc2e0\uc804\ub9ac)", "lat": "35.0570523", "lng": "128.2513447"}, {"statNm": "\uc0b0\uccad\ud734\uac8c\uc18c(\ud1b5\uc601\ubc29\ud5a5)", "addr": "\uacbd\uc0c1\ub0a8\ub3c4 \uc0b0\uccad\uad70 \ub2e8\uc131\uba74 \ud1b5\uc601\ub300\uc804\uace0\uc18d\ub3c4\ub85c 77 (\ubc29\ubaa9\ub9ac)", "lat": "35.3333219", "lng": "127.9375368"}, {"statNm": "\uc0b0\uccad\ud734\uac8c\uc18c(\ud1b5\uc601\ubc29\ud5a5)", "addr": "\uacbd\uc0c1\ub0a8\ub3c4 \uc0b0\uccad\uad70 \ub2e8\uc131\uba74 \ud1b5\uc601\ub300\uc804\uace0\uc18d\ub3c4\ub85c 77 (\ubc29\ubaa9\ub9ac)", "lat": "35.3333219", "lng": "127.9375368"}, {"statNm": "\uc0b0\uccad\ud734\uac8c\uc18c(\ud558\ub0a8\ubc29\ud5a5)", "addr": "\uacbd\uc0c1\ub0a8\ub3c4 \uc0b0\uccad\uad70 \ub2e8\uc131\uba74 \ud1b5\uc601\ub300\uc804\uace0\uc18d\ub3c4\ub85c 76 (\ubc29\ubaa9\ub9ac)", "lat": "35.3340661", "lng": "127.9386829"},